timestamp,magnetometer_ga[0],magnetometer_ga[1],magnetometer_ga[2]
1216000,0.895772,0.0384188,1.78968
1856000,0.901867,0.02927,1.78572
1868000,0.905799,0.0241684,1.78263
1876000,0.902233,0.0274193,1.78236
1888000,0.896356,0.0324998,1.77972
1896000,0.902896,0.0369548,1.78098
1908000,0.895855,0.0342433,1.78791
1916000,0.898824,0.0292007,1.78125
1928000,0.897886,0.0309134,1.79849
1936000,0.902296,0.0379877,1.78663
1948000,0.902026,0.0311356,1.78669
1956000,0.898916,0.032035,1.79427
1968000,0.903328,0.0429392,1.79251
1976000,0.89047,0.0272489,1.78691
1988000,0.905333,0.0300606,1.78879
1996000,0.898707,0.0250558,1.79456
2008000,0.892514,0.0390062,1.78175
2016000,0.904153,0.032682,1.78444
2028000,0.893384,0.031929,1.7912
2036000,0.902608,0.0399778,1.78587
2048000,0.886452,0.0321125,1.78266
2056000,0.892249,0.02567,1.78918
2068000,0.900193,0.0296976,1.78376
2076000,0.898796,0.0340504,1.78611
2088000,0.900157,0.0230322,1.78486
2096000,0.896433,0.0371748,1.78867
2108000,0.894455,0.0322359,1.78595
2116000,0.898643,0.037695,1.7864
2128000,0.894772,0.0306918,1.78917
2136000,0.899413,0.0420254,1.79678
2148000,0.904631,0.035606,1.78765
2156000,0.891118,0.0273007,1.79945
2168000,0.900608,0.0371517,1.77423
2176000,0.895246,0.0398817,1.79434
2188000,0.907227,0.0360904,1.79237
2196000,0.904813,0.032952,1.78995
2208000,0.899262,0.0382104,1.78576
2216000,0.897254,0.037532,1.78237
2228000,0.892841,0.0311035,1.78382
2236000,0.891046,0.0275691,1.78933
2248000,0.897866,0.0340451,1.78108
2256000,0.89736,0.0330189,1.78669
2268000,0.895461,0.0353378,1.7937
2276000,0.897682,0.0381132,1.78233
2288000,0.902852,0.039716,1.79302
2296000,0.898527,0.0404788,1.78133
2308000,0.89902,0.0369013,1.78796
2316000,0.90011,0.0348643,1.78939
2328000,0.906878,0.0299741,1.79279
2336000,0.897817,0.0335247,1.78848
2348000,0.903287,0.0340566,1.78784
2356000,0.901017,0.027124,1.79029
2368000,0.90047,0.035604,1.78024
2376000,0.895765,0.0300376,1.78756
2388000,0.904064,0.0348933,1.79263
2396000,0.889543,0.0380453,1.78228
2408000,0.890568,0.0336169,1.78862
2416000,0.899004,0.0286019,1.78755
2428000,0.900854,0.0277809,1.78864
2436000,0.896017,0.0342554,1.7936
2448000,0.889759,0.0367272,1.786
2456000,0.892426,0.0148352,1.78645
2468000,0.898616,0.0400469,1.78294
2476000,0.897403,0.0327956,1.78343
2488000,0.902116,0.0304171,1.79184
2496000,0.901914,0.0302368,1.78464
2508000,0.889163,0.0274607,1.79224
2516000,0.896903,0.0269554,1.78962
2528000,0.899936,0.033284,1.78399
2536000,0.899603,0.0361464,1.77934
2548000,0.887673,0.0361916,1.78292
2556000,0.897691,0.0362239,1.79214
2568000,0.901767,0.0306527,1.78554
2576000,0.897463,0.0409243,1.78337
2588000,0.897383,0.0430612,1.78811
2596000,0.901761,0.0292194,1.79118
2608000,0.89583,0.0273313,1.79398
2616000,0.887451,0.0316217,1.78168
2628000,0.899488,0.0329399,1.78361
2636000,0.90027,0.030969,1.78892
2648000,0.89786,0.0397142,1.78663
2656000,0.902307,0.0341635,1.78491
2668000,0.910254,0.0437459,1.79307
2676000,0.892838,0.0371265,1.78478
2688000,0.896398,0.0351829,1.78573
2696000,0.90086,0.0341166,1.79724
2708000,0.902865,0.0333459,1.78991
2716000,0.897608,0.0379665,1.7863
2728000,0.894617,0.0302452,1.78459
2736000,0.906702,0.034013,1.77903
2748000,0.903817,0.0427976,1.78234
2756000,0.903199,0.0346408,1.7937
2768000,0.910151,0.038701,1.78497
2776000,0.89633,0.0300292,1.78246
2788000,0.908071,0.0346107,1.78433
2796000,0.891405,0.0359539,1.78769
2808000,0.909337,0.0238642,1.78736
2816000,0.899428,0.0348976,1.79579
2828000,0.900872,0.0393792,1.78601
2836000,0.900608,0.035151,1.78443
2848000,0.899139,0.03278,1.79543
2856000,0.896518,0.0349257,1.78437
2868000,0.906485,0.0337517,1.79133
2876000,0.893841,0.0331476,1.78687
2888000,0.894078,0.0273207,1.79141
2896000,0.897566,0.0346892,1.78893
2908000,0.901583,0.0460017,1.78294
2916000,0.894493,0.0349029,1.78928
2928000,0.897229,0.0305102,1.79572
2936000,0.906417,0.0328414,1.78023
2948000,0.895374,0.0408004,1.78756
2956000,0.896235,0.0374252,1.79215
2968000,0.902413,0.0382149,1.78488
2976000,0.899436,0.0307953,1.77769
2988000,0.893208,0.0406249,1.7823
2996000,0.89811,0.0351974,1.78491
3008000,0.896428,0.0303948,1.78324
3016000,0.899131,0.0323256,1.78402
3028000,0.887034,0.0330372,1.7855
3036000,0.901766,0.0393666,1.78777
3048000,0.896283,0.0262766,1.79033
3056000,0.893888,0.0349372,1.79405
3068000,0.899925,0.0322281,1.78515
3076000,0.890704,0.0315924,1.78353
3088000,0.892841,0.0433925,1.78676
3096000,0.901884,0.0372553,1.78737
3108000,0.894369,0.0357551,1.78548
3116000,0.897456,0.0379151,1.78372
3128000,0.899449,0.0303981,1.79075
3136000,0.900742,0.0312563,1.79205
3148000,0.898742,0.034503,1.79244
3156000,0.895474,0.0267097,1.78724
3168000,0.894047,0.0338736,1.78605
3176000,0.903905,0.0362097,1.78169
3188000,0.907934,0.0328687,1.79115
3196000,0.898452,0.0293304,1.78549
3208000,0.892801,0.0298796,1.78671
3216000,0.901181,0.0294983,1.79133
3228000,0.903589,0.0347126,1.78458
3236000,0.892243,0.029074,1.80009
3248000,0.898924,0.0279064,1.78256
3256000,0.899681,0.0401424,1.78885
3268000,0.897662,0.035924,1.78909
3276000,0.905931,0.0320752,1.7883
3288000,0.906058,0.0318625,1.78312
3296000,0.902072,0.0396651,1.78259
3308000,0.888394,0.0311317,1.79011
3316000,0.894872,0.0412384,1.7847
3328000,0.894397,0.0316428,1.78509
3336000,0.898355,0.0341906,1.78965
3348000,0.905581,0.0315021,1.77908
3356000,0.903373,0.0341472,1.78942
3368000,0.897167,0.0234301,1.79131
3376000,0.903234,0.0315043,1.78521
3388000,0.902188,0.0299845,1.78706
3396000,0.896756,0.0303703,1.78862
3408000,0.905011,0.0344188,1.78046
3416000,0.894426,0.034176,1.79236
3428000,0.901932,0.0398325,1.78648
3436000,0.902283,0.0343198,1.78654
3448000,0.898199,0.0339475,1.78853
3456000,0.909316,0.0374206,1.78333
3468000,0.897376,0.0331509,1.78539
3476000,0.908174,0.0315641,1.79223
3488000,0.896626,0.0308061,1.78334
3496000,0.900273,0.0477104,1.79056
3508000,0.901539,0.0356938,1.78634
3516000,0.902251,0.0318875,1.78502
3528000,0.90698,0.0292248,1.78301
3536000,0.902413,0.0356783,1.79217
3548000,0.897815,0.0358734,1.78094
3556000,0.902416,0.0368978,1.78226
3568000,0.897547,0.0368989,1.78561
3576000,0.900565,0.0447114,1.78755
3588000,0.892542,0.0352627,1.79476
3596000,0.885213,0.0403266,1.78716
3608000,0.898287,0.0269662,1.78752
3616000,0.896514,0.0392858,1.7843
3628000,0.904008,0.0247191,1.78662
3636000,0.906139,0.0295302,1.79237
3648000,0.894903,0.0411296,1.78137
3656000,0.895515,0.0297353,1.78451
3668000,0.904401,0.0200403,1.78724
3676000,0.898263,0.0363676,1.78713
3688000,0.893024,0.0339819,1.78742
3696000,0.900851,0.0314436,1.78794
3708000,0.911899,0.0379433,1.78938
3716000,0.898669,0.0354893,1.78094
3728000,0.889466,0.0373419,1.78819
3736000,0.904284,0.034027,1.78425
3748000,0.895549,0.0377862,1.78746
3756000,0.894231,0.0290151,1.78986
3768000,0.897904,0.0325402,1.77875
3776000,0.903063,0.0372185,1.78609
3788000,0.899455,0.0365917,1.79249
3796000,0.893594,0.0308264,1.78375
3808000,0.898724,0.0353072,1.78376
3816000,0.905815,0.0410302,1.7863
3828000,0.886084,0.0342869,1.78888
3836000,0.896514,0.0334584,1.79061
3848000,0.901397,0.0363223,1.78305
3856000,0.895207,0.0310727,1.78708
3868000,0.894999,0.0355493,1.7818
3876000,0.894461,0.0351689,1.78882
3888000,0.910623,0.0361189,1.78208
3896000,0.903378,0.0319605,1.79117
3908000,0.892666,0.0393365,1.78408
3916000,0.891606,0.0302272,1.78541
3928000,0.912631,0.0390349,1.78235
3936000,0.892749,0.0313376,1.79853
3948000,0.892049,0.039157,1.77994
3956000,0.887991,0.0343017,1.78807
3968000,0.89341,0.0272431,1.78914
3976000,0.895118,0.0290091,1.78843
3988000,0.895071,0.0351398,1.79092
3996000,0.901035,0.0313203,1.78021
4008000,0.893229,0.0333043,1.77844
4016000,0.897076,0.024421,1.79236
4028000,0.893425,0.0356143,1.78431
4036000,0.908271,0.0357002,1.77827
4048000,0.899299,0.0331919,1.78818
4056000,0.893531,0.0335276,1.79164
4068000,0.897501,0.0288686,1.78446
4076000,0.896655,0.0359215,1.7906
4088000,0.913155,0.0404331,1.78516
4096000,0.905371,0.0401764,1.78282
4108000,0.895356,0.027209,1.78584
4116000,0.89685,0.0326992,1.78541
4128000,0.896407,0.0319811,1.7855
4136000,0.901112,0.0335533,1.79239
4148000,0.901996,0.0296714,1.78864
4156000,0.893805,0.0365183,1.7833
4168000,0.899609,0.0303211,1.78697
4176000,0.900778,0.0365532,1.78801
4188000,0.906669,0.0292082,1.78983
4196000,0.893111,0.0304573,1.78603
4208000,0.890719,0.0326862,1.78533
4216000,0.896847,0.0366373,1.78814
4228000,0.890369,0.031993,1.78534
4236000,0.893263,0.0356016,1.793
4248000,0.905133,0.0360639,1.7853
4256000,0.892613,0.0339848,1.79191
4268000,0.89393,0.0393865,1.78319
4276000,0.899876,0.0327857,1.78682
4288000,0.900611,0.0367489,1.78848
4296000,0.891131,0.0310927,1.79435
4308000,0.906208,0.0306737,1.78956
4316000,0.895233,0.0261945,1.78219
4328000,0.901543,0.0320587,1.78345
4336000,0.905883,0.0304138,1.78259
4348000,0.894244,0.0376425,1.78747
4356000,0.891885,0.0273388,1.79332
4368000,0.898526,0.0406061,1.79666
4376000,0.893398,0.0289112,1.79586
4388000,0.892859,0.0440344,1.78961
4396000,0.894296,0.0369534,1.77939
4408000,0.911055,0.0367107,1.78639
4416000,0.905506,0.0255407,1.78383
4428000,0.898143,0.0341852,1.78913
4436000,0.898568,0.0273101,1.78599
4448000,0.902795,0.0398395,1.79391
4456000,0.893957,0.0352939,1.78221
4468000,0.901007,0.0376518,1.77912
4476000,0.90022,0.0370919,1.78354
4488000,0.898951,0.0386992,1.78522
4496000,0.899166,0.0256479,1.7919
4508000,0.89474,0.034568,1.78227
4516000,0.897805,0.0255846,1.78529
4528000,0.90181,0.0313349,1.78505
4536000,0.897982,0.0299236,1.77258
4548000,0.89962,0.0370974,1.78327
4556000,0.895201,0.0406227,1.78915
4568000,0.893514,0.0302223,1.79056
4576000,0.89251,0.0313255,1.78698
4588000,0.894263,0.0301602,1.78439
4596000,0.895845,0.0248665,1.7913
4608000,0.897871,0.0431671,1.78919
4616000,0.896793,0.03567,1.79141
4628000,0.902207,0.0312451,1.78132
4636000,0.904139,0.0317822,1.78934
4648000,0.901034,0.0257327,1.79471
4656000,0.894378,0.0388927,1.78738
4668000,0.895092,0.0358861,1.79064
4676000,0.905257,0.0348627,1.78736
4688000,0.898756,0.0316039,1.79612
4696000,0.903341,0.0304439,1.78457
4708000,0.897051,0.0302572,1.78742
4716000,0.896737,0.0362567,1.79778
4728000,0.90641,0.0326123,1.79627
4736000,0.895574,0.0362385,1.78327
4748000,0.900623,0.0320735,1.78422
4756000,0.901657,0.0362082,1.78266
4768000,0.901297,0.0308291,1.79543
4776000,0.898119,0.0274458,1.7827
4788000,0.887917,0.0369483,1.78927
4796000,0.895287,0.0332889,1.79353
4808000,0.899881,0.0266071,1.79415
4816000,0.900915,0.0324775,1.7964
4828000,0.896813,0.0368558,1.79198
4836000,0.903035,0.0308651,1.78717
4848000,0.897565,0.0381258,1.788
4856000,0.897255,0.0450049,1.79225
4868000,0.900822,0.0314625,1.78439
4876000,0.904326,0.037605,1.78121
4888000,0.890226,0.0295851,1.79006
4896000,0.892939,0.0312206,1.79282
4908000,0.902322,0.0396895,1.78049
4916000,0.898043,0.0422179,1.78974
4928000,0.898335,0.0286693,1.78393
4936000,0.894679,0.0340435,1.79314
4948000,0.903614,0.0247838,1.78985
4956000,0.908121,0.0345498,1.784
4968000,0.906215,0.0356803,1.79012
4976000,0.895899,0.0257707,1.7945
4988000,0.896614,0.0300001,1.78734
4996000,0.903461,0.0303508,1.78964
5008000,0.895208,0.0355804,1.80194
5016000,0.894913,0.0343208,1.78055
5028000,0.900179,0.0255958,1.78408
5036000,0.895296,0.0327566,1.79341
5048000,0.897331,0.0335298,1.79339
5056000,0.899719,0.0375704,1.79161
5068000,0.890572,0.0228152,1.79775
5076000,0.904462,0.0408513,1.78308
5088000,0.897519,0.0418974,1.78293
5096000,0.907008,0.0437034,1.78098
5108000,0.89561,0.0399763,1.78247
5116000,0.906877,0.0240549,1.78979
5128000,0.900154,0.0378466,1.78501
5136000,0.900123,0.0349554,1.77985
5148000,0.89405,0.0356941,1.79058
5156000,0.899592,0.0360218,1.78763
5168000,0.901362,0.0293567,1.78941
5176000,0.895719,0.0268814,1.79052
5188000,0.89767,0.0317443,1.79124
5196000,0.89713,0.0453226,1.79319
5208000,0.894036,0.0376166,1.78527
5216000,0.905131,0.0318714,1.78496
5228000,0.899879,0.0375501,1.78484
5236000,0.892577,0.0296648,1.79039
5248000,0.894247,0.035392,1.78377
5256000,0.89576,0.0341551,1.77942
5268000,0.895716,0.0329492,1.78579
5276000,0.887919,0.025879,1.78606
5288000,0.884792,0.0336165,1.79503
5296000,0.887834,0.0417211,1.78327
5308000,0.900372,0.0356989,1.78652
5316000,0.895435,0.036933,1.79013
5328000,0.902387,0.0346823,1.77639
5336000,0.901496,0.0341323,1.78885
5348000,0.893835,0.0339901,1.78763
5356000,0.892379,0.0411798,1.78839
5368000,0.907878,0.0270409,1.79156
5376000,0.893546,0.0414614,1.78826
5388000,0.905993,0.0368978,1.78656
5396000,0.895155,0.034376,1.78189
5408000,0.897932,0.031509,1.78244
5416000,0.902971,0.0341332,1.77506
5428000,0.899441,0.0268459,1.78472
5436000,0.89569,0.0322422,1.77742
5448000,0.89173,0.033603,1.78319
5456000,0.893122,0.0348486,1.78483
5468000,0.900745,0.0323462,1.78974
5476000,0.883724,0.0396504,1.78942
5488000,0.891704,0.0351794,1.79447
5496000,0.900871,0.0320265,1.78232
5508000,0.897981,0.0460465,1.78802
5516000,0.903085,0.0366743,1.78702
5528000,0.891544,0.0346518,1.78868
5536000,0.90917,0.032235,1.79304
5548000,0.894351,0.0322855,1.77948
5556000,0.894132,0.0352697,1.7899
5568000,0.897548,0.0306424,1.77885
5576000,0.902109,0.0405594,1.77647
5588000,0.90067,0.0364007,1.78508
5596000,0.905515,0.0271928,1.77635
5608000,0.902204,0.0352011,1.78933
5616000,0.895469,0.0271304,1.78521
5628000,0.892965,0.0373358,1.7854
5636000,0.899155,0.0382298,1.78612
5648000,0.884645,0.0295382,1.7897
5656000,0.893301,0.0313179,1.7901
5668000,0.909835,0.0345863,1.78619
5676000,0.900327,0.0251799,1.77871
5688000,0.898753,0.0296309,1.77759
5696000,0.890934,0.0276786,1.78905
5708000,0.884386,0.0310313,1.78575
5716000,0.902999,0.0375427,1.79185
5728000,0.895118,0.0410115,1.78637
5736000,0.895147,0.0366825,1.78072
5748000,0.894281,0.0230408,1.78495
5756000,0.905258,0.0387001,1.78754
5768000,0.901244,0.027614,1.78587
5776000,0.897852,0.0358446,1.78491
5788000,0.895319,0.0213725,1.78755
5796000,0.902638,0.0361343,1.77964
5808000,0.901667,0.037393,1.78762
5816000,0.900451,0.0323173,1.78513
5828000,0.885051,0.0366104,1.78484
5836000,0.896311,0.032084,1.787
5848000,0.897569,0.0310284,1.79464
5856000,0.894139,0.0401212,1.7921
5868000,0.892907,0.0340257,1.78286
5876000,0.892581,0.0302239,1.78227
5888000,0.89948,0.0362625,1.77891
5896000,0.9016,0.0336629,1.78866
5908000,0.904701,0.0369125,1.78481
5916000,0.894643,0.0317799,1.78036
5928000,0.90143,0.041612,1.78943
5936000,0.89555,0.0303267,1.7832
5948000,0.901767,0.0341872,1.78054
5956000,0.90869,0.0297443,1.79101
5968000,0.891832,0.0348553,1.78716
5976000,0.900673,0.0359405,1.78544
5988000,0.893469,0.0399988,1.78322
5996000,0.891116,0.0331832,1.78188
6008000,0.888714,0.0355399,1.78781
6016000,0.889841,0.0341171,1.78476
6028000,0.8914,0.0345672,1.78542
6036000,0.893632,0.0348412,1.79716
6048000,0.902525,0.0306225,1.78383
6056000,0.897551,0.0362255,1.78857
6068000,0.905986,0.0325359,1.78317
6076000,0.898,0.034077,1.77776
6088000,0.896352,0.0278624,1.79548
6096000,0.89772,0.0273492,1.78518
6108000,0.886027,0.0220127,1.77771
6116000,0.888659,0.0310492,1.79357
6128000,0.90538,0.0333175,1.78474
6136000,0.896207,0.0279064,1.79367
6148000,0.898103,0.0250933,1.79022
6156000,0.893822,0.0337034,1.7838
6168000,0.89372,0.0392064,1.78674
6176000,0.889984,0.0435899,1.78956
6188000,0.894103,0.0346297,1.79601
6196000,0.897683,0.0352695,1.78353
6208000,0.898265,0.0339071,1.77922
6216000,0.89654,0.0336584,1.78874
6228000,0.889478,0.037816,1.77914
6236000,0.897756,0.0364498,1.79291
6248000,0.892067,0.0401821,1.78792
6256000,0.898917,0.0237814,1.77922
6268000,0.910734,0.0257892,1.78907
6276000,0.90017,0.0375358,1.78928
6288000,0.905514,0.0359149,1.77921
6296000,0.889735,0.0345972,1.79142
6308000,0.89498,0.0224856,1.78388
6316000,0.891804,0.0429307,1.78749
6328000,0.899293,0.0307211,1.7888
6336000,0.896837,0.0327306,1.78319
6348000,0.899089,0.0335425,1.78502
6356000,0.892296,0.0323155,1.78492
6368000,0.898175,0.0349824,1.78865
6376000,0.9063,0.030416,1.78342
6388000,0.894787,0.0361065,1.79398
6396000,0.902421,0.0409301,1.79477
6408000,0.891741,0.0317124,1.78654
6416000,0.895248,0.0362737,1.79288
6428000,0.901146,0.0345694,1.78508
6436000,0.90549,0.0305525,1.79089
6448000,0.901482,0.0309359,1.7903
6456000,0.90209,0.0365753,1.79204
6468000,0.901651,0.0285252,1.78799
6476000,0.899218,0.0324167,1.78835
6488000,0.902478,0.0351194,1.7832
6496000,0.901212,0.0299964,1.79078
6508000,0.904379,0.0332238,1.78269
6516000,0.890724,0.0376626,1.78446
6528000,0.894288,0.0332838,1.78648
6536000,0.895269,0.028557,1.78227
6548000,0.893186,0.0345377,1.78472
6556000,0.89234,0.0330049,1.78283
6568000,0.899676,0.026157,1.79067
6576000,0.910824,0.0412334,1.78341
6588000,0.901331,0.0328996,1.78721
6596000,0.905439,0.0321123,1.78715
6608000,0.897132,0.0306853,1.79251
6616000,0.890522,0.0371021,1.78694
6628000,0.890574,0.0354775,1.78044
6636000,0.887608,0.036825,1.78965
6648000,0.902387,0.0346029,1.78556
6656000,0.895933,0.0383831,1.78937
6668000,0.895703,0.0269731,1.78818
6676000,0.884999,0.0290726,1.78884
6688000,0.903561,0.0251033,1.78401
6696000,0.907922,0.0288718,1.78289
6708000,0.89674,0.0341918,1.79318
6716000,0.896231,0.0372347,1.78125
6728000,0.893881,0.0376411,1.79032
6736000,0.901646,0.0377422,1.78704
6748000,0.900437,0.0418937,1.78554
6756000,0.89509,0.0311491,1.79025
6768000,0.901294,0.0322636,1.7968
6776000,0.892456,0.0302614,1.78787
6788000,0.889578,0.0346188,1.79075
6796000,0.899355,0.0325748,1.78785
6808000,0.896075,0.0367924,1.77742
6816000,0.889104,0.0321163,1.79033
6828000,0.896188,0.0342121,1.78596
6836000,0.898418,0.0371214,1.78963
6848000,0.894724,0.0205298,1.78814
6856000,0.888773,0.0343776,1.78319
6868000,0.893597,0.0299197,1.78659
6876000,0.901273,0.0277442,1.78824
6888000,0.896671,0.0343754,1.78652
6896000,0.898281,0.0277354,1.78724
6908000,0.896958,0.0328916,1.78743
6916000,0.892624,0.042441,1.78243
6928000,0.900648,0.0316569,1.79731
6936000,0.900126,0.0293352,1.78942
6948000,0.897518,0.0335079,1.78774
6956000,0.904412,0.035224,1.78497
6968000,0.888923,0.0401122,1.78961
6976000,0.89996,0.0256989,1.78851
6988000,0.906412,0.030861,1.7944
6996000,0.895112,0.0397284,1.78616
7008000,0.906173,0.0309388,1.79082
7016000,0.889766,0.0294275,1.78068
7028000,0.900455,0.0323388,1.77636
7036000,0.893394,0.0329989,1.78632
7048000,0.894587,0.0295787,1.78463
7056000,0.906041,0.0302054,1.78922
7068000,0.909915,0.0403839,1.78693
7076000,0.893554,0.0330083,1.78402
7088000,0.895467,0.0363005,1.78858
7096000,0.899842,0.0307464,1.78598
7108000,0.905321,0.0315864,1.78988
7116000,0.904898,0.0293118,1.7869
7128000,0.899106,0.0385029,1.79603
7136000,0.902187,0.0283248,1.77964
7148000,0.896586,0.0290317,1.79278
7156000,0.905905,0.0235001,1.78296
7168000,0.897466,0.0313788,1.78428
7176000,0.900104,0.0296654,1.79082
7188000,0.901744,0.0320633,1.78717
7196000,0.906185,0.0402128,1.78405
7208000,0.89816,0.0354733,1.78791
7216000,0.895883,0.0278052,1.77858
7228000,0.902951,0.0251535,1.79003
7236000,0.892269,0.0390701,1.79414
7248000,0.896776,0.0333303,1.781
7256000,0.894295,0.0284192,1.7852
7268000,0.900923,0.0324122,1.78861
7276000,0.902411,0.0397194,1.7903
7288000,0.898494,0.0434005,1.78774
7296000,0.899444,0.0410661,1.78386
7308000,0.889495,0.0342035,1.7856
7316000,0.898375,0.0311412,1.77563
7328000,0.902667,0.0283921,1.78662
7336000,0.888858,0.0393478,1.78686
7348000,0.898801,0.0320149,1.7848
7356000,0.91049,0.0262754,1.78885
7368000,0.898949,0.0384033,1.78607
7376000,0.896524,0.0366127,1.78696
7388000,0.897762,0.02771,1.79452
7396000,0.893491,0.0297541,1.78578
7408000,0.892042,0.0411736,1.78975
7416000,0.904307,0.0324249,1.7835
7428000,0.901012,0.0234375,1.78315
7436000,0.887506,0.0373425,1.7862
7448000,0.901897,0.0405012,1.78197
7456000,0.892709,0.0370744,1.7925
7468000,0.894166,0.0349288,1.79141
7476000,0.897342,0.0327434,1.79106
7488000,0.899014,0.0338833,1.7823
7496000,0.889198,0.0425758,1.78995
7508000,0.896923,0.0305478,1.78852
7516000,0.899691,0.0294848,1.78931
7528000,0.893681,0.0336301,1.79101
7536000,0.899336,0.0222421,1.78691
7548000,0.894801,0.0411457,1.78908
7556000,0.900771,0.0341912,1.79329
7568000,0.905476,0.0327355,1.78363
7576000,0.894849,0.0363287,1.78473
7588000,0.903641,0.0350896,1.79082
7596000,0.893889,0.029946,1.78257
7608000,0.896724,0.0242585,1.78982
7616000,0.891859,0.0439016,1.78489
7628000,0.897417,0.0289343,1.78745
7636000,0.899193,0.0409027,1.78823
7648000,0.89154,0.0437128,1.77953
7656000,0.890834,0.0322995,1.78928
7668000,0.894852,0.0363936,1.7919
7676000,0.89686,0.0357708,1.78488
7688000,0.901932,0.0374375,1.7851
7696000,0.889997,0.03319,1.78869
7708000,0.897181,0.0275176,1.78248
7716000,0.899794,0.0280276,1.78588
7728000,0.90036,0.0297034,1.78731
7736000,0.891313,0.0248874,1.77985
7748000,0.898735,0.0332113,1.78199
7756000,0.895053,0.029095,1.78897
7768000,0.889183,0.0194698,1.78572
7776000,0.903621,0.0331264,1.78668
7788000,0.897817,0.0386889,1.79007
7796000,0.893875,0.034697,1.78133
7808000,0.892069,0.0330363,1.78344
7816000,0.889896,0.0283235,1.78562
7828000,0.889904,0.0387201,1.78112
7836000,0.89874,0.0355291,1.78185
7848000,0.900579,0.035651,1.79015
7856000,0.894695,0.040611,1.78374
7868000,0.9081,0.0307803,1.784
7876000,0.89866,0.0345043,1.78585
7888000,0.899249,0.0265948,1.78912
7896000,0.895964,0.0295405,1.78798
7908000,0.893791,0.0322836,1.79445
7916000,0.902522,0.0383992,1.78364
7928000,0.899113,0.0337565,1.7873
7936000,0.891237,0.0365803,1.78759
7948000,0.891774,0.0368764,1.79307
7956000,0.894801,0.0365535,1.78058
7968000,0.892302,0.0255059,1.78674
7976000,0.891583,0.0292843,1.77866
7988000,0.899382,0.0345401,1.78658
7996000,0.889242,0.0328807,1.78423
8008000,0.899465,0.0375698,1.7875
8016000,0.896159,0.0383911,1.78237
8028000,0.901984,0.039697,1.78571
8036000,0.899124,0.0350809,1.78836
8048000,0.896239,0.0310253,1.78133
8056000,0.893201,0.0288639,1.78301
8068000,0.905469,0.0379894,1.79678
8076000,0.892504,0.0287362,1.77832
8088000,0.892297,0.0304407,1.78813
8096000,0.899644,0.0296588,1.793
8108000,0.895104,0.0391353,1.79163
8116000,0.895607,0.0331623,1.78927
8128000,0.894669,0.0307126,1.7913
8136000,0.898425,0.0334972,1.7855
8148000,0.897397,0.0323322,1.78314
8156000,0.899581,0.0370784,1.78376
8168000,0.899451,0.0320386,1.79167
8176000,0.894011,0.0337523,1.78396
8188000,0.901748,0.0337418,1.79415
8196000,0.891777,0.0358501,1.78692
8208000,0.894191,0.0356028,1.78675
8216000,0.896354,0.0357245,1.79361
8228000,0.902888,0.0303614,1.77881
8236000,0.897799,0.0370015,1.78832
8248000,0.90176,0.0318559,1.77689
8256000,0.89583,0.032258,1.77921
8268000,0.894609,0.0394142,1.78785
8276000,0.897467,0.0257693,1.78621
8288000,0.90037,0.0317965,1.79015
8296000,0.894224,0.0366296,1.79474
8308000,0.904175,0.0349571,1.77886
8316000,0.898396,0.040515,1.78537
8328000,0.904815,0.0422229,1.79182
8336000,0.895322,0.0345989,1.78426
8348000,0.903242,0.0318369,1.79058
8356000,0.90328,0.030027,1.78675
8368000,0.892945,0.0394466,1.78924
8376000,0.896572,0.0373909,1.78276
8388000,0.884834,0.0406995,1.80086
8396000,0.88137,0.0251007,1.78977
8408000,0.904905,0.0405241,1.79151
8416000,0.896063,0.0339883,1.78466
8428000,0.894397,0.0272148,1.78319
8436000,0.901772,0.0321249,1.79457
8448000,0.907413,0.0389451,1.78854
8456000,0.898356,0.0268849,1.79067
8468000,0.89939,0.0337446,1.78398
8476000,0.903282,0.0343432,1.80079
8488000,0.898639,0.0340779,1.78595
8496000,0.889175,0.0402409,1.7872
8508000,0.893812,0.0262856,1.7839
8516000,0.902095,0.0372074,1.79125
8528000,0.897339,0.0272436,1.78085
8536000,0.885941,0.0302222,1.8008
8548000,0.897101,0.0300719,1.78195
8556000,0.895116,0.0381598,1.78446
8568000,0.905319,0.0340542,1.78848
8576000,0.890359,0.0272414,1.78961
8588000,0.900561,0.0319685,1.78461
8596000,0.90519,0.0309181,1.7919
8608000,0.892421,0.0170215,1.78676
8616000,0.889164,0.032503,1.79274
8628000,0.901022,0.0304948,1.78553
8636000,0.898233,0.0401435,1.78089
8648000,0.892309,0.0331328,1.78525
8656000,0.89163,0.0289822,1.78226
8668000,0.897199,0.0311948,1.78538
8676000,0.898568,0.0268987,1.79269
8688000,0.900338,0.0311641,1.78907
8696000,0.90365,0.0388867,1.78711
8708000,0.901359,0.0335205,1.79418
8716000,0.89952,0.0322298,1.79664
8728000,0.894137,0.0400855,1.78035
8736000,0.896563,0.0430529,1.79011
8748000,0.883292,0.0353949,1.78816
8756000,0.897421,0.0442709,1.77334
8768000,0.897812,0.033656,1.78955
8776000,0.89879,0.0285739,1.79086
8788000,0.89616,0.0357903,1.78934
8796000,0.893635,0.0274598,1.79051
8808000,0.89006,0.0237102,1.79488
8816000,0.902503,0.0350643,1.7946
8828000,0.892779,0.0294488,1.79426
8836000,0.898872,0.0286548,1.79285
8848000,0.890249,0.0367142,1.77707
8856000,0.902325,0.0330229,1.78323
8868000,0.901991,0.0388603,1.79254
8876000,0.898279,0.0397751,1.78304
8888000,0.910439,0.0311427,1.78822
8896000,0.90154,0.0365532,1.77161
8908000,0.896495,0.0295444,1.78382
8916000,0.902136,0.0333066,1.7804
8928000,0.891349,0.0345385,1.79331
8936000,0.898501,0.0268461,1.78694
8948000,0.88951,0.0312362,1.7798
8956000,0.892649,0.0322361,1.77885
8968000,0.89746,0.0341327,1.79247
8976000,0.884992,0.0368936,1.78963
8988000,0.893735,0.0321165,1.78917
8996000,0.894622,0.0371418,1.78488
9008000,0.886941,0.0352793,1.78439
9016000,0.900346,0.0370714,1.78261
9028000,0.899502,0.0319273,1.79831
9036000,0.892366,0.0286628,1.78502
9048000,0.90222,0.0335344,1.79329
9056000,0.903632,0.0373631,1.78642
9068000,0.910353,0.0316957,1.78993
9076000,0.897481,0.0329904,1.78412
9088000,0.901062,0.031407,1.78681
9096000,0.899766,0.0334587,1.79236
9108000,0.896128,0.0268814,1.79336
9116000,0.892861,0.0349929,1.78372
9128000,0.896352,0.0300764,1.7881
9136000,0.899517,0.0312661,1.78977
9148000,0.894637,0.0427056,1.78204
9156000,0.895982,0.0284012,1.77805
9168000,0.896285,0.0258043,1.78548
9176000,0.890433,0.0426941,1.78326
9188000,0.904956,0.0243178,1.78896
9196000,0.892229,0.0363277,1.78489
9208000,0.89441,0.0275519,1.78391
9216000,0.894901,0.0299765,1.78797
9228000,0.895583,0.0271579,1.79116
9236000,0.892496,0.0387571,1.79181
9248000,0.904088,0.035056,1.79223
9256000,0.894169,0.027669,1.79135
9268000,0.889213,0.0348245,1.79321
9276000,0.888767,0.0333535,1.78954
9288000,0.901862,0.0348796,1.78954
9296000,0.896258,0.0312823,1.78624
9308000,0.898048,0.0366884,1.78622
9316000,0.890665,0.0270622,1.78799
9328000,0.9077,0.0267011,1.79447
9336000,0.900775,0.0355902,1.79075
9348000,0.902846,0.0254204,1.78378
9356000,0.89865,0.0338094,1.78967
9368000,0.893806,0.0350987,1.78816
9376000,0.90304,0.028689,1.78134
9388000,0.900603,0.0388581,1.78891
9396000,0.897637,0.0422924,1.78187
9408000,0.900073,0.0384678,1.78577
9416000,0.894923,0.0394866,1.78983
9428000,0.898919,0.0353057,1.7828
9436000,0.902712,0.0425139,1.78686
9448000,0.892737,0.0338573,1.78407
9456000,0.904308,0.0257876,1.79216
9468000,0.886084,0.0317141,1.78829
9476000,0.886768,0.0315231,1.7889
9488000,0.903206,0.0356097,1.79968
9496000,0.892088,0.0345407,1.79535
9508000,0.90324,0.0404644,1.7821
9516000,0.897111,0.0370501,1.79687
9528000,0.896359,0.0204792,1.78578
9536000,0.897314,0.0342627,1.78359
9548000,0.892203,0.0265598,1.78643
9556000,0.896666,0.0308004,1.79562
9568000,0.893661,0.0326142,1.78577
9576000,0.891911,0.0317611,1.78565
9588000,0.896322,0.0303349,1.78559
9596000,0.897201,0.0308305,1.78891
9608000,0.898603,0.0254806,1.7874
9616000,0.898688,0.035352,1.77897
9628000,0.898197,0.0327636,1.78719
9636000,0.893154,0.0281098,1.77888
9648000,0.887982,0.0341876,1.78138
9656000,0.89757,0.0384239,1.78607
9668000,0.896488,0.0401486,1.77777
9676000,0.898057,0.0313339,1.78117
9688000,0.898825,0.0274488,1.79036
9696000,0.899773,0.0425656,1.78406
9708000,0.894597,0.0355892,1.79014
9716000,0.896286,0.0303816,1.78443
9728000,0.900711,0.0365769,1.79999
9736000,0.888789,0.0291,1.79441
9748000,0.893608,0.0423715,1.79609
9756000,0.901547,0.0419603,1.79024
9768000,0.898488,0.0331489,1.78862
9776000,0.900635,0.0347505,1.786
9788000,0.898406,0.0262001,1.7864
9796000,0.894662,0.0274155,1.79175
9808000,0.892702,0.0305198,1.77895
9816000,0.894517,0.0355121,1.77761
9828000,0.902555,0.0236757,1.78541
9836000,0.895521,0.0328877,1.79194
9848000,0.900754,0.0385744,1.78894
9856000,0.901012,0.0281441,1.78153
9868000,0.889923,0.0344537,1.78781
9876000,0.897055,0.0366409,1.78561
9888000,0.899128,0.0369473,1.79024
9896000,0.896904,0.0251164,1.78582
9908000,0.889956,0.0369769,1.77999
9916000,0.888165,0.0302483,1.78764
9928000,0.897313,0.0274161,1.78519
9936000,0.896338,0.0364056,1.78499
9948000,0.900865,0.0350442,1.78546
9956000,0.8904,0.0335446,1.78953
9968000,0.897179,0.0352786,1.78274
9976000,0.894317,0.0389637,1.78298
9988000,0.904221,0.0270532,1.78242
9996000,0.892452,0.0470978,1.78917
10008000,0.893652,0.0418164,1.79269
10016000,0.898623,0.037669,1.78615
10028000,0.895489,0.029,1.79196
10036000,0.899574,0.0339992,1.7922
10048000,0.892014,0.0308653,1.79901
10056000,0.889192,0.0305654,1.78173
10068000,0.900517,0.0355813,1.78303
10076000,0.885726,0.0331532,1.78983
10088000,0.889815,0.0301687,1.79422
10096000,0.896032,0.0250227,1.78123
10108000,0.897223,0.0361336,1.77923
10116000,0.892859,0.0391842,1.78595
10128000,0.904897,0.0296364,1.78596
10136000,0.897912,0.0255997,1.79209
10148000,0.895512,0.0367778,1.78168
10156000,0.904494,0.0299979,1.78756
10168000,0.899016,0.0291623,1.79199
10176000,0.896562,0.035581,1.78919
10188000,0.8983,0.0333523,1.7824
10196000,0.900869,0.0264233,1.78666
10208000,0.899926,0.0403244,1.78534
10216000,0.900893,0.0304367,1.78555
10228000,0.895679,0.0276622,1.78731
10236000,0.898883,0.033098,1.78889
10248000,0.89262,0.0238486,1.77999
10256000,0.895818,0.0299234,1.79051
10268000,0.902975,0.0332673,1.78773
10276000,0.890797,0.0300414,1.78249
10288000,0.901278,0.0349549,1.78773
10296000,0.902323,0.0327343,1.7861
10308000,0.91001,0.0326502,1.78247
10316000,0.897219,0.0455005,1.78354
10328000,0.900863,0.032458,1.78916
10336000,0.897019,0.0283468,1.79179
10348000,0.897206,0.0305059,1.78667
10356000,0.896873,0.0405837,1.7846
10368000,0.894618,0.0314123,1.7855
10376000,0.893636,0.0390709,1.79486
10388000,0.889637,0.03494,1.78812
10396000,0.894048,0.0389732,1.7905
10408000,0.896599,0.0404279,1.77753
10416000,0.893413,0.0304501,1.79341
10428000,0.893963,0.037576,1.779
10436000,0.887375,0.0344495,1.78263
10448000,0.891222,0.0270919,1.79138
10456000,0.897348,0.0313429,1.80224
10468000,0.900066,0.0353086,1.79535
10476000,0.895022,0.0410091,1.7891
10488000,0.89495,0.0364974,1.78438
10496000,0.894088,0.0428312,1.78942
10508000,0.90353,0.036193,1.78034
10516000,0.899902,0.03216,1.791
10528000,0.897492,0.0442046,1.78799
10536000,0.905812,0.0288433,1.78831
10548000,0.89117,0.033446,1.79051
10556000,0.891718,0.0347531,1.78698
10568000,0.895138,0.0306912,1.78858
10576000,0.893268,0.028907,1.79168
10588000,0.906009,0.0368823,1.78282
10596000,0.889082,0.0363265,1.78246
10608000,0.88835,0.0266632,1.78339
10616000,0.900209,0.0371337,1.78821
10628000,0.896997,0.0351788,1.78788
10636000,0.885827,0.0276277,1.79413
10648000,0.88794,0.0299487,1.79624
10656000,0.897081,0.0367085,1.78714
10668000,0.903211,0.0297791,1.78515
10676000,0.896145,0.0349801,1.79465
10688000,0.896395,0.031643,1.7837
10696000,0.892754,0.0316525,1.78891
10708000,0.907949,0.036814,1.7928
10716000,0.895351,0.0329708,1.78619
10728000,0.894428,0.0321002,1.79371
10736000,0.893045,0.0375108,1.78692
10748000,0.905709,0.0326178,1.78765
10756000,0.899455,0.029065,1.7864
10768000,0.89368,0.0373967,1.78144
10776000,0.902348,0.0404939,1.78319
10788000,0.891052,0.037618,1.78601
10796000,0.894966,0.0315602,1.78431
10808000,0.896124,0.034841,1.78458
10816000,0.891523,0.024241,1.78539
10828000,0.898848,0.0313193,1.78704
10836000,0.907031,0.0264593,1.7818
10848000,0.8995,0.0319086,1.79558
10856000,0.893736,0.0329356,1.78711
10868000,0.893959,0.032978,1.79105
10876000,0.894788,0.0268404,1.79833
10888000,0.894398,0.0285336,1.79184
10896000,0.898712,0.0355577,1.7847
10908000,0.886163,0.0316601,1.79051
10916000,0.893032,0.0292575,1.79912
10928000,0.897441,0.04302,1.79523
10936000,0.88685,0.0341763,1.78164
10948000,0.898924,0.0352218,1.79321
10956000,0.8951,0.0344748,1.7857
10968000,0.895759,0.035123,1.78
10976000,0.904603,0.0327165,1.79412
10988000,0.891585,0.039852,1.78578
10996000,0.903098,0.0366178,1.78826
11008000,0.898868,0.0258272,1.78604
11016000,0.899744,0.0357929,1.78995
11028000,0.897516,0.0336614,1.77551
11036000,0.890132,0.0345325,1.78996
11048000,0.900277,0.0337906,1.7799
11056000,0.898297,0.037573,1.78824
11068000,0.900556,0.0324048,1.79135
11076000,0.901505,0.0319993,1.78269
11088000,0.904405,0.0425434,1.78813
11096000,0.905448,0.0341074,1.79457
11108000,0.896214,0.0366015,1.78586
11116000,0.900595,0.0405687,1.7946
11128000,0.897104,0.0353556,1.78523
11136000,0.90277,0.0213248,1.78989
11148000,0.893099,0.0326876,1.78643
11156000,0.895831,0.0246299,1.78997
11168000,0.89577,0.0419607,1.79745
11176000,0.899984,0.0390253,1.78557
11188000,0.895306,0.0311804,1.79046
11196000,0.888719,0.038498,1.78696
11208000,0.90292,0.0357461,1.77872
11216000,0.905937,0.0254772,1.79117
11228000,0.89972,0.029322,1.78615
11236000,0.891952,0.0326447,1.78408
11248000,0.891554,0.0268393,1.79194
11256000,0.90244,0.0339638,1.8013
11268000,0.892019,0.028305,1.78007
11276000,0.898597,0.040523,1.79728
11288000,0.897464,0.0368048,1.77331
11296000,0.900001,0.0417606,1.78059
11308000,0.900079,0.0267369,1.78735
11316000,0.890357,0.0339143,1.79423
11328000,0.89354,0.0310637,1.78593
11336000,0.895262,0.0352008,1.78129
11348000,0.901038,0.0318183,1.78754
11356000,0.902039,0.0373147,1.78339
11368000,0.894958,0.0408277,1.78699
11376000,0.904515,0.0312703,1.78392
11388000,0.895795,0.0336715,1.78719
11396000,0.891726,0.0327888,1.79112
11408000,0.897272,0.0364347,1.78416
11416000,0.890123,0.035333,1.79336
11428000,0.892059,0.0325226,1.79121
11436000,0.891048,0.0292745,1.78717
11448000,0.890194,0.0398337,1.78895
11456000,0.901048,0.0287999,1.78811
11468000,0.886287,0.0383269,1.78174
11476000,0.906833,0.0302481,1.79084
11488000,0.899961,0.0379681,1.78247
11496000,0.895705,0.0373347,1.79375
11508000,0.895839,0.0379152,1.79523
11516000,0.910498,0.0427176,1.78248
11528000,0.891801,0.036812,1.79945
11536000,0.901783,0.0305727,1.78622
11548000,0.904737,0.0319135,1.78659
11556000,0.892244,0.0333061,1.7875
11568000,0.897378,0.0394884,1.79077
11576000,0.900766,0.0309385,1.77809
11588000,0.895981,0.0337576,1.79486
11596000,0.887055,0.0233592,1.79541
11608000,0.889232,0.0370475,1.79503
11616000,0.897011,0.0276169,1.77943
11628000,0.89881,0.0262976,1.78108
11636000,0.904084,0.0314878,1.77245
11648000,0.899979,0.0344037,1.78753
11656000,0.896399,0.0370458,1.78462
11668000,0.895931,0.027416,1.7855
11676000,0.902669,0.0345952,1.79384
11688000,0.889657,0.0352348,1.78737
11696000,0.897634,0.0356844,1.79816
11708000,0.893568,0.0379096,1.78577
11716000,0.89242,0.0337639,1.78508
11728000,0.897014,0.0326662,1.78523
11736000,0.901733,0.0342249,1.78727
11748000,0.894153,0.0355939,1.7903
11756000,0.898185,0.0305478,1.78492
11768000,0.903224,0.0382235,1.77867
11776000,0.898517,0.0234609,1.78376
11788000,0.899551,0.0309767,1.78721
11796000,0.896585,0.0357776,1.79316
11808000,0.90268,0.0326631,1.78391
11816000,0.899191,0.0324523,1.78977
11828000,0.894232,0.0365825,1.78933
11836000,0.895192,0.0311115,1.78829
11848000,0.892448,0.0234534,1.78231
11856000,0.897457,0.0276459,1.78354
11868000,0.897451,0.0297345,1.77433
11876000,0.902638,0.0305028,1.78689
11888000,0.900108,0.0323332,1.78421
11896000,0.898411,0.0283404,1.7842
11908000,0.896963,0.0305413,1.78885
11916000,0.900269,0.0283538,1.78582
11928000,0.898074,0.0272902,1.78457
11936000,0.901437,0.0299589,1.78732
11948000,0.900949,0.0215162,1.7877
11956000,0.892155,0.0380773,1.79521
11968000,0.907683,0.0266969,1.7857
11976000,0.905662,0.0322279,1.77789
11988000,0.890307,0.0305748,1.79049
11996000,0.894741,0.0369539,1.78657
12008000,0.900534,0.031867,1.79239
12016000,0.897906,0.0280404,1.77406
12028000,0.898843,0.0241214,1.78046
12036000,0.895001,0.0324237,1.78874
12048000,0.895386,0.0368846,1.78714
12056000,0.902602,0.0422943,1.78743
12068000,0.902459,0.0346724,1.79515
12076000,0.892112,0.0415406,1.78884
12088000,0.895212,0.0337086,1.7785
12096000,0.903275,0.0257248,1.78279
12108000,0.897737,0.0312748,1.78635
12116000,0.901886,0.0334355,1.78536
12128000,0.892775,0.0342132,1.78788
12136000,0.896325,0.0305102,1.78857
12148000,0.8934,0.0317925,1.79017
12156000,0.902068,0.0310637,1.7843
12168000,0.902755,0.045299,1.78201
12176000,0.885151,0.0388421,1.78715
12188000,0.900378,0.034645,1.7821
12196000,0.895471,0.0333432,1.7825
12208000,0.889151,0.0255976,1.79078
12216000,0.902831,0.0316066,1.78243
12228000,0.895043,0.0344556,1.78501
12236000,0.895514,0.0286583,1.79063
12248000,0.892057,0.0322952,1.79055
12256000,0.898976,0.0313058,1.7876
12268000,0.894673,0.0346135,1.7902
12276000,0.902641,0.0413236,1.78639
12288000,0.900096,0.0263449,1.7895
12296000,0.896002,0.0286753,1.78039
12308000,0.899042,0.0355501,1.7907
12316000,0.897705,0.02555,1.7908
12328000,0.895826,0.0342172,1.7905
12336000,0.896818,0.0291622,1.77942
12348000,0.890297,0.0359235,1.78442
12356000,0.892692,0.037661,1.78402
12368000,0.895722,0.032788,1.78923
12376000,0.899137,0.030903,1.79361
12388000,0.897852,0.0359216,1.79445
12396000,0.897303,0.0499505,1.78363
12408000,0.898218,0.0340177,1.79226
12416000,0.893487,0.0280598,1.78448
12428000,0.898691,0.0246921,1.77857
12436000,0.898008,0.0266099,1.79157
12448000,0.895034,0.0365033,1.78174
12456000,0.897998,0.0399894,1.78216
12468000,0.896824,0.0359178,1.79086
12476000,0.902857,0.0334243,1.79936
12488000,0.901639,0.0353818,1.79785
12496000,0.893943,0.0468957,1.78073
12508000,0.903148,0.0311312,1.7905
12516000,0.891238,0.036405,1.78426
12528000,0.900538,0.0322906,1.78759
12536000,0.896338,0.0299449,1.79545
12548000,0.900513,0.0380158,1.79088
12556000,0.903589,0.031217,1.78489
12568000,0.893494,0.02876,1.79023
12576000,0.904134,0.0292278,1.78702
12588000,0.88893,0.0353735,1.78899
12596000,0.895803,0.0343494,1.7829
12608000,0.897271,0.0307506,1.78548
12616000,0.900811,0.0275925,1.7837
12628000,0.899943,0.0360821,1.7909
12636000,0.880702,0.0348601,1.78456
12648000,0.896315,0.0262044,1.78335
12656000,0.896069,0.0286556,1.79012
12668000,0.895977,0.0265783,1.78617
12676000,0.895497,0.0306775,1.78623
12688000,0.895677,0.0398774,1.79541
12696000,0.905054,0.0355511,1.78998
12708000,0.894857,0.0260001,1.78483
12716000,0.898086,0.030763,1.78619
12728000,0.897933,0.0354436,1.78446
12736000,0.894486,0.0331136,1.7883
12748000,0.894439,0.0356875,1.78581
12756000,0.902983,0.0351694,1.79431
12768000,0.908926,0.0295135,1.7958
12776000,0.910671,0.0412717,1.78292
12788000,0.891491,0.0338247,1.78853
12796000,0.896674,0.0375097,1.7836
12808000,0.896552,0.0367421,1.78628
12816000,0.898841,0.0306386,1.79051
12828000,0.898796,0.0356926,1.79049
12836000,0.899843,0.0353168,1.78586
12848000,0.895555,0.0308823,1.7829
12856000,0.89462,0.0423383,1.78471
12868000,0.894913,0.0318704,1.77754
12876000,0.90341,0.0368994,1.78739
12888000,0.895544,0.0419705,1.78612
12896000,0.892832,0.040301,1.79207
12908000,0.893326,0.0180261,1.79124
12916000,0.895239,0.0386297,1.78698
12928000,0.892604,0.0367591,1.78444
12936000,0.890506,0.0326688,1.79191
12948000,0.894549,0.0392274,1.78385
12956000,0.895213,0.0216167,1.79041
12968000,0.893318,0.039132,1.7902
12976000,0.897225,0.0379346,1.78584
12988000,0.905769,0.0309868,1.7801
12996000,0.895611,0.0340799,1.77818
13008000,0.898289,0.0302693,1.79218
13016000,0.896097,0.0339244,1.79186
13036000,0.899083,0.0306008,1.79574
13048000,0.898394,0.0326582,1.78646
13056000,0.894482,0.0331243,1.78723
13068000,0.896684,0.0344701,1.7855
13076000,0.899569,0.0209701,1.79199
13088000,0.905548,0.0292814,1.7884
13096000,0.897644,0.0248008,1.78759
13108000,0.901192,0.0388025,1.79512
13116000,0.894775,0.0325845,1.78965
13128000,0.887933,0.0343371,1.78752
13136000,0.894123,0.0345416,1.78398
13148000,0.896995,0.0320697,1.78395
13156000,0.892409,0.0394218,1.78776
13168000,0.896741,0.0376165,1.78223
13176000,0.891594,0.036681,1.7907
13188000,0.907887,0.0332272,1.79375
13196000,0.897945,0.0418424,1.79918
13208000,0.899439,0.0326999,1.7945
13216000,0.892134,0.0384929,1.79174
13228000,0.892328,0.0369998,1.78868
13236000,0.901829,0.0297833,1.78483
13248000,0.898744,0.0312473,1.79031
13256000,0.895289,0.0363084,1.78499
13268000,0.90011,0.0279676,1.79108
13276000,0.894306,0.0348932,1.79155
13288000,0.897769,0.0348192,1.78424
13296000,0.892547,0.0414485,1.77754
13308000,0.887036,0.034512,1.78791
13316000,0.895465,0.0367332,1.78813
13328000,0.898923,0.0325976,1.78819
13336000,0.909192,0.034677,1.78323
13348000,0.902819,0.0341453,1.78086
13356000,0.89759,0.0378488,1.78133
13368000,0.889713,0.0288686,1.79515
13376000,0.901624,0.0404411,1.78691
13388000,0.894718,0.0312173,1.78746
13396000,0.896288,0.0336228,1.78206
13408000,0.895049,0.0313563,1.78374
13416000,0.894389,0.0353427,1.7877
13428000,0.893565,0.033009,1.78663
13436000,0.894262,0.0389182,1.78107
13448000,0.907836,0.0259916,1.79216
13456000,0.89697,0.0365851,1.78869
13468000,0.896398,0.0352445,1.78659
13476000,0.897522,0.0243093,1.79334
13488000,0.890685,0.0318835,1.78523
13496000,0.898938,0.0373147,1.77859
13508000,0.897951,0.0294387,1.78889
13516000,0.899901,0.032658,1.78624
13528000,0.891483,0.0372471,1.79296
13536000,0.892909,0.0348152,1.78452
13548000,0.89346,0.0322598,1.78997
13556000,0.897272,0.0342366,1.78791
13568000,0.894334,0.0363041,1.78293
13576000,0.899524,0.0323267,1.78553
13588000,0.894242,0.0374371,1.77727
13596000,0.906858,0.0365617,1.78408
13608000,0.89425,0.039672,1.77886
13616000,0.895196,0.0310655,1.78535
13628000,0.89909,0.027353,1.79161
13636000,0.908916,0.023,1.80171
13648000,0.898438,0.0266839,1.78935
13656000,0.902188,0.0359011,1.77929
13668000,0.898406,0.0275182,1.78388
13676000,0.903876,0.0303928,1.79781
13688000,0.8909,0.0310619,1.78269
13696000,0.895309,0.0308167,1.78527
13708000,0.896382,0.0372989,1.79028
13716000,0.897653,0.0348216,1.78563
13728000,0.895803,0.0339208,1.77924
13736000,0.897805,0.0292933,1.78365
13748000,0.895225,0.0267227,1.78816
13756000,0.896031,0.0333361,1.78684
13768000,0.895774,0.0271058,1.79459
13776000,0.887925,0.0354527,1.78945
13788000,0.893952,0.0368845,1.78402
13796000,0.89594,0.035016,1.7793
13808000,0.895887,0.0248642,1.78458
13816000,0.893165,0.0342132,1.79074
13828000,0.894993,0.0208571,1.7845
13836000,0.898791,0.0321782,1.78738
13848000,0.892345,0.0272372,1.79316
13856000,0.898594,0.0397281,1.78242
13868000,0.891614,0.0292033,1.79374
13876000,0.902704,0.0338281,1.78466
13888000,0.905956,0.0353777,1.79023
13896000,0.899753,0.0332688,1.78658
13908000,0.898786,0.0322211,1.79471
13916000,0.895636,0.0200984,1.7888
13928000,0.901833,0.0308022,1.78889
13936000,0.896689,0.0292766,1.79519
13948000,0.898063,0.0297579,1.7885
13956000,0.903925,0.0321175,1.78079
13968000,0.895896,0.0403209,1.79888
13976000,0.897567,0.0443044,1.78518
13988000,0.896023,0.0328472,1.78578
13996000,0.89915,0.0415644,1.78919
14008000,0.89323,0.0322932,1.77982
14016000,0.897958,0.0240899,1.78397
14028000,0.897108,0.0227074,1.80458
14036000,0.8913,0.0394746,1.7863
14048000,0.89761,0.0342348,1.78197
14056000,0.891544,0.0325782,1.78494
14068000,0.896949,0.0351766,1.77814
14076000,0.902595,0.0350068,1.7847
14088000,0.892911,0.0242519,1.79075
14096000,0.893153,0.0289988,1.79325
14108000,0.893157,0.0292276,1.78645
14116000,0.902748,0.0346903,1.78825
14128000,0.894973,0.0276174,1.7895
14136000,0.899578,0.0312773,1.78568
14148000,0.900923,0.0306275,1.79031
14156000,0.895113,0.0358717,1.7904
14168000,0.894,0.0367308,1.78962
14176000,0.895707,0.0318634,1.78781
14188000,0.890484,0.0363895,1.7866
14196000,0.904648,0.0329444,1.78363
14208000,0.889901,0.0323556,1.7829
14216000,0.890949,0.0327346,1.78031
14228000,0.896782,0.0359368,1.78856
14236000,0.902556,0.0294871,1.78763
14248000,0.894587,0.0320913,1.78525
14256000,0.895611,0.0378181,1.78016
14268000,0.890711,0.0343537,1.79083
14276000,0.893913,0.0410266,1.78369
14288000,0.899924,0.0307852,1.7923
14296000,0.89632,0.0507526,1.7817
14308000,0.898724,0.0322368,1.78466
14316000,0.89469,0.0411513,1.78633
14328000,0.897116,0.0411954,1.77901
14336000,0.892525,0.0272648,1.78947
14348000,0.89836,0.0404901,1.78744
14356000,0.892715,0.0385064,1.78246
14368000,0.903037,0.0436706,1.79302
14376000,0.893824,0.0296128,1.78335
14388000,0.900517,0.0287087,1.78306
14396000,0.904672,0.0325809,1.7757
14408000,0.900188,0.0364737,1.79137
14416000,0.900688,0.0379025,1.7907
14428000,0.900765,0.0238779,1.78469
14436000,0.897653,0.0363044,1.7847
14448000,0.900217,0.0376451,1.7821
14456000,0.898466,0.0401337,1.78583
14468000,0.893062,0.0394374,1.79292
14476000,0.895134,0.0315805,1.79186
14488000,0.897721,0.0331301,1.78347
14496000,0.900438,0.0434668,1.78426
14508000,0.897122,0.0414919,1.78643
14516000,0.895024,0.0321337,1.77797
14528000,0.90054,0.02979,1.78753
14536000,0.886909,0.0301049,1.7777
14548000,0.890951,0.0354403,1.78637
14556000,0.890775,0.034458,1.78615
14568000,0.897297,0.0425501,1.78411
14576000,0.89985,0.0352022,1.78136
14588000,0.895857,0.0372399,1.78902
14596000,0.88926,0.0287869,1.78705
14608000,0.894541,0.0318903,1.78991
14616000,0.897847,0.0361652,1.79298
14628000,0.903477,0.0276444,1.79003
14636000,0.901533,0.0239959,1.78515
14648000,0.897233,0.030798,1.78655
14656000,0.901316,0.0404026,1.77677
14668000,0.898964,0.0322222,1.7883
14676000,0.900618,0.0236805,1.7841
14688000,0.899768,0.0303265,1.77677
14696000,0.899101,0.0331504,1.79033
14708000,0.899498,0.0220295,1.78304
14716000,0.905491,0.0393436,1.7828
14728000,0.890646,0.0289433,1.77708
14736000,0.904913,0.0359185,1.79022
14748000,0.908305,0.02168,1.79579
14756000,0.902149,0.0347065,1.78385
14768000,0.891417,0.0246722,1.78896
14776000,0.902344,0.0409734,1.78633
14788000,0.896763,0.0391936,1.78529
14796000,0.900221,0.0354956,1.78494
14808000,0.892659,0.0409967,1.78536
14816000,0.892809,0.0345209,1.77742
14828000,0.900602,0.0369576,1.7838
14836000,0.902373,0.021119,1.78771
14848000,0.889608,0.0368659,1.77934
14856000,0.898904,0.0354395,1.78674
14868000,0.898126,0.035296,1.78546
14876000,0.899407,0.0427239,1.78622
14888000,0.902831,0.0377449,1.78011
14896000,0.906243,0.0367063,1.79347
14908000,0.906265,0.0282775,1.78598
14916000,0.894323,0.0453586,1.78167
14928000,0.900596,0.0250887,1.78634
14936000,0.892068,0.0284573,1.78396
14948000,0.894636,0.0302061,1.78579
14956000,0.895245,0.0342309,1.7926
14968000,0.887795,0.0348883,1.78675
14976000,0.897172,0.0364083,1.7879
14988000,0.895681,0.036326,1.7841
14996000,0.89095,0.0346612,1.79085
15008000,0.889165,0.0372388,1.79202
15016000,0.891096,0.0342664,1.78933
15028000,0.899959,0.0260338,1.78843
15036000,0.900525,0.0296066,1.7858
15048000,0.901672,0.0258806,1.78316
15056000,0.899042,0.0287772,1.78862
15068000,0.904991,0.0355016,1.78646
15076000,0.893588,0.0225398,1.7955
15088000,0.898023,0.0359507,1.78388
15096000,0.901013,0.0347807,1.7858
15108000,0.903591,0.0334434,1.78342
15116000,0.899646,0.03766,1.788
15128000,0.895733,0.0371224,1.77895
15136000,0.902936,0.0315622,1.78733
15148000,0.898241,0.0336558,1.78408
15156000,0.897879,0.0303084,1.78304
15168000,0.89878,0.0418013,1.78525
15176000,0.895497,0.0314777,1.79108
15188000,0.897855,0.0209433,1.79225
15196000,0.902104,0.0289503,1.79855
15208000,0.911175,0.0314021,1.79035
15216000,0.900605,0.0332591,1.79113
15228000,0.904665,0.0253515,1.78289
15236000,0.904028,0.038565,1.77718
15248000,0.902601,0.0395172,1.78698
15256000,0.903369,0.0328424,1.78696
15268000,0.903529,0.0292442,1.78038
15276000,0.8987,0.0306115,1.77753
15288000,0.893429,0.0340666,1.78801
15296000,0.890383,0.0386023,1.79161
15308000,0.894242,0.0397914,1.79895
15316000,0.892811,0.0356641,1.78575
15328000,0.898123,0.038428,1.78782
15336000,0.902417,0.027285,1.77895
15348000,0.89696,0.0389071,1.79171
15356000,0.903532,0.0338609,1.79238
15368000,0.898409,0.0348913,1.78449
15376000,0.890076,0.0371298,1.79149
15388000,0.896428,0.0321034,1.79052
15396000,0.895684,0.0368866,1.78134
15408000,0.901373,0.0326845,1.78649
15416000,0.900019,0.0269579,1.78921
15428000,0.901487,0.0400389,1.78443
15436000,0.893478,0.0449731,1.7888
15448000,0.89517,0.0292658,1.79005
15456000,0.90366,0.0381883,1.7877
15468000,0.893244,0.0389333,1.79049
15476000,0.896139,0.0241565,1.77851
15488000,0.900582,0.0377444,1.79044
15496000,0.902749,0.0366733,1.79519
15508000,0.903066,0.0339841,1.78107
15516000,0.899338,0.0344622,1.79048
15528000,0.886298,0.0315741,1.79651
15536000,0.909497,0.0319321,1.78752
15548000,0.892579,0.0329685,1.78385
15556000,0.902818,0.0237735,1.78594
15568000,0.890576,0.0301334,1.78724
15576000,0.897347,0.0395765,1.79117
15588000,0.90754,0.0359602,1.78991
15596000,0.894636,0.0381334,1.78631
15608000,0.899852,0.0353904,1.79808
15616000,0.893887,0.0278592,1.77995
15628000,0.899209,0.0342282,1.78354
15636000,0.905433,0.035632,1.78401
15648000,0.89504,0.0352584,1.78417
15656000,0.907988,0.0327763,1.79527
15668000,0.888023,0.0430755,1.80152
15676000,0.901584,0.0314096,1.79132
15688000,0.902705,0.0309312,1.79044
15696000,0.897072,0.022215,1.77974
15708000,0.905333,0.0269451,1.78699
15716000,0.89463,0.0308816,1.78614
15728000,0.90201,0.0357005,1.7853
15736000,0.895946,0.0307098,1.78742
15748000,0.889927,0.0329094,1.79057
15756000,0.900257,0.0423259,1.78652
15768000,0.895489,0.0365067,1.79291
15776000,0.89464,0.0303241,1.78604
15788000,0.89395,0.0368822,1.7877
15796000,0.894162,0.0345832,1.78292
15808000,0.89244,0.0346721,1.79575
15816000,0.903289,0.0318537,1.78602
15828000,0.894539,0.0383558,1.7922
15836000,0.90035,0.0261581,1.78872
15848000,0.897415,0.0368815,1.79269
15856000,0.89961,0.0458487,1.78618
15868000,0.896885,0.0361259,1.78155
15876000,0.900649,0.0370744,1.78328
15888000,0.898735,0.0295332,1.78014
15896000,0.893582,0.0325172,1.78946
15908000,0.896861,0.033951,1.78607
15916000,0.899885,0.0397995,1.78473
15928000,0.897961,0.0354516,1.7941
15936000,0.903076,0.0337351,1.78964
15948000,0.89784,0.0324154,1.78796
15956000,0.895554,0.0343689,1.7884
15968000,0.895242,0.0294027,1.78263
15976000,0.894088,0.0273455,1.78968
15988000,0.904398,0.0354228,1.79119
15996000,0.896176,0.0330196,1.79176
16008000,0.898903,0.0283444,1.79143
16016000,0.893462,0.0323448,1.78808
16028000,0.894469,0.034857,1.79198
16036000,0.897139,0.0368224,1.78
16048000,0.901008,0.0362928,1.79064
16056000,0.889316,0.0362229,1.78472
16068000,0.901659,0.0382673,1.7921
16076000,0.895546,0.0368938,1.78921
16088000,0.89808,0.0286,1.77919
16096000,0.893385,0.0348403,1.79138
16108000,0.906369,0.0327495,1.78703
16116000,0.902242,0.0309154,1.78567
16128000,0.895291,0.0259791,1.78713
16136000,0.901371,0.0369689,1.78833
16148000,0.895286,0.0283123,1.78784
16156000,0.89173,0.0376851,1.79048
16168000,0.900465,0.0352313,1.79236
16176000,0.902019,0.0228329,1.78268
16188000,0.898662,0.0310653,1.77904
16196000,0.902871,0.0310104,1.78251
16208000,0.897334,0.0395966,1.78853
16216000,0.892792,0.0355024,1.79068
16228000,0.895295,0.0328294,1.79186
16236000,0.893336,0.0343486,1.79116
16248000,0.89941,0.0296393,1.79531
16256000,0.899815,0.0308889,1.79559
16268000,0.896312,0.0353086,1.78426
16276000,0.890954,0.042032,1.78286
16288000,0.89551,0.0311991,1.77941
16296000,0.892205,0.0425952,1.78932
16308000,0.910946,0.0337011,1.78765
16316000,0.902771,0.0414499,1.77868
16328000,0.898324,0.0376057,1.78625
16336000,0.8972,0.0201464,1.78728
16348000,0.887343,0.0359214,1.78034
16356000,0.890669,0.0270124,1.78531
16368000,0.902988,0.0404228,1.79116
16376000,0.901921,0.0330373,1.78008
16388000,0.887225,0.0354189,1.77956
16396000,0.891765,0.0345937,1.79518
16408000,0.902095,0.0190249,1.78906
16416000,0.890983,0.0381531,1.78561
16428000,0.900032,0.0334729,1.78662
16436000,0.882145,0.0320994,1.78712
16448000,0.905562,0.0267491,1.78329
16456000,0.89956,0.038712,1.78733
16468000,0.897563,0.0308751,1.78216
16476000,0.901563,0.0260093,1.79135
16488000,0.90261,0.0362411,1.79033
16496000,0.88986,0.0412367,1.78477
16508000,0.894509,0.0308092,1.7863
16516000,0.896463,0.0375856,1.78574
16528000,0.90043,0.0404439,1.7824
16536000,0.901103,0.036984,1.79072
16548000,0.899553,0.0346882,1.78887
16556000,0.894313,0.0319378,1.79375
16568000,0.905864,0.0362381,1.78224
16576000,0.887999,0.0328265,1.78172
16588000,0.885106,0.0377954,1.78088
16596000,0.899509,0.0362793,1.78811
16608000,0.908917,0.0460251,1.77373
16616000,0.891789,0.0324392,1.78773
16628000,0.895035,0.0339668,1.78417
16636000,0.902456,0.0398573,1.79084
16648000,0.891209,0.0289846,1.78795
16656000,0.895299,0.0356402,1.78688
16668000,0.909458,0.0312287,1.78243
16676000,0.899759,0.0322334,1.78042
16688000,0.89879,0.0336581,1.78681
16696000,0.891819,0.0322137,1.79196
16708000,0.895722,0.0335129,1.79097
16716000,0.893964,0.0312622,1.77878
16728000,0.900286,0.0351541,1.79104
16736000,0.895952,0.0363829,1.77869
16748000,0.901098,0.0347686,1.76987
16756000,0.904753,0.0339845,1.77749
16768000,0.893339,0.0289222,1.78895
16776000,0.895086,0.0335477,1.78743
16788000,0.887147,0.0285717,1.79325
16796000,0.898571,0.0296617,1.78852
16808000,0.900148,0.0292348,1.78138
16816000,0.898375,0.0279381,1.79199
16828000,0.904644,0.0418509,1.79424
16836000,0.901572,0.0247679,1.79121
16848000,0.892736,0.0391149,1.78593
16856000,0.896331,0.0393215,1.78377
16868000,0.905112,0.0306847,1.78794
16876000,0.905664,0.0346546,1.78867
16888000,0.893477,0.0382653,1.78183
16896000,0.895403,0.0431157,1.79405
16908000,0.90252,0.0322467,1.78572
16916000,0.898487,0.035049,1.79672
16928000,0.894593,0.0277058,1.7949
16936000,0.901865,0.0342608,1.79177
16948000,0.903446,0.0403705,1.7791
16956000,0.893832,0.0351106,1.7866
16968000,0.894498,0.021718,1.77605
16976000,0.893863,0.0327993,1.78904
16988000,0.895396,0.0259635,1.78136
16996000,0.895489,0.0421966,1.78523
17008000,0.901952,0.03394,1.78707
17016000,0.892969,0.0303886,1.7809
17028000,0.889072,0.0340331,1.79409
17036000,0.892109,0.0320642,1.78696
17048000,0.89706,0.0370938,1.78499
17056000,0.895917,0.0320478,1.78469
17068000,0.899396,0.0216125,1.78649
17076000,0.894982,0.0245862,1.79004
17088000,0.897517,0.0388408,1.77672
17096000,0.899846,0.0358236,1.79059
17108000,0.896826,0.0308352,1.79218
17116000,0.905019,0.0354929,1.7949
17128000,0.902566,0.0412316,1.78904
17136000,0.892917,0.0341055,1.78701
17148000,0.903357,0.0361848,1.7879
17156000,0.89394,0.0305856,1.79142
17168000,0.905545,0.031089,1.78624
17176000,0.897447,0.0251277,1.77952
17188000,0.89385,0.029815,1.78723
17196000,0.905708,0.0293383,1.79222
17208000,0.900132,0.0267362,1.77789
17216000,0.896845,0.0355818,1.79258
17228000,0.901294,0.0341184,1.7892
17236000,0.899656,0.0316658,1.79469
17248000,0.899825,0.0328928,1.78028
17256000,0.900444,0.0322448,1.79662
17268000,0.90057,0.0262521,1.77766
17276000,0.905318,0.0472153,1.78551
17288000,0.892787,0.0315071,1.79008
17296000,0.894797,0.0312374,1.78935
17308000,0.892333,0.0262738,1.77878
17316000,0.892637,0.0341505,1.78455
17328000,0.9037,0.0373708,1.78627
17336000,0.90612,0.0313254,1.78881
17348000,0.895589,0.0326847,1.79039
17356000,0.895854,0.0392935,1.78739
17368000,0.892024,0.0391838,1.78771
17376000,0.898323,0.0347697,1.78968
17388000,0.905955,0.0353395,1.78982
17396000,0.897258,0.0435967,1.79011
17408000,0.905944,0.0370925,1.79304
17416000,0.893318,0.0399978,1.78132
17428000,0.895199,0.033643,1.79298
17436000,0.894849,0.0403556,1.78502
17448000,0.898014,0.0382332,1.78334
17456000,0.901354,0.0273953,1.78914
17468000,0.889045,0.0355847,1.79221
17476000,0.890894,0.0345647,1.78636
17488000,0.894487,0.0298339,1.78178
17496000,0.893032,0.0257663,1.78723
17508000,0.891103,0.0341388,1.79033
17516000,0.902179,0.0418053,1.7846
17528000,0.892652,0.0321281,1.77358
17536000,0.898615,0.0352788,1.78337
17548000,0.90337,0.026008,1.79138
17556000,0.902342,0.0366117,1.79048
17568000,0.909281,0.035379,1.78413
17576000,0.895806,0.0286794,1.78923
17588000,0.896874,0.035242,1.78765
17596000,0.896662,0.0328213,1.78835
17608000,0.896741,0.0343926,1.78094
17616000,0.89113,0.0320426,1.7844
17628000,0.886511,0.0257733,1.78571
17636000,0.893057,0.0277579,1.78188
17648000,0.897084,0.0381089,1.78952
17656000,0.900112,0.0313122,1.78613
17668000,0.903598,0.0295718,1.7844
17676000,0.897956,0.0385772,1.79031
17688000,0.894646,0.0392592,1.78394
17696000,0.899393,0.0364878,1.78581
17708000,0.899413,0.0374221,1.78573
17716000,0.904325,0.0426889,1.77811
17728000,0.899552,0.0331559,1.78366
17736000,0.891775,0.0457788,1.78151
17748000,0.891465,0.0327776,1.78757
17756000,0.902467,0.0264874,1.78569
17768000,0.903187,0.0333551,1.78893
17776000,0.899593,0.0304501,1.79024
17788000,0.903853,0.0361155,1.78294
17796000,0.896259,0.0316037,1.79075
17808000,0.903629,0.0425793,1.77734
17816000,0.90289,0.0374812,1.78307
17828000,0.899393,0.0344849,1.77973
17836000,0.891841,0.0304615,1.78209
17848000,0.894126,0.033655,1.78898
17856000,0.890028,0.0249912,1.79136
17868000,0.889278,0.0333037,1.79397
17876000,0.894738,0.0277336,1.78088
17888000,0.899103,0.0343873,1.78786
17896000,0.896681,0.0372865,1.78753
17908000,0.894904,0.0326645,1.78989
17916000,0.908558,0.028618,1.78702
17928000,0.894822,0.0359093,1.79275
17936000,0.89915,0.0288132,1.78919
17948000,0.902403,0.04,1.79738
17956000,0.898928,0.0358246,1.78935
17968000,0.898553,0.0234939,1.77852
17976000,0.905081,0.0318124,1.78829
17988000,0.900475,0.0353943,1.78882
17996000,0.894182,0.0272631,1.789
18008000,0.888651,0.0363606,1.78827
18016000,0.89811,0.0414718,1.78503
18028000,0.90339,0.0334686,1.78991
18036000,0.898997,0.0330611,1.78988
18048000,0.908241,0.0342346,1.78436
18056000,0.889808,0.0377375,1.79026
18068000,0.898082,0.0331851,1.79161
18076000,0.896578,0.0391022,1.78325
18088000,0.893138,0.0320909,1.792
18096000,0.895561,0.0298648,1.77304
18108000,0.901595,0.0308942,1.78483
18116000,0.899502,0.0351857,1.78806
18128000,0.897048,0.0340303,1.78805
18136000,0.901585,0.0343079,1.79266
18148000,0.892847,0.0296406,1.78788
18156000,0.902349,0.033244,1.78029
18168000,0.901202,0.0329493,1.78524
18176000,0.898735,0.0393727,1.79585
18188000,0.888434,0.0436992,1.79271
18196000,0.900747,0.0205193,1.77973
18208000,0.902299,0.0228173,1.78412
18216000,0.903841,0.0363665,1.78928
18228000,0.893312,0.0362704,1.7834
18236000,0.895713,0.0224174,1.78577
18248000,0.898379,0.03837,1.79495
18256000,0.900605,0.0382923,1.79018
18268000,0.907468,0.0332909,1.7853
18276000,0.9025,0.0285791,1.78825
18288000,0.901131,0.0318747,1.78719
18296000,0.893206,0.0355342,1.78898
18308000,0.897983,0.0426998,1.78261
18316000,0.896266,0.0307059,1.78718
18328000,0.888909,0.0355615,1.78908
18336000,0.895772,0.036385,1.78438
18348000,0.901395,0.0458369,1.78446
18356000,0.892399,0.0405364,1.78424
18368000,0.898059,0.0290461,1.78286
18376000,0.896402,0.0380612,1.78842
18388000,0.899151,0.0393524,1.78447
18396000,0.899652,0.0301594,1.78242
18408000,0.900828,0.0267206,1.78576
18416000,0.908274,0.0364859,1.79203
18428000,0.890621,0.0418697,1.78674
18436000,0.892838,0.0392656,1.79325
18448000,0.899177,0.034713,1.79035
18456000,0.893966,0.0310038,1.78503
18468000,0.89733,0.0338031,1.78434
18476000,0.892105,0.0450634,1.7844
18488000,0.890302,0.0334263,1.79024
18496000,0.906886,0.0201363,1.7903
18508000,0.90582,0.0372387,1.78245
18516000,0.896127,0.0385159,1.78677
18528000,0.895199,0.0433686,1.78642
18536000,0.897688,0.0389467,1.78444
18548000,0.899156,0.0266397,1.78562
18556000,0.905235,0.0391095,1.78902
18568000,0.90317,0.0317391,1.78438
18576000,0.897822,0.0323953,1.78534
18588000,0.894657,0.0382275,1.77853
18596000,0.887019,0.0366892,1.78875
18608000,0.89489,0.0371256,1.7858
18616000,0.899132,0.0375319,1.78369
18628000,0.898267,0.0366232,1.79016
18636000,0.895012,0.0370115,1.78679
18648000,0.885312,0.0297324,1.78285
18656000,0.894549,0.0292822,1.78196
18668000,0.899937,0.0332277,1.79165
18676000,0.898781,0.027968,1.79235
18688000,0.897903,0.0344954,1.78052
18696000,0.903671,0.0377929,1.78593
18708000,0.896755,0.0312614,1.78603
18716000,0.903532,0.0343476,1.78743
18728000,0.902918,0.0259403,1.78989
18736000,0.899208,0.0399906,1.79007
18748000,0.900264,0.0231199,1.79115
18756000,0.90041,0.0366726,1.78604
18768000,0.900518,0.0273648,1.78277
18776000,0.900053,0.0361351,1.7821
18788000,0.902745,0.043284,1.79278
18796000,0.898634,0.0340016,1.78315
18808000,0.900948,0.0375648,1.78361
18816000,0.898314,0.033078,1.78769
18828000,0.911119,0.0420158,1.79338
18836000,0.893229,0.0350609,1.78567
18848000,0.894132,0.0392599,1.78818
18856000,0.904222,0.0291585,1.79243
18868000,0.892929,0.0280397,1.77927
18876000,0.898204,0.0299487,1.79667
