timestamp,lat,lon,alt,alt_ellipsoid,delta_alt,vel_n,vel_e,vel_d,yaw,eph,epv,terrain_alt,lat_lon_reset_counter,alt_reset_counter,terrain_alt_valid,dead_reckoning
20380000,47.3977419072,8.54559382401,487.989,-0.000946045,-0.0,0.00371175,-0.0078542,0.000272411,0.00145204,0.411819,0.490235,0.0,2,0,0,0
20580000,47.3977419427,8.5455938229,487.988,-0.00274658,-0.0,0.00188694,-0.00947409,0.00224636,0.0017771,0.403174,0.490012,0.0,2,0,0,0
20780000,47.3977419669,8.5455938315,487.986,-0.00421143,-0.0,4.05148e-05,-0.00984726,0.000222189,0.00175468,0.397849,0.490131,0.0,2,0,0,0
20980000,47.3977419715,8.54559384431,487.982,-0.0085144,-0.0,-0.00467028,-0.0105874,0.00361004,0.00190899,0.394549,0.491134,0.0,2,0,0,0
21180000,47.3977419716,8.54559384362,487.976,-0.0134277,-0.0,-0.00498741,-0.0126326,0.00429229,0.00201034,0.392539,0.491292,0.0,2,0,0,0
21380000,47.3977419708,8.54559383319,487.974,-0.0152893,-0.0,-0.0057607,-0.012116,0.00282897,0.00260542,0.391367,0.492147,0.0,2,0,0,0
21580000,47.3977419664,8.54559383682,487.972,-0.0169678,-0.0,-0.00574028,-0.0100437,0.0072962,0.00267795,0.390737,0.492016,0.0,2,0,0,0
21780000,47.3977419622,8.54559385442,487.971,-0.0177917,-0.0,-0.00679881,-0.00814308,0.00597744,0.00352829,0.390445,0.492572,0.0,2,0,0,0
21980000,47.3977419686,8.54559388344,487.969,-0.0198669,-0.0,-0.00581096,-0.00662686,0.00527793,0.0034992,0.390351,0.492137,0.0,2,0,0,0
22180000,47.3977419853,8.54559388711,487.969,-0.0187683,-0.0,-0.00386546,-0.00490898,0.00512848,0.00352037,0.39036,0.49157,0.0,2,0,0,0
22380000,47.3977419884,8.54559388829,487.97,-0.0174866,-0.0,-0.00588214,-0.00367207,0.00493613,0.00370368,0.390409,0.491717,0.0,2,0,0,0
22580000,47.3977419773,8.54559390525,487.97,-0.0173035,-0.0,-0.00626975,-0.00223177,0.00360061,0.00403833,0.390456,0.490958,0.0,2,0,0,0
22780000,47.3977419588,8.54559392147,487.971,-0.0160522,-0.0,-0.00727832,-0.000413819,0.00199645,0.00421379,0.390478,0.490933,0.0,2,0,0,0
22980000,47.3977419354,8.54559393549,487.972,-0.0151062,-0.0,-0.00776471,0.00194639,0.00188897,0.00425331,0.390461,0.490056,0.0,2,0,0,0
23180000,47.3977419139,8.54559394309,487.973,-0.013855,-0.0,-0.00732289,0.00345057,0.000835151,0.00452153,0.3904,0.489935,0.0,2,0,0,0
23380000,47.3977419051,8.54559395161,487.974,-0.0124817,-0.0,-0.00445718,0.00512184,-0.00217019,0.00472169,0.390292,0.489028,0.0,2,0,0,0
23580000,47.3977418979,8.54559395604,487.974,-0.0114746,-0.0,-0.0031118,0.00650769,-0.00464864,0.00483086,0.390141,0.488133,0.0,2,0,0,0
23780000,47.3977418997,8.54559395258,487.975,-0.0106506,-0.0,-0.00232144,0.00622426,-0.00517894,0.00501501,0.38995,0.487987,0.0,2,0,0,0
23980000,47.3977419129,8.54559397382,487.977,-0.00897217,-0.0,-0.00278577,0.00889689,-0.0083552,0.00468572,0.389722,0.487146,0.0,2,0,0,0
24180000,47.3977419258,8.54559398553,487.977,-0.00790405,-0.0,-0.00355866,0.010626,-0.00758404,0.00495038,0.389464,0.487047,0.0,2,0,0,0
24380000,47.3977419265,8.54559398655,487.977,-0.00790405,-0.0,-0.00388292,0.00874727,-0.00607696,0.00493093,0.389179,0.486286,0.0,2,0,0,0
24580000,47.3977419289,8.5455939807,487.977,-0.00827026,-0.0,-0.00452887,0.00720259,-0.0048139,0.00548188,0.388872,0.486265,0.0,2,0,0,0
24780000,47.39774194,8.5455939598,487.974,-0.011261,-0.0,-0.00255809,0.00469279,-0.00402982,0.00551872,0.388548,0.485614,0.0,2,0,0,0
24980000,47.3977419377,8.54559394358,487.971,-0.0138855,-0.0,-0.00373986,0.00715301,-0.00256626,0.00578276,0.388211,0.485023,0.0,2,0,0,0
25180000,47.3977419324,8.54559393151,487.97,-0.0144348,-0.0,-0.0050111,0.00616699,-0.00222434,0.00631847,0.387865,0.485145,0.0,2,0,0,0
25380000,47.3977419153,8.54559392955,487.969,-0.0147095,-0.0,-0.00453699,0.00600383,-0.0010567,0.00634685,0.387515,0.484669,0.0,2,0,0,0
25580000,47.3977418947,8.54559393031,487.97,-0.0135193,-0.0,-0.00494503,0.00852845,-0.00327916,0.00630445,0.387162,0.484893,0.0,2,0,0,0
25780000,47.3977418847,8.54559394663,487.969,-0.0142517,-0.0,-0.00539487,0.0100369,-0.00352499,0.00641943,0.386811,0.484514,0.0,2,0,0,0
25980000,47.3977418718,8.54559396613,487.969,-0.0144043,-0.0,-0.00597128,0.0103121,-0.00219707,0.0067998,0.386465,0.484832,0.0,2,0,0,0
26180000,47.3977418638,8.54559396962,487.97,-0.0125732,-0.0,-0.0051743,0.00878444,-0.00042178,0.00733524,0.386125,0.484544,0.0,2,0,0,0
26380000,47.3977418747,8.54559397508,487.973,-0.00997925,-0.0,-0.00258773,0.00732887,-0.00222747,0.00677292,0.385794,0.484291,0.0,2,0,0,0
26580000,47.397741885,8.54559398703,487.974,-0.00830078,-0.0,-0.0017007,0.00405958,-0.00220231,0.00656009,0.385475,0.48471,0.0,2,0,0,0
26780000,47.3977418898,8.54559399277,487.978,-0.00460815,-0.0,-0.00174594,0.00264494,-0.0029257,0.0072348,0.38517,0.484515,0.0,2,0,0,0
26980000,47.3977418905,8.54559399496,487.982,-0.000152588,-0.0,-0.00275295,0.00219336,-0.0029293,0.00745496,0.384879,0.484985,0.0,2,0,0,0
27180000,47.3977418888,8.54559398892,487.982,-0.000396729,-0.0,-0.00400831,0.00135725,-0.00205732,0.0076708,0.384604,0.484818,0.0,2,0,0,0
27380000,47.3977418916,8.54559397951,487.981,-0.00115967,-0.0,-0.00276353,0.00260287,-0.00250738,0.0080116,0.384347,0.48532,0.0,2,0,0,0
27580000,47.3977419041,8.54559397469,487.982,-9.15527e-05,-0.0,-0.00372419,0.00253325,-0.00315929,0.00807485,0.384108,0.485171,0.0,2,0,0,0
27780000,47.3977419087,8.54559396645,487.984,0.00167847,-0.0,-0.00512466,0.00196941,-0.00216455,0.00784876,0.383888,0.48502,0.0,2,0,0,0
27980000,47.3977419166,8.54559395116,487.986,0.00402832,-0.0,-0.0053121,-0.00113126,-0.00309666,0.00783456,0.383687,0.485529,0.0,2,0,0,0
28180000,47.3977419185,8.5455939416,487.989,0.00643921,-0.0,-0.00448642,-0.00389357,-0.00432525,0.00775104,0.383505,0.485375,0.0,2,0,0,0
28380000,47.3977419298,8.54559394748,487.99,0.00775146,-0.0,-0.0054351,-0.00321852,-0.00677774,0.00754991,0.383343,0.485881,0.0,2,0,0,0
28580000,47.3977419289,8.54559394475,487.99,0.00778198,-0.0,-0.00504457,-0.0042797,-0.00639352,0.00771827,0.383199,0.485705,0.0,2,0,0,0
28780000,47.3977419231,8.54559393877,487.988,0.00521851,-0.0,-0.0052678,-0.00653987,-0.00693235,0.0077455,0.383073,0.486199,0.0,2,0,0,0
28980000,47.3977419112,8.54559392449,487.987,0.00457764,-0.0,-0.00734827,-0.00832817,-0.00521169,0.00770166,0.382965,0.486006,0.0,2,0,0,0
29180000,47.3977419024,8.5455939053,487.988,0.00537109,-0.0,-0.00649088,-0.00800035,-0.00539069,0.00756238,0.382873,0.485799,0.0,2,0,0,0
29380000,47.3977419029,8.5455939047,487.989,0.00543213,-0.0,-0.00495152,-0.00659228,-0.0053753,0.00738979,0.382796,0.486259,0.0,2,0,0,0
29580000,47.3977419009,8.5455939089,487.988,0.00479126,-0.0,-0.00475206,-0.00622528,-0.00432559,0.00720939,0.382732,0.486033,0.0,2,0,0,0
29780000,47.3977418982,8.54559389963,487.988,0.00424194,-0.0,-0.00448762,-0.00586097,-0.00380688,0.00704305,0.382681,0.486478,0.0,2,0,0,0
29980000,47.3977419058,8.54559389557,487.987,0.00350952,-0.0,-0.00472167,-0.00575083,-0.000902431,0.00664974,0.382641,0.486224,0.0,2,0,0,0
30180000,47.3977419219,8.54559388911,487.986,0.00250244,-0.0,-0.00268004,-0.00558635,-0.00176099,0.006386,0.382611,0.486653,0.0,2,0,0,0
30380000,47.3977419333,8.54559389006,487.984,0.000610352,-0.0,-0.000572223,-0.00410487,-0.00201022,0.00639479,0.382589,0.486385,0.0,2,0,0,0
30580000,47.3977419458,8.5455938954,487.983,-6.10352e-05,-0.0,0.00134545,-0.00320905,-0.0013954,0.0065547,0.382574,0.486107,0.0,2,0,0,0
30780000,47.3977419585,8.54559390765,487.982,-0.00109863,-0.0,0.00544005,-0.000808291,-0.00174144,0.00642513,0.382564,0.486508,0.0,2,0,0,0
30980000,47.3977419663,8.54559391961,487.98,-0.0038147,-0.0,0.00455775,-0.00180229,-0.000535854,0.00569788,0.38256,0.486221,0.0,2,0,0,0
31180000,47.3977419597,8.54559391599,487.979,-0.00482178,-0.0,0.0063528,-0.00150902,-0.00242074,0.00588795,0.382559,0.486614,0.0,2,0,0,0
31380000,47.3977419598,8.54559390011,487.979,-0.00479126,-0.0,0.00914215,-0.00229123,0.000290822,0.00582121,0.38256,0.48631,0.0,2,0,0,0
31580000,47.3977419678,8.54559388614,487.98,-0.00350952,-0.0,0.0112772,0.000828597,-0.000124842,0.00555335,0.382562,0.486698,0.0,2,0,0,0
31780000,47.3977419805,8.54559388085,487.978,-0.00527954,-0.0,0.0134268,0.00285451,0.00184453,0.00517817,0.382565,0.486392,0.0,2,0,0,0
31980000,47.3977419897,8.54559389503,487.976,-0.00744629,-0.0,0.0152943,0.00811436,0.00349173,0.00540616,0.382568,0.486083,0.0,2,0,0,0
32180000,47.3977419238,8.54559392111,487.988,0.00512695,-0.0,-0.133896,0.00920689,-0.182781,0.00550924,0.38257,0.486458,0.0,2,0,0,0
32380000,47.3977413216,8.54559395324,488.052,0.0690002,-0.0,-0.552143,0.00669282,-0.524683,0.00508639,0.382583,0.48615,0.0,2,0,0,0
32580000,47.3977399576,8.54559398188,488.206,0.219727,-0.0,-1.05757,0.00578913,-1.05799,0.00509828,0.38263,0.486524,0.0,2,0,0,0
32780000,47.3977373987,8.5455939798,488.458,0.465912,-0.0,-2.102,-0.00118116,-1.33952,0.00504898,0.382735,0.486206,0.0,2,0,0,0
32980000,47.3977325953,8.54559395615,488.694,0.691071,-0.0,-3.57807,-0.00753681,-1.09898,0.00567236,0.382921,0.486541,0.0,2,0,0,0
33180000,47.3977258968,8.54559390311,488.82,0.801971,-0.0,-4.67855,-0.0154416,-0.35924,0.00582077,0.383178,0.486083,0.0,2,0,0,0
33380000,47.3977169879,8.54559383425,488.86,0.825653,-0.0,-6.10854,-0.0220239,0.00622485,0.00490707,0.383478,0.48556,0.0,2,0,0,0
33580000,47.3977053778,8.54559375561,488.864,0.813263,-0.0,-7.61473,-0.0353165,0.204551,0.00556574,0.383897,0.48569,0.0,2,0,0,0
33780000,47.3976916737,8.54559368172,488.873,0.805908,-0.0,-8.83005,-0.0434057,-0.328211,0.0069864,0.384495,0.485186,0.0,2,0,0,0
33980000,47.3976765307,8.5455935897,489.105,1.02063,-0.0,-9.177,-0.0613791,-1.44124,0.0210101,0.385223,0.48539,0.0,2,0,0,0
34180000,47.3976610107,8.54559340292,489.39,1.28561,-0.0,-9.15634,-0.142483,-1.48966,0.049185,0.386138,0.484943,0.0,2,0,0,0
34380000,47.3976447272,8.54559285565,489.659,1.53433,-0.0,-9.27398,-0.352364,-1.50794,0.0868645,0.386964,0.485108,0.0,2,0,0,0
34580000,47.3976276886,8.54559169523,489.915,1.77032,-0.0,-9.32247,-0.605291,-1.20098,0.119636,0.387646,0.484581,0.0,2,0,0,0
34780000,47.3976101977,8.54558999705,489.997,1.83252,-0.0,-9.36596,-0.859458,-0.0469877,0.116691,0.388015,0.48404,0.0,2,0,0,0
34980000,47.3975923682,8.54558748871,489.969,1.78409,-0.0,-9.51941,-1.17612,0.040044,0.143112,0.38811,0.484142,0.0,2,0,0,0
35180000,47.39757463,8.54558482444,489.954,1.74957,-0.0,-9.47055,-1.1254,0.0400873,0.117508,0.388097,0.483654,0.0,2,0,0,0
35380000,47.3975569378,8.54558224081,489.933,1.70825,-0.0,-9.43403,-1.08237,0.0402861,0.0863317,0.388061,0.483836,0.0,2,0,0,0
35580000,47.3975391336,8.54557942213,489.904,1.65952,-0.0,-9.43725,-1.09636,0.0422326,0.0641698,0.387988,0.483456,0.0,2,0,0,0
35780000,47.3975212206,8.5455764165,489.874,1.60934,-0.0,-9.44749,-1.10626,0.0424923,0.0576863,0.387932,0.483791,0.0,2,0,0,0
35980000,47.3975032115,8.54557330943,489.845,1.56036,-0.0,-9.46608,-1.11714,0.0418424,0.0647519,0.387918,0.483616,0.0,2,0,0,0
36180000,47.3974851767,8.54557014134,489.823,1.51855,-0.0,-9.48212,-1.12427,0.0401117,0.077342,0.387953,0.483562,0.0,2,0,0,0
36380000,47.3974674866,8.54556700926,489.809,1.48447,-0.0,-9.47008,-1.12801,0.0388285,0.0922838,0.388034,0.484269,0.0,2,0,0,0
36580000,47.3974500075,8.54556389219,489.8,1.45523,-0.0,-9.46275,-1.1269,0.0387743,0.104702,0.388146,0.484478,0.0,2,0,0,0
36780000,47.3974325868,8.54556078855,489.79,1.42511,-0.0,-9.47205,-1.12859,0.0408239,0.111347,0.388274,0.485453,0.0,2,0,0,0
36980000,47.3974151349,8.54555770737,489.781,1.39651,-0.0,-9.47884,-1.12476,0.0420312,0.111867,0.388395,0.485867,0.0,2,0,0,0
37180000,47.3973976282,8.54555466093,489.774,1.36884,-0.0,-9.49337,-1.11992,0.0411492,0.109083,0.388495,0.487046,0.0,2,0,0,0
37380000,47.3973800763,8.54555163475,489.765,1.34018,-0.0,-9.49479,-1.11276,0.0416955,0.106428,0.388561,0.487579,0.0,2,0,0,0
37580000,47.3973626836,8.54554865786,489.759,1.31424,-0.0,-9.49783,-1.11156,0.0409087,0.105008,0.388589,0.488111,0.0,2,0,0,0
37780000,47.3973455898,8.54554576204,489.755,1.29056,-0.0,-9.48365,-1.10542,0.0421065,0.104523,0.388575,0.489373,0.0,2,0,0,0
37980000,47.3973285944,8.54554291375,489.75,1.26556,-0.0,-9.48466,-1.10259,0.0436066,0.105245,0.388515,0.489852,0.0,2,0,0,0
38180000,47.3973115569,8.54554003933,489.741,1.23584,-0.0,-9.49897,-1.10587,0.0481188,0.107654,0.388396,0.490108,0.0,2,0,0,0
38380000,47.3972944287,8.54553716849,489.71,1.18521,-0.0,-9.51293,-1.10379,0.0529053,0.129348,0.388228,0.488837,0.0,2,0,0,0
38580000,47.3972771976,8.54553428892,489.682,1.13657,-0.0,-9.53206,-1.10551,0.0507123,0.149702,0.38803,0.488744,0.0,2,0,0,0
38780000,47.3972600673,8.54553141992,489.663,1.09756,-0.0,-9.52854,-1.09904,0.0473411,0.152547,0.387802,0.488152,0.0,2,0,0,0
38980000,47.397243192,8.54552860072,489.654,1.06915,-0.0,-9.51306,-1.0847,0.043014,0.140616,0.387547,0.487708,0.0,2,0,0,0
39180000,47.39722636,8.54552580581,489.652,1.04749,-0.0,-9.52087,-1.07872,0.0426227,0.12556,0.387267,0.487985,0.0,2,0,0,0
39380000,47.3972094326,8.54552299481,489.657,1.03192,-0.0,-9.54462,-1.08151,0.0295721,0.113701,0.386969,0.487593,0.0,2,0,0,0
39580000,47.397192391,8.54552016378,489.673,1.02789,-0.0,-9.56054,-1.07783,-0.154863,0.10763,0.386655,0.487901,0.0,2,0,0,0
39780000,47.3971751986,8.54551732735,489.797,1.13165,-0.0,-9.5731,-1.07281,-0.73002,0.106766,0.386334,0.487505,0.0,2,0,0,0
39980000,47.3971579528,8.54551446119,489.956,1.27078,-0.0,-9.56447,-1.07797,-0.740008,0.108138,0.386057,0.48782,0.0,2,0,0,0
40180000,47.3971407619,8.54551159679,490.132,1.42639,-0.0,-9.57917,-1.07882,-0.88261,0.109878,0.385786,0.487417,0.0,2,0,0,0
40380000,47.3971237957,8.54550879757,490.327,1.60156,-0.0,-9.56378,-1.07365,-0.884032,0.110647,0.38551,0.487021,0.0,2,0,0,0
40580000,47.3971068779,8.54550600147,490.522,1.77649,-0.0,-9.56157,-1.07101,-0.87457,0.111257,0.385234,0.487324,0.0,2,0,0,0
40780000,47.3970899009,8.54550319188,490.707,1.94205,-0.0,-9.53863,-1.0601,-0.620381,0.111703,0.384955,0.486929,0.0,2,0,0,0
40980000,47.3970728701,8.54550038119,490.773,1.9881,-0.0,-9.57713,-1.06594,0.018217,0.111455,0.384672,0.487231,0.0,2,0,0,0
41180000,47.3970555704,8.54549751594,490.796,1.99106,-0.0,-9.65154,-1.07508,0.0608877,0.110951,0.384329,0.486829,0.0,2,0,0,0
41380000,47.3970382039,8.54549463401,490.814,1.9884,-0.0,-9.63292,-1.0733,0.0787657,0.110839,0.383986,0.487132,0.0,2,0,0,0
41580000,47.3970211122,8.54549177428,490.822,1.97644,-0.0,-9.60828,-1.07017,0.091667,0.110095,0.383672,0.486738,0.0,2,0,0,0
41780000,47.3970041241,8.54548892056,490.821,1.9556,-0.0,-9.60469,-1.06969,0.0946725,0.110092,0.383388,0.486349,0.0,2,0,0,0
41980000,47.3969871069,8.54548607506,490.818,1.93231,-0.0,-9.60031,-1.06297,0.0934879,0.1096,0.383135,0.486654,0.0,2,0,0,0
42180000,47.396970004,8.54548322632,490.813,1.90738,-0.0,-9.61222,-1.06601,0.0906262,0.10973,0.382914,0.486279,0.0,2,0,0,0
42380000,47.3969527502,8.54548033536,490.806,1.88083,-0.0,-9.63529,-1.07499,0.0845129,0.109266,0.382725,0.486594,0.0,2,0,0,0
42580000,47.396935384,8.54547742054,490.801,1.85529,-0.0,-9.64375,-1.07435,0.078704,0.109554,0.382567,0.486222,0.0,2,0,0,0
42780000,47.3969182284,8.54547455577,490.793,1.82751,-0.0,-9.64521,-1.07475,0.0711066,0.109367,0.382438,0.486548,0.0,2,0,0,0
42980000,47.3969011226,8.54547170027,490.783,1.7977,-0.0,-9.65955,-1.08207,0.0640173,0.109411,0.382337,0.486191,0.0,2,0,0,0
43180000,47.396883933,8.54546882109,490.772,1.767,-0.0,-9.66928,-1.08417,0.0540071,0.109313,0.382261,0.485839,0.0,2,0,0,0
43380000,47.3968666371,8.54546592679,490.763,1.73798,-0.0,-9.67226,-1.07977,0.0431256,0.10966,0.382208,0.486171,0.0,2,0,0,0
43580000,47.3968492292,8.54546302772,490.756,1.71027,-0.0,-9.67779,-1.0775,0.0349272,0.109188,0.382176,0.485834,0.0,2,0,0,0
43780000,47.396831681,8.5454600953,490.748,1.68219,-0.0,-9.69573,-1.08444,0.0281137,0.108547,0.382161,0.486176,0.0,2,0,0,0
43980000,47.3968139916,8.5454571187,490.738,1.65228,-0.0,-9.71939,-1.09023,0.020453,0.10914,0.382161,0.485842,0.0,2,0,0,0
44180000,47.3967965177,8.54545419289,490.73,1.62402,-0.0,-9.70233,-1.07768,0.00909637,0.109403,0.382173,0.486195,0.0,2,0,0,0
44380000,47.39677915,8.54545128341,490.721,1.595,-0.0,-9.68923,-1.07171,-6.38295e-05,0.109481,0.382196,0.485873,0.0,2,0,0,0
44580000,47.3967617675,8.54544837914,490.71,1.56491,-0.0,-9.68028,-1.06354,-0.00866763,0.109379,0.382225,0.485555,0.0,2,0,0,0
44780000,47.3967443095,8.54544546098,490.701,1.53564,-0.0,-9.68748,-1.06574,-0.0175602,0.108983,0.382259,0.485912,0.0,2,0,0,0
44980000,47.3967267145,8.54544254035,490.692,1.5062,-0.0,-9.70337,-1.06662,-0.0271298,0.109066,0.382297,0.485604,0.0,2,0,0,0
45180000,47.3967089736,8.54543960111,490.685,1.47906,-0.0,-9.72028,-1.07099,-0.0351732,0.108917,0.382335,0.485969,0.0,2,0,0,0
45380000,47.3966913018,8.54543666269,490.677,1.45184,-0.0,-9.71797,-1.06945,-0.0410115,0.108205,0.382373,0.485661,0.0,2,0,0,0
45580000,47.3966738408,8.54543376804,490.671,1.42572,-0.0,-9.70282,-1.06244,-0.0480248,0.108289,0.38241,0.486034,0.0,2,0,0,0
45784000,47.3966564047,8.54543087418,490.669,1.40332,-0.0,-9.70445,-1.06219,-0.0534351,0.108578,0.382443,0.485734,0.0,2,0,0,0
45976000,47.3966395849,8.54542806774,490.668,1.38278,-0.0,-9.71457,-1.06394,-0.053891,0.108443,0.382137,0.485846,0.0,2,0,0,0
46176000,47.3966219187,8.54542512817,490.666,1.36029,-0.0,-9.72336,-1.06405,-0.0566917,0.108648,0.382188,0.485565,0.0,2,0,0,0
46376000,47.3966041297,8.5454221797,490.665,1.33887,-0.0,-9.72542,-1.05689,-0.0566822,0.108765,0.38223,0.485283,0.0,2,0,0,0
46576000,47.3965862566,8.54541921068,490.663,1.3176,-0.0,-9.73736,-1.06039,-0.0594858,0.108739,0.382265,0.485669,0.0,2,0,0,0
46776000,47.3965685953,8.54541626201,490.663,1.29718,-0.0,-9.73198,-1.06125,-0.0604287,0.108406,0.382292,0.48539,0.0,2,0,0,0
46976000,47.396551059,8.54541332689,490.664,1.27844,-0.0,-9.72655,-1.0602,-0.0601014,0.108355,0.382312,0.485776,0.0,2,0,0,0
47176000,47.3965335206,8.5454103944,490.665,1.25873,-0.0,-9.72529,-1.05914,-0.0564968,0.107818,0.382325,0.485491,0.0,2,0,0,0
47376000,47.3965159608,8.54540746576,490.664,1.2381,-0.0,-9.58908,-1.04741,-0.0757761,0.108984,0.382331,0.485882,0.0,2,0,0,0
47576000,47.3964989282,8.54540462225,490.668,1.22263,-0.0,-9.05176,-0.990204,-0.0518611,0.109223,0.382333,0.485599,0.0,2,0,0,0
47776000,47.3964825509,8.54540188419,490.67,1.20407,-0.0,-8.81544,-0.967496,-0.0589145,0.108083,0.38234,0.485313,0.0,2,0,0,0
47984000,47.3964658708,8.54539911395,490.673,1.1871,-0.0,-8.60485,-0.935175,-0.0821355,0.107252,0.382719,0.485963,0.0,2,0,0,0
48176000,47.3964513136,8.54539674513,490.679,1.17316,-0.0,-7.97612,-0.840999,-0.0811319,0.105528,0.382362,0.485408,0.0,2,0,0,0
48376000,47.3964374702,8.54539455736,490.681,1.15472,-0.0,-7.107,-0.716791,-0.0361555,0.106372,0.382389,0.485786,0.0,2,0,0,0
48576000,47.3964249352,8.54539264374,490.677,1.13156,-0.0,-6.33485,-0.622519,-0.0344523,0.108546,0.382447,0.485484,0.0,2,0,0,0
48776000,47.3964134188,8.54539092915,490.675,1.10913,-0.0,-5.81369,-0.565042,-0.0352258,0.108686,0.38255,0.485853,0.0,2,0,0,0
48976000,47.3964024248,8.54538929877,490.675,1.08926,-0.0,-5.56101,-0.547246,-0.0640725,0.108906,0.382692,0.485547,0.0,2,0,0,0
49176000,47.3963920066,8.54538773291,490.676,1.06964,-0.0,-5.3441,-0.549881,-0.0686639,0.105939,0.382835,0.485245,0.0,2,0,0,0
49376000,47.3963816569,8.54538614614,490.683,1.05682,-0.0,-5.75725,-0.617865,-0.0924551,0.103945,0.382963,0.485617,0.0,2,0,0,0
49584000,47.3963698856,8.54538431578,490.684,1.0376,-0.0,-6.62533,-0.721201,-0.0448254,0.10606,0.383408,0.485596,0.0,2,0,0,0
49776000,47.3963577564,8.54538241718,490.676,1.00998,-0.0,-7.52411,-0.82051,-0.0349863,0.107812,0.382959,0.485697,0.0,2,0,0,0
49984000,47.3963431495,8.54538011727,490.668,0.982147,-0.0,-8.49508,-0.930313,-0.0429278,0.109317,0.383115,0.48565,0.0,2,0,0,0
50176000,47.3963282974,8.54537774764,490.655,0.949768,-0.0,-9.22688,-1.01539,-0.00931065,0.109263,0.382488,0.485734,0.0,2,0,0,0
50376000,47.3963119135,8.54537510275,490.646,0.921387,-0.0,-9.59164,-1.05643,-0.0524358,0.108355,0.382225,0.485405,0.0,2,0,0,0
50576000,47.3962953973,8.54537240987,490.646,0.903656,-0.0,-9.6917,-1.06592,-0.0716135,0.108646,0.382049,0.48508,0.0,2,0,0,0
50776000,47.3962787697,8.54536966639,490.649,0.888458,-0.0,-9.70062,-1.06832,-0.0678452,0.108596,0.381977,0.485429,0.0,2,0,0,0
50976000,47.3962622051,8.54536690035,490.656,0.87735,-0.0,-9.36518,-1.03056,-0.0989533,0.107233,0.381979,0.485127,0.0,2,0,0,0
51176000,47.3962463683,8.54536427113,490.664,0.868439,-0.0,-8.629,-0.91712,-0.0847568,0.105792,0.38202,0.485494,0.0,2,0,0,0
51376000,47.396231652,8.54536192682,490.667,0.85376,-0.0,-7.78049,-0.778292,-0.0392258,0.109747,0.382048,0.485198,0.0,2,0,0,0
51576000,47.3962175608,8.54535974514,490.667,0.836823,-0.0,-7.56828,-0.754126,-0.0532275,0.111317,0.382026,0.485569,0.0,2,0,0,0
51776000,47.396203506,8.54535753914,490.67,0.823029,-0.0,-7.38186,-0.756085,-0.0650377,0.11172,0.38199,0.485203,0.0,2,0,0,0
51976000,47.3961902325,8.54535544815,490.675,0.811554,-0.0,-6.92066,-0.712208,-0.0575209,0.11092,0.381994,0.484732,0.0,2,0,0,0
52176000,47.3961779585,8.54535353428,490.678,0.798065,-0.0,-6.35559,-0.652642,-0.0475311,0.108756,0.382056,0.484829,0.0,2,0,0,0
52376000,47.3961666322,8.54535178244,490.681,0.785278,-0.0,-5.77828,-0.58982,-0.0457268,0.107539,0.382202,0.484215,0.0,2,0,0,0
52576000,47.3961562253,8.54535019307,490.683,0.7724,-0.0,-5.1908,-0.522609,-0.0420465,0.107468,0.382459,0.484197,0.0,2,0,0,0
52776000,47.3961467662,8.54534878214,490.686,0.759521,-0.0,-4.60865,-0.461555,-0.0410651,0.107399,0.382836,0.483526,0.0,2,0,0,0
52976000,47.3961383167,8.54534753629,490.69,0.74823,-0.0,-4.02117,-0.399869,-0.037296,0.107916,0.383318,0.483487,0.0,2,0,0,0
53176000,47.3961310124,8.54534649007,490.692,0.735413,-0.0,-3.41912,-0.338699,-0.034559,0.108007,0.383875,0.482852,0.0,2,0,0,0
53376000,47.3961248359,8.54534564415,490.694,0.723389,-0.0,-2.81707,-0.276042,-0.0315456,0.108274,0.384467,0.482261,0.0,2,0,0,0
53576000,47.3961197698,8.5453449696,490.698,0.712189,-0.0,-2.21634,-0.218095,-0.029437,0.108557,0.385052,0.482316,0.0,2,0,0,0
53776000,47.3961158263,8.54534445472,490.7,0.700317,-0.0,-1.60902,-0.159431,-0.0276241,0.108481,0.385597,0.48184,0.0,2,0,0,0
53984000,47.3961129335,8.54534411685,490.702,0.688293,-0.0,-0.972299,-0.0962182,-0.0226649,0.108248,0.386555,0.481651,0.0,2,0,0,0
54176000,47.3961113929,8.54534398709,490.702,0.674286,-0.0,-0.41305,-0.0376304,-0.00523275,0.107877,0.386466,0.481665,0.0,2,0,0,0
54376000,47.3961107371,8.54534399971,490.697,0.656525,-0.0,-0.0200888,-0.00166954,-0.0113676,0.107626,0.386767,0.481973,0.0,2,0,0,0
54576000,47.3961106783,8.54534409091,490.693,0.638763,-0.0,0.171497,0.0149013,-0.0219833,0.107687,0.386968,0.481763,0.0,2,0,0,0
54776000,47.3961110189,8.54534423284,490.686,0.619141,-0.0,0.25537,0.0177705,-0.0376255,0.108219,0.387061,0.481605,0.0,2,0,0,0
54976000,47.3961116582,8.54534440859,490.692,0.613342,-0.0,0.279699,0.0157278,-0.134738,0.108041,0.387046,0.482077,0.0,2,0,0,0
55176000,47.3961124708,8.54534462502,490.762,0.670593,-0.0,0.255795,0.00408002,-0.854574,0.108229,0.386942,0.482006,0.0,2,0,0,0
55376000,47.3961133777,8.54534484874,490.987,0.881378,-0.0,0.213893,-0.00085978,-1.53557,0.108585,0.386786,0.482554,0.0,2,0,0,0
55576000,47.3961143159,8.54534506894,491.267,1.14182,-0.0,0.154696,-0.00625488,-1.59164,0.108004,0.386636,0.482533,0.0,2,0,0,0
55776000,47.3961151696,8.5453452658,491.553,1.40808,-0.0,0.0707611,-0.0251741,-1.60839,0.108086,0.386463,0.483141,0.0,2,0,0,0
55976000,47.3961158849,8.54534541558,491.851,1.68604,-0.0,-0.0182727,-0.041234,-1.6135,0.107979,0.386265,0.483153,0.0,2,0,0,0
56176000,47.3961164495,8.54534550619,492.158,1.97235,-0.0,-0.0962604,-0.0522723,-1.61224,0.107997,0.386062,0.483165,0.0,2,0,0,0
56376000,47.3961168638,8.54534554671,492.47,2.26437,-0.0,-0.163334,-0.06239,-1.60341,0.107746,0.385868,0.4838,0.0,2,0,0,0
56576000,47.3961171213,8.54534555286,492.785,2.55975,-0.0,-0.217015,-0.0691907,-1.58961,0.107961,0.385689,0.483813,0.0,2,0,0,0
56776000,47.3961172428,8.54534552808,493.098,2.85294,-0.0,-0.260225,-0.072528,-1.58516,0.107841,0.385526,0.48445,0.0,2,0,0,0
56976000,47.3961172481,8.54534545095,493.42,3.15421,-0.0,-0.288132,-0.0763937,-1.65893,0.108082,0.385376,0.484437,0.0,2,0,0,0
57176000,47.3961171588,8.54534535136,493.757,3.4715,-0.0,-0.305604,-0.0752725,-1.68605,0.111063,0.385239,0.485067,0.0,2,0,0,0
57376000,47.396116991,8.5453452572,493.985,3.67932,-0.0,-0.31062,-0.0601423,-0.509986,0.19443,0.385112,0.485027,0.0,2,0,0,0
57576000,47.3961167441,8.54534519342,494.022,3.69598,-0.0,-0.326444,-0.0229858,0.0210759,0.469239,0.384929,0.484964,0.0,2,0,0,0
57784000,47.3961163829,8.54534524423,494.039,3.69315,-0.0,-0.357556,0.00861014,0.046565,1.00572,0.385056,0.485822,0.0,2,0,0,0
57984000,47.3961159955,8.54534525462,494.039,3.67346,-0.0,-0.317175,-0.0249831,0.0589378,1.64292,0.384792,0.48572,0.0,2,0,0,0
58176000,47.3961156736,8.54534520217,494.033,3.6478,-0.0,-0.245933,-0.0463822,-0.000106594,2.30558,0.384132,0.485931,0.0,2,0,0,0
58376000,47.3961154289,8.5453451614,494.114,3.70871,-0.0,-0.163291,-0.0213749,-0.821474,2.94773,0.383831,0.48561,0.0,2,0,0,0
58576000,47.3961152446,8.54534534646,494.341,3.9155,-0.0,-0.114412,0.0776846,-1.44267,-2.93638,0.383567,0.485853,0.0,2,0,0,0
58776000,47.3961150359,8.5453457837,494.607,4.16138,-0.0,-0.111685,0.170476,-1.5022,-2.92796,0.383396,0.485324,0.0,2,0,0,0
58976000,47.3961147343,8.54534634198,494.873,4.40723,-0.0,-0.126552,0.163492,-1.33149,2.9931,0.383285,0.48472,0.0,2,0,0,0
59176000,47.3961143245,8.54534669657,495.118,4.63235,-0.0,-0.148513,0.0365665,-1.25895,2.40109,0.383234,0.484711,0.0,2,0,0,0
59376000,47.3961137929,8.54534674428,495.367,4.86102,-0.0,-0.157747,-0.0901875,-1.24891,1.69605,0.383238,0.484017,0.0,2,0,0,0
59576000,47.3961131901,8.54534657504,495.615,5.08908,-0.0,-0.146393,-0.17557,-1.2394,0.944981,0.383292,0.48392,0.0,2,0,0,0
59776000,47.396112567,8.5453463184,495.839,5.293,-0.0,-0.112247,-0.206383,-1.0433,0.176643,0.383373,0.483169,0.0,2,0,0,0
59984000,47.3961119392,8.54534605269,496.011,5.44513,-0.0,-0.0516246,-0.200729,-0.629634,-0.62828,0.383845,0.482625,0.0,2,0,0,0
60176000,47.3961114471,8.54534583163,496.119,5.53342,-0.0,0.0472032,-0.181257,-0.530091,-1.33926,0.383501,0.482247,0.0,2,0,0,0
60376000,47.3961110941,8.54534561057,496.229,5.62335,-0.0,0.137927,-0.16806,-0.520751,-2.03366,0.383519,0.481479,0.0,2,0,0,0
60576000,47.3961108574,8.54534536736,496.337,5.71149,-0.0,0.190171,-0.157167,-0.51683,-2.70069,0.383539,0.481288,0.0,2,0,0,0
60776000,47.3961106872,8.54534506462,496.433,5.78711,-0.0,0.216945,-0.159764,-0.460803,2.95573,0.383563,0.480535,0.0,2,0,0,0
60976000,47.3961105633,8.54534468197,496.524,5.8577,-0.0,0.228029,-0.159232,-0.461441,2.37302,0.383585,0.480341,0.0,2,0,0,0
61176000,47.3961104553,8.54534426974,496.614,5.92834,-0.0,0.230078,-0.137307,-0.461723,1.81649,0.383603,0.47961,0.0,2,0,0,0
61376000,47.3961103563,8.54534389937,496.705,5.99927,-0.0,0.230289,-0.102971,-0.462076,1.27419,0.383618,0.479434,0.0,2,0,0,0
61576000,47.3961102703,8.5453436072,496.795,6.0687,-0.0,0.229253,-0.0668852,-0.461015,0.740747,0.383634,0.478755,0.0,2,0,0,0
61776000,47.3961102097,8.54534340109,496.881,6.13547,-0.0,0.229489,-0.0308489,-0.46301,0.213647,0.38365,0.478117,0.0,2,0,0,0
61976000,47.3961101759,8.5453432936,496.968,6.20206,-0.0,0.235093,0.0011217,-0.463349,-0.310057,0.383661,0.478028,0.0,2,0,0,0
62176000,47.3961101935,8.54534329279,497.055,6.26917,-0.0,0.24258,0.0294313,-0.465209,-0.831916,0.383657,0.477497,0.0,2,0,0,0
62384000,47.3961102775,8.54534337686,497.146,6.34039,-0.0,0.254512,0.0483054,-0.465255,-1.37302,0.384016,0.477208,0.0,2,0,0,0
62576000,47.3961104181,8.54534347581,497.233,6.40656,-0.0,0.263221,0.0531898,-0.465847,-1.87017,0.383566,0.477126,0.0,2,0,0,0
62776000,47.3961106205,8.54534353582,497.321,6.4751,-0.0,0.262928,0.0463787,-0.465437,-2.38545,0.383468,0.4773,0.0,2,0,0,0
62976000,47.3961108805,8.5453435362,497.407,6.54123,-0.0,0.260901,0.0328202,-0.465327,-2.9001,0.383338,0.477075,0.0,2,0,0,0
63176000,47.3961111631,8.5453434711,497.493,6.60706,-0.0,0.245438,0.0216277,-0.466874,2.8684,0.383186,0.476935,0.0,2,0,0,0
63384000,47.3961114296,8.54534329324,497.583,6.67734,-0.0,0.193023,-0.0329771,-0.467007,2.46949,0.383389,0.477556,0.0,2,0,0,0
63576000,47.3961115513,8.54534291707,497.667,6.74115,-0.0,0.112894,-0.10998,-0.469147,2.40787,0.382854,0.477388,0.0,2,0,0,0
63776000,47.3961115991,8.54534249285,497.757,6.81082,-0.0,0.096742,-0.0879661,-0.468563,2.527,0.382688,0.477978,0.0,2,0,0,0
63976000,47.3961116861,8.54534225326,497.846,6.87967,-0.0,0.130137,-0.000972253,-0.465837,2.70172,0.382532,0.478141,0.0,2,0,0,0
64176000,47.3961118029,8.5453422303,497.933,6.94669,-0.0,0.151837,0.0809569,-0.464899,2.84478,0.3824,0.478874,0.0,2,0,0,0
64376000,47.3961119048,8.54534234621,498.021,7.01477,-0.0,0.153615,0.12358,-0.465387,2.92404,0.382308,0.479142,0.0,2,0,0,0
64584000,47.3961119662,8.54534253463,498.104,7.07812,-0.0,0.14122,0.128554,-0.206749,2.94208,0.38263,0.479669,0.0,2,0,0,0
64776000,47.3961119791,8.54534271764,498.107,7.06039,-0.0,0.123453,0.115116,0.0217845,2.92256,0.382274,0.480289,0.0,2,0,0,0
64976000,47.396111968,8.54534290895,498.103,7.03708,-0.0,0.113242,0.0945377,0.0174268,2.88796,0.382299,0.480612,0.0,2,0,0,0
65176000,47.3961119404,8.54534310787,498.098,7.01199,-0.0,0.108667,0.0722748,0.0146959,2.85679,0.382374,0.481494,0.0,2,0,0,0
65376000,47.3961118992,8.54534329916,498.091,6.98508,-0.0,0.104909,0.0576106,0.00876204,2.83557,0.382492,0.481797,0.0,2,0,0,0
65576000,47.3961118399,8.5453434973,498.085,6.95895,-0.0,0.103168,0.0469755,0.00264817,2.82548,0.382641,0.482675,0.0,2,0,0,0
65776000,47.3961117561,8.54534371046,498.078,6.93195,-0.0,0.102559,0.0401951,-0.00441923,2.82344,0.382808,0.482931,0.0,2,0,0,0
65976000,47.3961116438,8.54534393953,498.071,6.90417,-0.0,0.10579,0.0293931,-0.0118692,2.82469,0.38298,0.483145,0.0,2,0,0,0
66176000,47.396111525,8.54534417195,498.064,6.87723,-0.0,0.114024,0.0180278,-0.0196131,2.8272,0.383146,0.483945,0.0,2,0,0,0
66376000,47.3961114182,8.54534438855,498.058,6.8511,-0.0,0.122075,0.00670296,-0.026397,2.82904,0.383297,0.484084,0.0,2,0,0,0
66576000,47.3961113429,8.54534457759,498.055,6.82809,-0.0,0.131841,-0.00299896,-0.0307976,2.82845,0.383427,0.484819,0.0,2,0,0,0
66776000,47.3961112873,8.54534473794,498.051,6.80441,-0.0,0.136883,-0.0141935,-0.0341728,2.82704,0.383531,0.484865,0.0,2,0,0,0
66976000,47.3961112423,8.54534488022,498.05,6.78391,-0.0,0.141977,-0.0263112,-0.0376243,2.82619,0.383607,0.485535,0.0,2,0,0,0
67176000,47.3961112202,8.54534502476,498.051,6.76495,-0.0,0.14414,-0.0351006,-0.0364987,2.82502,0.383653,0.485502,0.0,2,0,0,0
67376000,47.3961112213,8.54534515128,498.051,6.74469,-0.0,0.148215,-0.046308,-0.0361722,2.82358,0.38367,0.485426,0.0,2,0,0,0
67576000,47.3961112499,8.54534522375,498.052,6.72543,-0.0,0.15205,-0.0557927,-0.0378985,2.82201,0.383661,0.485989,0.0,2,0,0,0
67776000,47.3961112945,8.54534527783,498.055,6.70831,-0.0,0.151818,-0.0619463,-0.0343674,2.82021,0.383627,0.485849,0.0,2,0,0,0
67976000,47.3961113756,8.54534532521,498.059,6.69281,-0.0,0.213704,-0.076311,-0.0527893,2.81793,0.383571,0.486356,0.0,2,0,0,0
68176000,47.3961119128,8.54534517429,498.068,6.68121,-0.0,0.683013,-0.223225,-0.0659532,2.81619,0.383497,0.486153,0.0,2,0,0,0
68376000,47.3961135784,8.54534445379,498.072,6.66531,-0.0,1.48422,-0.493492,-0.0177531,2.81602,0.383412,0.486619,0.0,2,0,0,0
68584000,47.3961165717,8.54534306541,498.068,6.64093,-0.0,2.0505,-0.692077,-0.0090685,2.81496,0.383704,0.486645,0.0,2,0,0,0
68784000,47.396119546,8.54534168934,498.076,6.62982,-0.0,1.83938,-0.613083,-0.04027,2.81542,0.383637,0.486363,0.0,2,0,0,0
68976000,47.3961217845,8.54534071585,498.083,6.61606,-0.0,1.35154,-0.438511,-0.0113558,2.8141,0.38321,0.486481,0.0,2,0,0,0
69176000,47.3961234423,8.54534005437,498.085,6.59842,-0.0,0.799828,-0.250818,-0.000528872,2.81283,0.383129,0.48618,0.0,2,0,0,0
69376000,47.3961244559,8.54533971027,498.085,6.57831,-0.0,0.354414,-0.102381,0.00952226,2.81245,0.382992,0.48655,0.0,2,0,0,0
69576000,47.3961250425,8.54533957845,498.086,6.55972,-0.0,0.118011,-0.0263221,0.001259,2.81191,0.38282,0.486218,0.0,2,0,0,0
69776000,47.3961254062,8.54533954682,498.09,6.54321,-0.0,0.00307329,0.00653761,5.78259e-05,2.81155,0.382653,0.486576,0.0,2,0,0,0
69976000,47.3961256216,8.54533956968,498.091,6.52472,-0.0,-0.0630709,0.0183661,0.00485623,2.81104,0.382514,0.486243,0.0,2,0,0,0
70176000,47.3961257147,8.54533962125,498.091,6.50412,-0.0,-0.10562,0.023645,0.00446453,2.80969,0.382407,0.485909,0.0,2,0,0,0
70376000,47.3961257121,8.54533969169,498.092,6.48563,-0.0,-0.125659,0.0213805,0.00317897,2.80964,0.382329,0.486261,0.0,2,0,0,0
70576000,47.3961256407,8.54533975007,498.089,6.46225,-0.0,-0.140802,0.0173484,0.00330512,2.80942,0.382274,0.485935,0.0,2,0,0,0
70784000,47.3961255118,8.54533982267,498.087,6.44025,-0.0,-0.143161,0.014857,-0.000523872,2.80898,0.382597,0.485884,0.0,2,0,0,0
70976000,47.3961253639,8.54533990977,498.086,6.41959,-0.0,-0.138411,0.0127443,-0.000525305,2.80851,0.382207,0.485966,0.0,2,0,0,0
71176000,47.396125189,8.54534000882,498.085,6.39767,-0.0,-0.128097,0.00921509,-0.00397203,2.8085,0.382185,0.486333,0.0,2,0,0,0
71376000,47.3961250181,8.54534009437,498.084,6.37723,-0.0,-0.114858,0.00248245,-0.00565643,2.80923,0.382162,0.486018,0.0,2,0,0,0
71584000,47.396124854,8.54534017855,498.085,6.35794,-0.0,-0.101557,-0.00325856,-0.00487578,2.8097,0.382503,0.485976,0.0,2,0,0,0
71784000,47.3961247058,8.54534026552,498.085,6.33817,-0.0,-0.0885414,-0.00664473,-0.0025786,2.81033,0.382481,0.486348,0.0,2,0,0,0
71976000,47.3961245798,8.54534033705,498.085,6.3176,-0.0,-0.0761797,-0.0118628,-0.00441818,2.81047,0.382101,0.485771,0.0,2,0,0,0
72176000,47.3961244637,8.54534037813,498.087,6.29956,-0.0,-0.0645349,-0.0189443,-0.0027106,2.80967,0.382083,0.486146,0.0,2,0,0,0
72384000,47.3961243436,8.54534040258,498.088,6.28119,-0.0,-0.0536936,-0.0217641,-0.00284233,2.80948,0.382429,0.486116,0.0,2,0,0,0
72576000,47.3961242344,8.54534041533,498.089,6.26227,-0.0,-0.0455742,-0.0260927,-0.00128251,2.80922,0.382056,0.486229,0.0,2,0,0,0
72776000,47.3961241227,8.54534042562,498.09,6.24341,-0.0,-0.0368307,-0.0295449,0.00258751,2.80911,0.382046,0.485934,0.0,2,0,0,0
72976000,47.396124021,8.54534043517,498.092,6.22507,-0.0,-0.0276923,-0.0302089,0.00161743,2.80912,0.382039,0.48564,0.0,2,0,0,0
73176000,47.3961239252,8.54534046132,498.095,6.2077,-0.0,-0.0206473,-0.0278238,0.00392964,2.80861,0.382034,0.486026,0.0,2,0,0,0
73376000,47.3961238354,8.54534049082,498.097,6.19037,-0.0,-0.0133431,-0.0283978,0.00765563,2.80863,0.382032,0.485739,0.0,2,0,0,0
73576000,47.3961237669,8.54534051175,498.1,6.17242,-0.0,-0.0025372,-0.0284687,0.0092774,2.80838,0.382031,0.486127,0.0,2,0,0,0
73776000,47.396123723,8.54534052252,498.102,6.15494,-0.0,0.00435277,-0.0296243,0.0111577,2.80842,0.382031,0.485836,0.0,2,0,0,0
73984000,47.3961236817,8.54534051585,498.106,6.13837,-0.0,0.00881154,-0.0334743,0.0140834,2.8084,0.382392,0.485826,0.0,2,0,0,0
74184000,47.3961236465,8.54534047174,498.109,6.12177,-0.0,0.0153598,-0.0332518,0.0169313,2.80837,0.382393,0.48622,0.0,2,0,0,0
74384000,47.396123621,8.54534041683,498.109,6.10214,-0.0,0.0188453,-0.0332538,0.0204561,2.80758,0.382394,0.485931,0.0,2,0,0,0
74576000,47.3961236017,8.54534034838,498.107,6.07977,-0.0,0.0198167,-0.0308527,0.0183551,2.80785,0.382033,0.48605,0.0,2,0,0,0
74776000,47.3961235844,8.5453402809,498.106,6.05844,-0.0,0.0198534,-0.0268359,0.016012,2.80819,0.382033,0.485767,0.0,2,0,0,0
74976000,47.3961235701,8.54534022452,498.104,6.03625,-0.0,0.0210156,-0.0227423,0.0140029,2.80772,0.382033,0.486158,0.0,2,0,0,0
75176000,47.396123562,8.54534016728,498.101,6.01416,-0.0,0.0228015,-0.021521,0.0110597,2.80822,0.382032,0.485867,0.0,2,0,0,0
75384000,47.3961235554,8.54534010702,498.1,5.99268,-0.0,0.0232748,-0.0196157,0.0121303,2.80781,0.382391,0.485859,0.0,2,0,0,0
75576000,47.3961235594,8.54534004968,498.095,5.9678,-0.0,0.0245162,-0.016876,0.00783953,2.80759,0.382027,0.485978,0.0,2,0,0,0
75776000,47.3961235789,8.5453400008,498.093,5.94595,-0.0,0.0247915,-0.00986592,0.0038732,2.80761,0.382023,0.48569,0.0,2,0,0,0
75984000,47.3961235834,8.54533994872,498.095,5.92749,-0.0,0.0217295,-0.00865197,0.00374747,2.80719,0.382379,0.486355,0.0,2,0,0,0
76176000,47.3961235734,8.54533988613,498.096,5.90854,-0.0,0.019055,-0.00956661,0.0055606,2.80735,0.382013,0.485795,0.0,2,0,0,0
76376000,47.3961235532,8.54533980601,498.096,5.88849,-0.0,0.0179715,-0.0058365,0.00504981,2.80765,0.382005,0.486184,0.0,2,0,0,0
76576000,47.3961235351,8.54533973739,498.097,5.86917,-0.0,0.0200208,0.000107492,0.00661896,2.8077,0.381995,0.485892,0.0,2,0,0,0
76776000,47.3961235337,8.54533969667,498.097,5.84937,-0.0,0.0230176,0.00558485,0.00651376,2.80774,0.381985,0.486287,0.0,2,0,0,0
76976000,47.3961235348,8.54533966236,498.095,5.82785,-0.0,0.0253689,0.0106829,0.0042883,2.80737,0.381973,0.485997,0.0,2,0,0,0
77176000,47.3961235339,8.54533963996,498.093,5.80524,-0.0,0.0245836,0.0129964,0.00501174,2.80721,0.381961,0.485706,0.0,2,0,0,0
77376000,47.3961235307,8.54533964221,498.09,5.78287,-0.0,0.0236641,0.0170708,0.00166224,2.80714,0.381949,0.486095,0.0,2,0,0,0
77576000,47.3961235263,8.54533962982,498.088,5.76093,-0.0,0.0235564,0.0174509,-0.000643215,2.80683,0.381935,0.485807,0.0,2,0,0,0
77776000,47.3961235296,8.5453396057,498.089,5.74191,-0.0,0.0226989,0.0134823,-0.00275271,2.8173,0.381922,0.486195,0.0,2,0,0,0
77976000,47.3961235379,8.54533954848,498.09,5.72241,-0.0,0.0138891,-0.0244572,-0.00088696,2.94131,0.381909,0.4859,0.0,2,0,0,0
78176000,47.3961235365,8.54533944416,498.09,5.70288,-0.0,0.0171434,0.000670542,0.000103519,3.06681,0.381895,0.486294,0.0,2,0,0,0
78376000,47.396123549,8.54533952149,498.09,5.6825,-0.0,0.0240106,0.0693589,-9.46787e-06,3.08163,0.381882,0.486003,0.0,2,0,0,0
78576000,47.3961235801,8.5453396845,498.087,5.65948,-0.0,0.027803,0.0748862,-0.00209124,3.03518,0.381868,0.485711,0.0,2,0,0,0
78776000,47.3961236089,8.54533977895,498.085,5.63724,-0.0,0.0233616,0.0456619,-0.0050612,2.97329,0.381856,0.486099,0.0,2,0,0,0
78984000,47.3961236251,8.54533977395,498.085,5.61703,-0.0,0.0179711,0.0124005,-0.00542289,2.92151,0.382202,0.486084,0.0,2,0,0,0
79176000,47.3961236294,8.54533972031,498.084,5.59647,-0.0,0.0140421,-0.000312902,-0.00547556,2.89602,0.381835,0.486197,0.0,2,0,0,0
79376000,47.396123646,8.54533965914,498.084,5.57611,-0.0,0.0136354,-0.00189816,-0.0072643,2.88919,0.381825,0.485901,0.0,2,0,0,0
79576000,47.3961236693,8.54533961639,498.084,5.55658,-0.0,0.0115672,0.00626945,-0.00702187,2.89456,0.381815,0.486294,0.0,2,0,0,0
79776000,47.3961236932,8.54533958046,498.087,5.53973,-0.0,0.0106645,0.011521,-0.00593819,2.90465,0.381806,0.486003,0.0,2,0,0,0
79976000,47.3961237124,8.5453395558,498.09,5.52182,-0.0,0.00949369,0.0182331,-0.00111965,2.91413,0.381795,0.48571,0.0,2,0,0,0
80176000,47.3961237315,8.54533954562,498.091,5.5036,-0.0,0.00817974,0.0237775,-0.000599719,2.92034,0.381784,0.486097,0.0,2,0,0,0
80376000,47.3961237533,8.54533955251,498.094,5.48657,-0.0,0.00704811,0.0286309,0.00208191,2.92234,0.381773,0.485808,0.0,2,0,0,0
80584000,47.396123774,8.54533955314,498.096,5.46793,-0.0,0.0032023,0.0249564,0.00422881,2.92173,0.382116,0.48579,0.0,2,0,0,0
80776000,47.3961238002,8.54533953393,498.096,5.44843,-0.0,0.00175321,0.0252789,0.00525412,2.92024,0.38175,0.485899,0.0,2,0,0,0
80976000,47.3961239099,8.54533946245,498.098,5.43057,-0.0,0.161772,-0.0223292,-0.0268117,2.91918,0.381738,0.486292,0.0,2,0,0,0
81176000,47.3961246896,8.54533908306,498.104,5.41638,-0.0,0.766885,-0.207153,-0.021378,2.92049,0.381728,0.486,0.0,2,0,0,0
81376000,47.3961267436,8.54533809102,498.104,5.39633,-0.0,1.63111,-0.496131,0.01052,2.9197,0.381723,0.485703,0.0,2,0,0,0
81576000,47.396130271,8.5453363426,498.101,5.37329,-0.0,2.55315,-0.820515,0.0143526,2.91769,0.381728,0.486076,0.0,2,0,0,0
81784000,47.3961354354,8.54533371222,498.098,5.35001,-0.0,3.50838,-1.16476,0.00909312,2.91738,0.382133,0.486035,0.0,2,0,0,0
81976000,47.3961416229,8.54533048103,498.097,5.32904,-0.0,4.40136,-1.49168,0.00642274,2.91703,0.381887,0.486118,0.0,2,0,0,0
82176000,47.3961496241,8.54532621718,498.094,5.3063,-0.0,5.33766,-1.83458,0.00624604,2.91683,0.382096,0.485789,0.0,2,0,0,0
82384000,47.3961597117,8.54532078304,498.092,5.28452,-0.0,6.30578,-2.1914,0.00409394,2.9163,0.382794,0.485736,0.0,2,0,0,0
82576000,47.3961706793,8.54531482685,498.092,5.26447,-0.0,7.19983,-2.52181,0.00243365,2.91606,0.382783,0.485819,0.0,2,0,0,0
82776000,47.3961838362,8.54530762754,498.093,5.24457,-0.0,8.1314,-2.85993,0.00866704,2.91552,0.383211,0.485498,0.0,2,0,0,0
82984000,47.3961992678,8.5452991313,498.084,5.21643,-0.0,8.9065,-3.14406,0.0519093,2.90824,0.384078,0.486128,0.0,2,0,0,0
83176000,47.3962143071,8.54529081504,498.077,5.189,-0.0,9.23933,-3.26388,0.00886635,2.90765,0.384055,0.485553,0.0,2,0,0,0
83376000,47.3962303903,8.54528191646,498.076,5.16797,-0.0,9.34472,-3.30783,-0.00887594,2.9112,0.384366,0.485929,0.0,2,0,0,0
83584000,47.396247546,8.54527245434,498.076,5.14767,-0.0,9.39782,-3.3211,-0.0113999,2.91446,0.384946,0.485908,0.0,2,0,0,0
83776000,47.3962637885,8.54526356479,498.074,5.1257,-0.0,9.43709,-3.32788,-0.0125259,2.91618,0.384528,0.486031,0.0,2,0,0,0
83976000,47.3962810915,8.54525417426,498.069,5.10126,-0.0,9.47366,-3.32508,-0.0149923,2.91771,0.384395,0.485748,0.0,2,0,0,0
84176000,47.3962986965,8.54524469869,498.064,5.07541,-0.0,9.49316,-3.32528,-0.0216293,2.9179,0.384158,0.485462,0.0,2,0,0,0
84376000,47.396316186,8.54523525635,498.058,5.04965,-0.0,9.39457,-3.39309,-0.0406523,2.91038,0.383846,0.485848,0.0,2,0,0,0
84576000,47.3963331514,8.5452256403,498.057,5.02853,-0.0,8.87834,-3.45727,-0.063608,2.89471,0.383486,0.485561,0.0,2,0,0,0
84776000,47.3963490687,8.54521612286,498.059,5.01068,-0.0,8.0673,-3.3462,-0.0502264,2.9009,0.383075,0.485936,0.0,2,0,0,0
84976000,47.3963637328,8.54520703037,498.059,4.99088,-0.0,7.1668,-3.13533,-0.040782,2.91283,0.382607,0.485617,0.0,2,0,0,0
85176000,47.3963770694,8.54519845788,498.058,4.97021,-0.0,6.25361,-2.88906,-0.0369812,2.92164,0.382142,0.485958,0.0,2,0,0,0
85376000,47.39638903,8.5451904387,498.058,4.94955,-0.0,5.41619,-2.656,-0.0209286,2.92366,0.381773,0.485604,0.0,2,0,0,0
85576000,47.3963997183,8.54518295669,498.06,4.9313,-0.0,4.72666,-2.457,-0.0316262,2.92261,0.381581,0.485239,0.0,2,0,0,0
85776000,47.3964091351,8.54517609422,498.064,4.91544,-0.0,4.11496,-2.26603,-0.0328594,2.92121,0.381601,0.485543,0.0,2,0,0,0
85976000,47.396417353,8.5451698184,498.065,4.89691,-0.0,3.51906,-2.07395,-0.0304448,2.91883,0.381812,0.485193,0.0,2,0,0,0
86176000,47.3964244127,8.54516410894,498.067,4.87851,-0.0,2.93075,-1.88557,-0.0293651,2.91686,0.382156,0.485515,0.0,2,0,0,0
86376000,47.3964303305,8.54515895255,498.068,4.85986,-0.0,2.34222,-1.69275,-0.0270671,2.91623,0.382574,0.485184,0.0,2,0,0,0
86584000,47.3964352712,8.54515419442,498.072,4.84406,-0.0,1.72822,-1.4937,-0.0251835,2.91581,0.383425,0.485141,0.0,2,0,0,0
86776000,47.3964387001,8.54515036395,498.077,4.82816,-0.0,1.15367,-1.30706,-0.0246256,2.91604,0.383426,0.48524,0.0,2,0,0,0
86976000,47.3964410283,8.54514703045,498.081,4.81305,-0.0,0.45165,-1.0777,-0.0384628,2.91821,0.383794,0.484954,0.0,2,0,0,0
87176000,47.3964418378,8.54514446664,498.083,4.79471,-0.0,-0.414523,-0.796827,-0.021867,2.91883,0.384104,0.48534,0.0,2,0,0,0
87376000,47.3964409457,8.54514272361,498.082,4.77307,-0.0,-1.36459,-0.488412,-0.00975988,2.91777,0.384364,0.485077,0.0,2,0,0,0
87576000,47.3964382886,8.54514182057,498.078,4.74933,-0.0,-2.33018,-0.172622,-0.0104799,2.91662,0.384583,0.485477,0.0,2,0,0,0
87776000,47.3964338353,8.54514176263,498.073,4.72403,-0.0,-3.29055,0.144093,-0.0175642,2.91597,0.384763,0.485221,0.0,2,0,0,0
87976000,47.396427543,8.54514258436,498.065,4.69693,-0.0,-4.25478,0.457865,-0.022979,2.91617,0.3849,0.485644,0.0,2,0,0,0
88176000,47.3964193848,8.54514425697,498.059,4.67017,-0.0,-5.2187,0.770861,-0.0286102,2.91689,0.384994,0.485406,0.0,2,0,0,0
88376000,47.3964095734,8.54514675213,498.051,4.64285,-0.0,-6.16616,1.08049,-0.0378668,2.91707,0.385047,0.485174,0.0,2,0,0,0
88576000,47.3963980605,8.54515005159,498.044,4.61578,-0.0,-7.10428,1.38582,-0.045635,2.91726,0.38506,0.485614,0.0,2,0,0,0
88776000,47.3963847461,8.54515419945,498.038,4.58951,-0.0,-8.04612,1.69152,-0.0513858,2.91742,0.385036,0.485395,0.0,2,0,0,0
88976000,47.3963696131,8.5451591989,498.029,4.56006,-0.0,-8.92887,1.97105,-0.0109168,2.91596,0.384979,0.485844,0.0,2,0,0,0
89176000,47.3963529575,8.54516484965,498.011,4.52243,-0.0,-9.48565,2.13527,-0.0348536,2.91307,0.384892,0.485621,0.0,2,0,0,0
89376000,47.3963353947,8.54517088384,497.999,4.4903,-0.0,-9.68771,2.19918,-0.0746143,2.91435,0.38476,0.486077,0.0,2,0,0,0
89576000,47.3963174653,8.54517708944,497.988,4.45981,-0.0,-9.75665,2.22606,-0.0911602,2.91647,0.384557,0.485849,0.0,2,0,0,0
89776000,47.3962994543,8.54518337107,497.98,4.431,-0.0,-9.77571,2.23844,-0.102384,2.91792,0.384276,0.485605,0.0,2,0,0,0
89976000,47.3962812353,8.54518975675,497.972,4.40341,-0.0,-9.79411,2.24168,-0.110949,2.91857,0.383937,0.486023,0.0,2,0,0,0
90176000,47.396262765,8.54519622822,497.965,4.37674,-0.0,-9.82046,2.23801,-0.119979,2.91845,0.383564,0.485754,0.0,2,0,0,0
90376000,47.3962440449,8.54520274186,497.961,4.35233,-0.0,-9.84391,2.23052,-0.125762,2.91847,0.383182,0.486146,0.0,2,0,0,0
90576000,47.3962251115,8.54520930106,497.958,4.32904,-0.0,-9.85716,2.23455,-0.131198,2.91843,0.382814,0.485847,0.0,2,0,0,0
90776000,47.3962060458,8.54521589666,497.957,4.30856,-0.0,-9.86425,2.23888,-0.13188,2.91768,0.382476,0.486227,0.0,2,0,0,0
90976000,47.396187202,8.54522239866,497.959,4.29047,-0.0,-9.86248,2.23327,-0.132473,2.91759,0.382182,0.485919,0.0,2,0,0,0
91176000,47.3961684842,8.54522882485,497.965,4.27567,-0.0,-9.8549,2.22783,-0.130659,2.91755,0.381941,0.485606,0.0,2,0,0,0
91376000,47.3961497892,8.54523521848,497.969,4.26035,-0.0,-9.8521,2.22547,-0.125855,2.91782,0.38176,0.48597,0.0,2,0,0,0
91576000,47.3961310456,8.54524160428,497.977,4.24805,-0.0,-9.85766,2.22655,-0.118966,2.91802,0.381639,0.485661,0.0,2,0,0,0
91784000,47.3961114826,8.54524822412,497.988,4.23886,-0.0,-9.86514,2.22299,-0.110561,2.91769,0.381927,0.485622,0.0,2,0,0,0
91976000,47.3960934225,8.5452543027,497.994,4.22528,-0.0,-9.86502,2.21969,-0.102623,2.91789,0.381567,0.485715,0.0,2,0,0,0
92176000,47.3960749125,8.5452605125,498.001,4.21219,-0.0,-9.85014,2.2164,-0.0952648,2.91776,0.3816,0.486092,0.0,2,0,0,0
92376000,47.3960565878,8.54526660996,498.008,4.19934,-0.0,-9.8415,2.2122,-0.0882586,2.91769,0.381667,0.485793,0.0,2,0,0,0
92584000,47.3960375696,8.54527283921,498.016,4.18689,-0.0,-9.85269,2.11878,-0.106283,2.91849,0.382122,0.485767,0.0,2,0,0,0
92776000,47.3960199576,8.5452778509,498.028,4.17856,-0.0,-9.88656,1.60877,-0.106552,2.93021,0.381867,0.485879,0.0,2,0,0,0
92976000,47.3960015956,8.54528133186,498.031,4.16165,-0.0,-9.81615,0.770423,-0.0660117,2.95459,0.381985,0.485591,0.0,2,0,0,0
93184000,47.3959828053,8.54528273691,498.03,4.14093,-0.0,-9.51161,-0.135204,-0.0629617,2.96986,0.38248,0.485563,0.0,2,0,0,0
93376000,47.3959661212,8.54528208023,498.03,4.12082,-0.0,-9.04846,-0.915694,-0.0671405,2.95625,0.382247,0.485653,0.0,2,0,0,0
93576000,47.395949861,8.54527949002,498.03,4.10107,-0.0,-8.47666,-1.71611,-0.0640084,2.93226,0.382412,0.486013,0.0,2,0,0,0
93776000,47.395934706,8.54527483474,498.027,4.07825,-0.0,-7.88665,-2.52496,-0.0613268,2.91369,0.382604,0.485688,0.0,2,0,0,0
93984000,47.3959200184,8.54526767102,498.026,4.05652,-0.0,-7.27057,-3.36374,-0.0644133,2.90747,0.38321,0.485626,0.0,2,0,0,0
94176000,47.3959074326,8.54525887854,498.023,4.03412,-0.0,-6.68907,-4.14157,-0.0664076,2.90955,0.38304,0.485703,0.0,2,0,0,0
94384000,47.3958948734,8.54524695885,498.022,4.01282,-0.0,-6.04918,-4.98241,-0.0668041,2.91326,0.383667,0.485651,0.0,2,0,0,0
94576000,47.3958843398,8.54523374311,498.021,3.99185,-0.0,-5.45139,-5.75009,-0.0685643,2.9168,0.383478,0.485737,0.0,2,0,0,0
94784000,47.3958742528,8.54521738811,498.016,3.96671,-0.0,-4.7932,-6.56379,-0.0711923,2.91888,0.384083,0.485696,0.0,2,0,0,0
94976000,47.3958661013,8.54520028466,498.013,3.944,-0.0,-4.1971,-7.32179,-0.0767446,2.92095,0.383844,0.485805,0.0,2,0,0,0
95176000,47.3958587258,8.54518024548,498.007,3.91797,-0.0,-3.58689,-8.12677,-0.0752008,2.92332,0.383984,0.485521,0.0,2,0,0,0
95384000,47.3958522555,8.54515692341,497.998,3.88846,-0.0,-2.96982,-8.9345,-0.050926,2.91043,0.384505,0.485514,0.0,2,0,0,0
95584000,47.3958470094,8.54513238239,497.982,3.85269,-0.0,-2.57353,-9.4774,-0.060025,2.87345,0.384579,0.485918,0.0,2,0,0,0
95776000,47.3958425127,8.54510761093,497.974,3.82437,-0.0,-2.40351,-9.66537,-0.100383,2.87876,0.384198,0.485393,0.0,2,0,0,0
95976000,47.3958381719,8.54508114415,497.967,3.79733,-0.0,-2.33452,-9.72138,-0.116465,2.90035,0.384162,0.485812,0.0,2,0,0,0
96180000,47.3958341479,8.54505465101,497.962,3.77298,-0.0,-2.29558,-9.73183,-0.124355,2.91812,0.384044,0.485559,0.0,2,0,0,0
96380000,47.3958303917,8.54502804167,497.958,3.74854,-0.0,-2.26821,-9.73593,-0.128708,2.92671,0.383884,0.48532,0.0,2,0,0,0
96580000,47.3958267993,8.54500113585,497.954,3.72507,-0.0,-2.26496,-9.76087,-0.131977,2.92812,0.383665,0.48574,0.0,2,0,0,0
96780000,47.3958233165,8.54497394116,497.95,3.70013,-0.0,-2.2639,-9.78017,-0.136568,2.92513,0.38341,0.485488,0.0,2,0,0,0
96980000,47.3958199287,8.54494649932,497.948,3.67828,-0.0,-2.24867,-9.77418,-0.143192,2.92051,0.383136,0.485895,0.0,2,0,0,0
97180000,47.3958165761,8.54491892018,497.949,3.65927,-0.0,-2.28807,-9.75144,-0.144763,2.9128,0.382862,0.485621,0.0,2,0,0,0
97380000,47.3958131437,8.54489151057,497.951,3.64111,-0.0,-2.3653,-9.73733,-0.140086,2.91468,0.382598,0.486017,0.0,2,0,0,0
97580000,47.3958096919,8.54486449779,497.952,3.6225,-0.0,-2.39334,-9.71916,-0.140454,2.91669,0.382355,0.485733,0.0,2,0,0,0
97780000,47.3958062363,8.54483764516,497.957,3.60751,-0.0,-2.39379,-9.69229,-0.13911,2.91724,0.382144,0.485443,0.0,2,0,0,0
97980000,47.3958027676,8.54481083505,497.965,3.595,-0.0,-2.3909,-9.67921,-0.131561,2.91722,0.381974,0.485822,0.0,2,0,0,0
98180000,47.3957992649,8.5447839843,497.972,3.58221,-0.0,-2.36204,-9.66385,-0.119581,2.92142,0.381846,0.485535,0.0,2,0,0,0
98380000,47.3957958828,8.54475734645,497.983,3.57306,-0.0,-2.17378,-9.4466,-0.122704,2.92046,0.38176,0.485917,0.0,2,0,0,0
98580000,47.395792875,8.54473153534,497.996,3.56628,-0.0,-1.86573,-9.04097,-0.11986,2.9149,0.381714,0.485626,0.0,2,0,0,0
98780000,47.3957904697,8.5447073457,498.01,3.56067,-0.0,-1.43273,-8.44938,-0.100938,2.90857,0.381706,0.486012,0.0,2,0,0,0
98980000,47.3957887774,8.5446849276,498.019,3.54987,-0.0,-0.977572,-7.80252,-0.0730245,2.91664,0.381735,0.48572,0.0,2,0,0,0
99180000,47.3957877372,8.54466408076,498.03,3.54013,-0.0,-0.537442,-7.16184,-0.0854713,2.91586,0.381795,0.485422,0.0,2,0,0,0
99380000,47.3957874277,8.54464496957,498.038,3.52823,-0.0,-0.0421215,-6.42149,-0.0687533,2.91289,0.38189,0.48579,0.0,2,0,0,0
99580000,47.3957879695,8.54462784064,498.042,3.51251,-0.0,0.488349,-5.61157,-0.0552813,2.91656,0.382015,0.48549,0.0,2,0,0,0
99780000,47.3957893954,8.54461281631,498.046,3.49628,-0.0,1.02435,-4.78033,-0.052537,2.91835,0.382168,0.485854,0.0,2,0,0,0
99980000,47.3957917048,8.54460008378,498.051,3.48083,-0.0,1.56211,-3.93318,-0.0458898,2.91925,0.382344,0.485543,0.0,2,0,0,0
100180000,47.3957948807,8.5445897885,498.054,3.46451,-0.0,2.09981,-3.07755,-0.0402757,2.91848,0.382537,0.485911,0.0,2,0,0,0
100380000,47.3957989989,8.54458185224,498.056,3.44666,-0.0,2.64219,-2.21829,-0.0367655,2.91837,0.382739,0.48561,0.0,2,0,0,0
100580000,47.3958041018,8.54457628389,498.055,3.42535,-0.0,3.19103,-1.34999,-0.0342061,2.91821,0.38294,0.485315,0.0,2,0,0,0
100780000,47.3958102159,8.54457313527,498.053,3.40359,-0.0,3.73707,-0.479002,-0.0357009,2.91801,0.383134,0.485695,0.0,2,0,0,0
100980000,47.3958173553,8.54457244366,498.048,3.37814,-0.0,4.27873,0.391549,-0.0370015,2.91716,0.383312,0.48542,0.0,2,0,0,0
101180000,47.3958255093,8.54457421576,498.043,3.35342,-0.0,4.8162,1.262,-0.0436183,2.91638,0.383471,0.48582,0.0,2,0,0,0
101380000,47.3958344976,8.54457832153,498.038,3.32843,-0.0,5.33892,2.11564,-0.0517315,2.91482,0.383605,0.485557,0.0,2,0,0,0
101580000,47.395844375,8.54458477638,498.033,3.30331,-0.0,5.85499,2.96555,-0.0566801,2.91282,0.383711,0.485978,0.0,2,0,0,0
101780000,47.3958552299,8.5445936324,498.028,3.2778,-0.0,6.37717,3.81452,-0.058848,2.9131,0.383788,0.485733,0.0,2,0,0,0
101980000,47.3958671133,8.54460490978,498.02,3.2496,-0.0,6.89719,4.65564,-0.0664439,2.9138,0.383836,0.48549,0.0,2,0,0,0
102180000,47.3958800223,8.54461860759,498.007,3.21683,-0.0,7.38133,5.44305,-0.0298294,2.92547,0.383857,0.485922,0.0,2,0,0,0
102380000,47.3958937705,8.54463431757,497.987,3.17688,-0.0,7.68953,5.9502,-0.0549852,2.94405,0.383849,0.485688,0.0,2,0,0,0
102580000,47.395907845,8.54465096289,497.975,3.14474,-0.0,7.79228,6.11857,-0.101428,2.93672,0.383801,0.486124,0.0,2,0,0,0
102780000,47.3959219148,8.54466788544,497.966,3.11621,-0.0,7.81031,6.1565,-0.1172,2.92389,0.383694,0.485875,0.0,2,0,0,0
102980000,47.3959361029,8.54468519792,497.959,3.08865,-0.0,7.82767,6.18864,-0.126454,2.91511,0.383523,0.486298,0.0,2,0,0,0
103180000,47.39595047,8.54470296572,497.953,3.06342,-0.0,7.85516,6.23092,-0.132184,2.91202,0.383301,0.486026,0.0,2,0,0,0
103380000,47.395965019,8.54472112233,497.95,3.03986,-0.0,7.87947,6.26449,-0.137128,2.91232,0.383051,0.485741,0.0,2,0,0,0
103580000,47.3959797061,8.54473957016,497.948,3.01813,-0.0,7.88383,6.2714,-0.141825,2.91368,0.382792,0.486123,0.0,2,0,0,0
103780000,47.3959944621,8.54475817434,497.949,2.99854,-0.0,7.88579,6.27256,-0.141355,2.91562,0.38254,0.485823,0.0,2,0,0,0
103980000,47.3960089959,8.54477655195,497.952,2.98187,-0.0,7.86839,6.26155,-0.14197,2.91728,0.382309,0.486192,0.0,2,0,0,0
104180000,47.3960234178,8.54479481341,497.955,2.96463,-0.0,7.86205,6.25609,-0.137885,2.91803,0.38211,0.485875,0.0,2,0,0,0
104380000,47.3960378222,8.54481306303,497.961,2.95078,-0.0,7.85698,6.2516,-0.135421,2.91852,0.381953,0.48624,0.0,2,0,0,0
104580000,47.3960522416,8.54483132193,497.97,2.93997,-0.0,7.84999,6.24366,-0.12893,2.91789,0.38184,0.485926,0.0,2,0,0,0
104780000,47.3960666924,8.54484959208,497.978,2.92783,-0.0,7.84394,6.23517,-0.120126,2.91718,0.381773,0.485612,0.0,2,0,0,0
104980000,47.3960811836,8.54486785764,497.988,2.91769,-0.0,7.84149,6.2284,-0.111456,2.91688,0.381749,0.485975,0.0,2,0,0,0
105180000,47.3960955668,8.5448859212,497.998,2.90753,-0.0,7.83984,6.2258,-0.101869,2.91674,0.381763,0.485673,0.0,2,0,0,0
105380000,47.396109752,8.54490367339,498.009,2.89841,-0.0,7.84186,6.22719,-0.0912572,2.91731,0.381808,0.486046,0.0,2,0,0,0
105580000,47.3961238517,8.54492124939,498.019,2.88849,-0.0,7.82368,6.20607,-0.0810883,2.91687,0.381876,0.485746,0.0,2,0,0,0
105780000,47.396137926,8.54493870513,498.026,2.87527,-0.0,7.81108,6.20183,-0.0748186,2.91905,0.381959,0.486131,0.0,2,0,0,0
105980000,47.396151953,8.54495628712,498.035,2.86423,-0.0,7.67419,6.32812,-0.0613803,2.93304,0.382051,0.485844,0.0,2,0,0,0
106180000,47.3961656108,8.54497400479,498.044,2.85345,-0.0,7.36901,6.26411,-0.0608523,2.9259,0.382145,0.485559,0.0,2,0,0,0
106380000,47.3961787882,8.54499105224,498.053,2.84225,-0.0,7.0689,5.90957,-0.0515117,2.92045,0.382236,0.485949,0.0,2,0,0,0
106580000,47.3961912988,8.54500674433,498.061,2.83063,-0.0,6.77317,5.43821,-0.0390937,2.91588,0.382331,0.485668,0.0,2,0,0,0
106780000,47.3962032141,8.54502113249,498.067,2.81689,-0.0,6.47766,4.95025,-0.0317763,2.91371,0.382436,0.486053,0.0,2,0,0,0
106980000,47.3962146237,8.54503427789,498.07,2.79974,-0.0,6.19247,4.46013,-0.0253941,2.91296,0.38255,0.485755,0.0,2,0,0,0
107180000,47.3962255561,8.54504618672,498.071,2.78052,-0.0,5.90428,3.96119,-0.0234832,2.91359,0.382668,0.486135,0.0,2,0,0,0
107380000,47.39623601,8.54505678888,498.07,2.75928,-0.0,5.61482,3.45608,-0.024085,2.91416,0.382786,0.485836,0.0,2,0,0,0
107580000,47.3962459561,8.54506598017,498.07,2.73999,-0.0,5.2977,2.89449,-0.0474209,2.90978,0.382899,0.485535,0.0,2,0,0,0
107780000,47.3962551861,8.54507336611,498.07,2.71948,-0.0,4.87646,2.16334,-0.0363379,2.90548,0.383007,0.485904,0.0,2,0,0,0
107980000,47.3962634792,8.54507854206,498.065,2.69479,-0.0,4.38589,1.32301,-0.0227779,2.90993,0.383114,0.485603,0.0,2,0,0,0
108180000,47.3962708889,8.54508147072,498.06,2.66968,-0.0,3.88215,0.467278,-0.0297837,2.91614,0.383224,0.485966,0.0,2,0,0,0
108380000,47.3962774227,8.54508212053,498.055,2.64478,-0.0,3.36994,-0.399435,-0.0347445,2.91884,0.383339,0.485651,0.0,2,0,0,0
108580000,47.3962830764,8.54508039766,498.051,2.62064,-0.0,2.85216,-1.2833,-0.0376934,2.91936,0.383453,0.486014,0.0,2,0,0,0
108780000,47.3962878245,8.54507625134,498.046,2.59506,-0.0,2.33002,-2.15965,-0.0405801,2.91939,0.383563,0.485707,0.0,2,0,0,0
108980000,47.3962916059,8.54506977401,498.038,2.56726,-0.0,1.80713,-3.03158,-0.0486637,2.91912,0.383663,0.485404,0.0,2,0,0,0
109180000,47.3962944055,8.54506104767,498.03,2.53918,-0.0,1.2866,-3.89161,-0.0578971,2.91868,0.38375,0.485777,0.0,2,0,0,0
109380000,47.3962962663,8.54504995231,498.023,2.5127,-0.0,0.769682,-4.75356,-0.0652,2.91729,0.383819,0.485493,0.0,2,0,0,0
109580000,47.3962971793,8.54503640192,498.012,2.48169,-0.0,0.276861,-5.57633,-0.0218476,2.93597,0.383871,0.485885,0.0,2,0,0,0
109784000,47.3962974917,8.5450213167,498.002,2.45093,-0.0,0.194107,-5.59175,-0.127913,2.94821,0.383902,0.48561,0.0,2,0,0,0
109984000,47.3962977989,8.54500688363,497.997,2.4259,-0.0,0.2969,-4.95432,-0.0847592,2.94405,0.383913,0.4853,0.0,2,0,0,0
110176000,47.3962980363,8.54499403086,497.984,2.39374,-0.0,0.304471,-4.35657,-0.0921978,2.93474,0.383431,0.485276,0.0,2,0,0,0
110376000,47.3962981183,8.54498168129,497.975,2.36383,-0.0,0.260257,-3.79683,-0.11348,2.92256,0.38324,0.485407,0.0,2,0,0,0
110576000,47.3962980392,8.54497060703,497.968,2.33716,-0.0,0.204678,-3.22871,-0.121324,2.91449,0.383014,0.484788,0.0,2,0,0,0
110776000,47.3962978407,8.54496089078,497.961,2.30984,-0.0,0.152934,-2.63654,-0.126522,2.91173,0.3828,0.484113,0.0,2,0,0,0
110976000,47.3962975306,8.54495263306,497.955,2.284,-0.0,0.103877,-2.02979,-0.13428,2.91234,0.382634,0.484037,0.0,2,0,0,0
111176000,47.3962971248,8.54494592259,497.951,2.26013,-0.0,0.0530899,-1.42032,-0.138215,2.91511,0.382543,0.483318,0.0,2,0,0,0
111376000,47.3962966336,8.54494083971,497.95,2.23886,-0.0,0.00010841,-0.820382,-0.132523,2.91559,0.382544,0.483221,0.0,2,0,0,0
111584000,47.396296059,8.54493720121,497.949,2.21866,-0.0,-0.0353242,-0.338614,-0.127414,2.90984,0.383019,0.482753,0.0,2,0,0,0
111784000,47.3962955139,8.54493484937,497.954,2.20319,-0.0,-0.0257963,-0.0559791,-0.136005,2.91067,0.383204,0.482126,0.0,2,0,0,0
111976000,47.3962950567,8.54493346972,497.958,2.18741,-0.0,0.0102404,0.149228,-0.131314,2.91526,0.383055,0.481933,0.0,2,0,0,0
112176000,47.3962946758,8.54493286166,497.962,2.17151,-0.0,0.0576326,0.309058,-0.127074,2.9198,0.383333,0.48143,0.0,2,0,0,0
112376000,47.3962944053,8.54493295781,497.968,2.15665,-0.0,0.101111,0.408262,-0.124218,2.92213,0.383619,0.481574,0.0,2,0,0,0
112576000,47.3962942476,8.54493358948,497.974,2.14258,-0.0,0.136103,0.456055,-0.116965,2.92253,0.38389,0.481215,0.0,2,0,0,0
112776000,47.3962941997,8.54493463744,497.976,2.12521,-0.0,0.163543,0.46545,-0.112079,2.921,0.384128,0.481494,0.0,2,0,0,0
112976000,47.3962942479,8.54493593185,497.98,2.10864,-0.0,0.179641,0.441024,-0.109358,2.91944,0.384321,0.481265,0.0,2,0,0,0
113176000,47.3962943728,8.54493734324,497.984,2.09277,-0.0,0.188289,0.385748,-0.106743,2.91855,0.384462,0.481675,0.0,2,0,0,0
113376000,47.3962945758,8.54493881579,497.985,2.07394,-0.0,0.190818,0.316627,-0.103099,2.91796,0.384551,0.481563,0.0,2,0,0,0
113576000,47.3962948417,8.54494029569,497.988,2.05658,-0.0,0.182842,0.240793,-0.102346,2.91782,0.384587,0.481495,0.0,2,0,0,0
113776000,47.3962951538,8.54494172937,497.992,2.04132,-0.0,0.168172,0.159308,-0.0982019,2.91788,0.384576,0.482048,0.0,2,0,0,0
