timestamp,ref_timestamp,ref_lat,ref_lon,x,y,z,delta_xy[0],delta_xy[1],delta_z,vx,vy,vz,z_deriv,delta_vxy[0],delta_vxy[1],delta_vz,ax,ay,az,yaw,ref_alt,dist_bottom,dist_bottom_rate,eph,epv,evh,evv,vxy_max,vz_max,hagl_min,hagl_max,xy_valid,z_valid,v_xy_valid,v_z_valid,xy_reset_counter,z_reset_counter,vxy_reset_counter,vz_reset_counter,xy_global,z_global,dist_bottom_valid
1964000,0,0.0,0.0,-8.41847e-05,-9.50342e-05,0.00714443,-7.21641e-07,-3.36885e-09,0.0,-0.00108278,-0.00173003,-0.000697944,0.00623325,-0.00018041,-8.42212e-07,0.0,-0.0113187,0.00112079,0.00651761,-0.0387396,0.0,0.1,0.000697944,0.447365,1.00059,6.22983,0.750079,inf,inf,inf,inf,1,1,1,1,1,0,1,1,0,0,0
2068000,0,0.0,0.0,-0.000336619,-0.000203606,0.0102756,-7.21641e-07,-3.36885e-09,0.0,-0.00377307,-0.000789847,0.00200149,0.0116662,-0.00018041,-8.42212e-07,0.0,0.0151346,0.0359995,0.0335071,-0.0390273,0.0,0.116745,-0.00200149,0.400146,0.670319,3.49735,0.749403,inf,inf,inf,inf,1,1,1,1,1,0,1,1,0,0,0
2164000,0,0.0,0.0,-0.000662325,-0.0003219,0.0139113,-7.21641e-07,-3.36885e-09,0.0,-0.00320524,-0.0021096,0.00220233,0.0144936,-0.00018041,-8.42212e-07,0.0,-0.0719744,-0.0441035,0.00376402,-0.0384289,0.0,0.100687,-0.00220233,0.362101,0.56474,2.15083,0.747142,inf,inf,inf,inf,1,1,1,1,1,0,1,1,0,0,0
2268000,0,0.0,0.0,-0.000918902,-0.00050625,0.0174846,-7.21641e-07,-3.36885e-09,0.0,-0.00299361,-0.00299436,0.00206954,0.0166049,-0.00018041,-8.42212e-07,0.0,-0.0676024,-0.0609654,0.0215545,-0.0381133,0.0,0.108991,-0.00206954,0.338125,0.506956,1.46863,0.742676,inf,inf,inf,inf,1,1,1,1,1,0,1,1,0,0,0
2364000,0,0.0,0.0,-0.00100203,-0.000737648,0.020555,-7.21641e-07,-3.36885e-09,0.0,-0.00147052,-0.00333361,0.00259679,0.0186842,-0.00018041,-8.42212e-07,0.0,0.0465528,0.0030102,-0.00991388,-0.0377855,0.0,0.108176,-0.00259679,0.31035,0.472856,1.08689,0.735285,inf,inf,inf,inf,1,1,1,1,1,0,1,1,0,0,0
2468000,0,0.0,0.0,-0.000831892,-0.000999609,0.0242805,-7.21641e-07,-3.36885e-09,0.0,0.00101809,-0.00400105,0.00417217,0.0219409,-0.00018041,-8.42212e-07,0.0,0.0804669,0.00120865,0.0306078,-0.0374448,0.0,0.103873,-0.00417217,0.270006,0.445041,0.793841,0.72025,inf,inf,inf,inf,1,1,1,1,1,0,1,1,0,0,0
2564000,0,0.0,0.0,-0.000473066,-0.00120765,0.0265795,-7.21641e-07,-3.36885e-09,0.0,0.00210417,-0.0027075,0.00646936,0.0241757,-0.00018041,-8.42212e-07,0.0,0.0402948,0.0155037,0.0101018,-0.0375577,0.0,0.1,-0.00646936,0.254218,0.436714,0.647208,0.704651,inf,inf,inf,inf,1,1,1,1,1,0,1,1,0,0,0
2668000,0,0.0,0.0,5.62284e-05,-0.00125706,0.0271697,-7.21641e-07,-3.36885e-09,0.0,0.00298073,-0.00248101,0.00581588,0.0213474,-0.00018041,-8.42212e-07,0.0,-0.0182221,-0.0396579,0.0547293,-0.0373736,0.0,0.1,-0.00581588,0.244889,0.437337,0.545702,0.686132,inf,inf,inf,inf,1,1,1,1,1,0,1,1,0,0,0
2764000,0,0.0,0.0,0.000548113,-0.00113263,0.0265888,-7.21641e-07,-3.36885e-09,0.0,0.00354981,-0.000127581,0.0042583,0.0172395,-0.00018041,-8.42212e-07,0.0,0.0578663,0.0556032,-0.0149604,-0.0371833,0.0,0.1,-0.0042583,0.2328,0.437609,0.472018,0.664136,inf,inf,inf,inf,1,1,1,1,1,0,1,1,0,0,0
2868000,0,0.0,0.0,0.000988739,-0.000726404,0.0273834,-7.21641e-07,-3.36885e-09,0.0,0.00317867,0.0021902,0.00427337,0.0162923,-0.00018041,-8.42212e-07,0.0,-0.0679678,-0.0217963,-0.0297332,-0.0371197,0.0,0.1,-0.00427337,0.215296,0.432623,0.407468,0.633215,inf,inf,inf,inf,1,1,1,1,1,0,1,1,0,0,0
2964000,0,0.0,0.0,0.00128367,-0.000221936,0.0271404,-7.21641e-07,-3.36885e-09,0.0,0.00433777,0.00360003,0.00384456,0.0141094,-0.00018041,-8.42212e-07,0.0,0.0280797,0.0148011,0.0189061,-0.0372824,0.0,0.1,-0.00384456,0.207887,0.43447,0.373678,0.607715,inf,inf,inf,inf,1,1,1,1,1,0,1,1,0,0,0
3068000,0,0.0,0.0,0.00167354,0.000389546,0.0239436,-7.21641e-07,-3.36885e-09,0.0,0.00552197,0.00475059,0.000578596,0.00636377,-0.00018041,-8.42212e-07,0.0,0.0363899,0.0175383,-0.0330031,-0.0371403,0.0,0.1,-0.000578596,0.203718,0.439155,0.352123,0.582095,inf,inf,inf,inf,1,1,1,1,1,0,1,1,0,0,0
3164000,0,0.0,0.0,0.00209688,0.000988915,0.0219695,-7.21641e-07,-3.36885e-09,0.0,0.00657956,0.00565647,-0.000760081,0.00277315,-0.00018041,-8.42212e-07,0.0,0.0136853,-0.0247937,-0.0328005,-0.0372777,0.0,0.1,0.000760081,0.19122,0.429479,0.330418,0.548899,inf,inf,inf,inf,1,1,1,1,1,0,1,1,0,0,0
3268000,0,0.0,0.0,0.00257677,0.00160585,0.0237473,-7.21641e-07,-3.36885e-09,0.0,0.00668611,0.00541639,0.000572532,0.00593129,-0.00018041,-8.42212e-07,0.0,-0.0203257,0.00564358,-0.0419422,-0.0370069,0.0,0.103537,-0.000572532,0.189595,0.432443,0.325717,0.525093,inf,inf,inf,inf,1,1,1,1,1,0,1,1,0,0,0
3364000,0,0.0,0.0,0.00300525,0.00196408,0.0246643,-7.21641e-07,-3.36885e-09,0.0,0.00719025,0.00323686,0.00117911,0.00695662,-0.00018041,-8.42212e-07,0.0,-0.0189827,-0.0286273,-0.044828,-0.0368761,0.0,0.1,-0.00117911,0.186698,0.43103,0.323449,0.501966,inf,inf,inf,inf,1,1,1,1,1,0,1,1,0,0,0
3468000,0,0.0,0.0,0.00336129,0.00209016,0.0231692,-7.21641e-07,-3.36885e-09,0.0,0.00695971,0.00199415,-0.000549834,0.0030674,-0.00018041,-8.42212e-07,0.0,0.0490492,-0.0519816,-0.0327113,-0.0363451,0.0,0.1,0.000549834,0.180871,0.422682,0.32098,0.474614,inf,inf,inf,inf,1,1,1,1,1,0,1,1,0,0,0
3564000,0,0.0,0.0,0.003632,0.00212931,0.0228936,-7.21641e-07,-3.36885e-09,0.0,0.00768242,0.00278023,-0.000943441,0.00219604,-0.00018041,-8.42212e-07,0.0,0.0254709,-0.0161189,0.0186965,-0.0361337,0.0,0.1,0.000943441,0.180039,0.420312,0.324262,0.4556,inf,inf,inf,inf,1,1,1,1,1,0,1,1,0,0,0
3668000,0,0.0,0.0,0.00399983,0.00211256,0.023549,-7.21641e-07,-3.36885e-09,0.0,0.00864574,0.00247637,-0.000573707,0.0030065,-0.00018041,-8.42212e-07,0.0,0.00544442,-0.0490136,-0.0521654,-0.0362088,0.0,0.102676,0.000573707,0.1819,0.420389,0.330926,0.439284,inf,inf,inf,inf,1,1,1,1,1,0,1,1,0,0,0
3764000,0,0.0,0.0,0.0042778,0.00194086,0.024689,-7.21641e-07,-3.36885e-09,0.0,0.00877479,0.000862173,0.000172308,0.00460689,-0.00018041,-8.42212e-07,0.0,-0.0398671,0.00515664,0.0574157,-0.0364977,0.0,0.104465,-0.000172308,0.182588,0.417483,0.335604,0.424339,inf,inf,inf,inf,1,1,1,1,1,0,1,1,0,0,0
3868000,0,0.0,0.0,0.00457203,0.00157796,0.0248069,-7.21641e-07,-3.36885e-09,0.0,0.00918484,-0.000415324,-0.00120674,0.00286342,-0.00018041,-8.42212e-07,0.0,0.0317785,-0.0599394,-0.0742472,-0.0364547,0.0,0.105357,0.00120674,0.179588,0.40818,0.335156,0.406226,inf,inf,inf,inf,1,1,1,1,1,0,1,1,0,0,0
3964000,0,0.0,0.0,0.00478581,0.0011143,0.0267424,-7.21641e-07,-3.36885e-09,0.0,0.00886354,-0.00207775,0.000671245,0.00625547,-0.00018041,-8.42212e-07,0.0,-0.00538089,-0.00731458,0.000426759,-0.0366688,0.0,0.104126,-0.000671245,0.180872,0.405152,0.338059,0.395085,inf,inf,inf,inf,1,1,1,1,1,0,1,1,0,0,0
4068000,0,0.0,0.0,0.00485889,0.000562091,0.0310126,-7.21641e-07,-3.36885e-09,0.0,0.00674312,-0.00360568,0.00320503,0.0120926,-0.00018041,-8.42212e-07,0.0,-0.0396494,-0.0414297,0.00228938,-0.0368306,0.0,0.107882,-0.00320503,0.184539,0.404715,0.342453,0.386558,inf,inf,inf,inf,1,1,1,1,1,0,1,1,0,0,0
4164000,0,0.0,0.0,0.0046867,-6.08152e-05,0.0328776,-7.21641e-07,-3.36885e-09,0.0,0.00571227,-0.00362569,0.00291458,0.0122063,-0.00018041,-8.42212e-07,0.0,0.00949349,-0.0271658,-0.0697327,-0.0370208,0.0,0.103074,-0.00291458,0.185872,0.401702,0.342672,0.378428,inf,inf,inf,inf,1,1,1,1,1,0,1,1,0,0,0
4268000,0,0.0,0.0,0.00440425,-0.000639828,0.0336259,-7.21641e-07,-3.36885e-09,0.0,0.00577771,-0.00407641,0.00257334,0.0109436,-0.00018041,-8.42212e-07,0.0,-0.052321,-0.00599719,0.0218872,-0.0372703,0.0,0.1,-0.00257334,0.183165,0.393561,0.336765,0.368113,inf,inf,inf,inf,1,1,1,1,1,0,1,1,0,0,0
4364000,0,0.0,0.0,0.00395086,-0.00113286,0.0335211,-7.21641e-07,-3.36885e-09,0.0,0.00195393,-0.00418208,0.00145589,0.00851593,-0.00018041,-8.42212e-07,0.0,-0.0548937,-0.0311625,0.0178174,-0.0374997,0.0,0.1,-0.00145589,0.184316,0.391136,0.334762,0.362748,inf,inf,inf,inf,1,1,1,1,1,0,1,1,0,0,0
4468000,0,0.0,0.0,0.00323582,-0.00160231,0.0347669,-7.21641e-07,-3.36885e-09,0.0,0.00102617,-0.00398725,-0.000246434,0.00701608,-0.00018041,-8.42212e-07,0.0,-0.0407678,-0.0396079,-0.0726876,-0.0372203,0.0,0.100367,0.000246434,0.187278,0.391094,0.333824,0.359362,inf,inf,inf,inf,1,1,1,1,1,0,1,1,0,0,0
4564000,0,0.0,0.0,0.00246011,-0.00188418,0.0350225,-7.21641e-07,-3.36885e-09,0.0,0.000492265,-0.00459266,-0.000637492,0.00607978,-0.00018041,-8.42212e-07,0.0,0.056163,-0.0786398,0.0344848,-0.0374055,0.0,0.1,0.000637492,0.181763,0.381962,0.322564,0.351759,inf,inf,inf,inf,1,1,1,1,1,0,1,1,0,0,0
4668000,0,0.0,0.0,0.00155574,-0.00226043,0.0363767,-7.21641e-07,-3.36885e-09,0.0,-0.00208162,-0.00550051,0.00063542,0.00787021,-0.00018041,-8.42212e-07,0.0,-0.0335742,0.0286438,-0.0112545,-0.0375511,0.0,0.102012,-0.00063542,0.184345,0.382503,0.32052,0.350164,inf,inf,inf,inf,1,1,1,1,1,0,1,1,0,0,0
4772000,0,0.0,0.0,0.000599833,-0.00258267,0.0377987,-7.21641e-07,-3.36885e-09,0.0,-0.00382758,-0.00621088,0.00330052,0.0108118,-0.00018041,-8.42212e-07,0.0,0.0240983,-0.0205387,0.0125788,-0.0374573,0.0,0.104809,-0.00330052,0.180378,0.376315,0.310315,0.345179,inf,inf,inf,inf,1,1,1,1,1,0,1,1,0,0,0
4868000,0,0.0,0.0,-0.000365876,-0.00290535,0.0409982,-7.21641e-07,-3.36885e-09,0.0,-0.00597198,-0.00611329,0.0062034,0.0155744,-0.00018041,-8.42212e-07,0.0,0.0150641,-0.00296236,0.007447,-0.0375477,0.0,0.105763,-0.0062034,0.180629,0.375268,0.30585,0.34361,inf,inf,inf,inf,1,1,1,1,1,0,1,1,0,0,0
4964000,0,0.0,0.0,-0.00142695,-0.0031605,0.0433201,-7.21641e-07,-3.36885e-09,0.0,-0.00798669,-0.00641139,0.00721792,0.0170675,-0.00018041,-8.42212e-07,0.0,-0.0736566,0.0335239,-0.00159845,-0.037283,0.0,0.1,-0.00721792,0.180561,0.374336,0.301038,0.342258,inf,inf,inf,inf,1,1,1,1,1,0,1,1,0,0,0
5068000,0,0.0,0.0,0.0,0.0,0.0437827,-7.21641e-07,-3.36885e-09,0.0,-0.00936707,-0.00570665,0.00808112,0.0162591,-0.00018041,-8.42212e-07,0.0,-0.00130397,0.0218985,0.0731411,-0.0373662,0.0,0.1,-0.00808112,0.182365,0.375745,0.2983,0.342283,inf,inf,inf,inf,0,1,0,1,1,0,1,1,0,0,0
5164000,0,0.0,0.0,0.0,0.0,0.0431081,-7.21641e-07,-3.36885e-09,0.0,-0.0100949,-0.0070161,0.00668525,0.0124786,-0.00018041,-8.42212e-07,0.0,-0.0151397,0.00949457,-0.0240337,-0.0373733,0.0,0.1,-0.00668525,0.182279,0.375315,0.2941,0.341388,inf,inf,inf,inf,0,1,0,1,1,0,1,1,0,0,0
5268000,0,0.0,0.0,0.0,0.0,0.0395632,-7.21641e-07,-3.36885e-09,0.0,-0.0123259,-0.00796402,0.0027983,0.00391599,-0.00018041,-8.42212e-07,0.0,-0.000384145,0.0373758,-0.00488944,-0.0375224,0.0,0.1,-0.0027983,0.177997,0.37059,0.285026,0.3379,inf,inf,inf,inf,0,1,0,1,1,0,1,1,0,0,0
5364000,0,0.0,0.0,0.0,0.0,0.036229,-7.21641e-07,-3.36885e-09,0.0,-0.01174,-0.00627645,0.00152021,-0.000836169,-0.00018041,-8.42212e-07,0.0,0.0338831,0.0125442,0.0205285,-0.0377043,0.0,0.1,-0.00152021,0.177757,0.370453,0.281324,0.337011,inf,inf,inf,inf,0,1,0,1,1,0,1,1,0,0,0
5468000,0,0.0,0.0,0.0,0.0,0.0330161,-7.21641e-07,-3.36885e-09,0.0,-0.0124787,-0.00560524,-0.00151699,-0.00643201,-0.00018041,-8.42212e-07,0.0,-0.059822,0.00416362,0.00181966,-0.0377039,0.0,0.1,0.00151699,0.17944,0.372626,0.279833,0.33724,inf,inf,inf,inf,0,1,0,1,1,0,1,1,0,0,0
5564000,0,0.0,0.0,0.0,0.0,0.0304098,-7.21641e-07,-3.36885e-09,0.0,-0.0147496,-0.00415943,-0.00214733,-0.00857618,-0.00018041,-8.42212e-07,0.0,-0.00884708,-0.0581859,0.00158002,-0.0375345,0.0,0.1,0.00214733,0.179077,0.372665,0.276544,0.336122,inf,inf,inf,inf,0,1,0,1,1,0,1,1,0,0,0
5668000,0,0.0,0.0,0.0,0.0,0.0263626,-7.21641e-07,-3.36885e-09,0.0,-0.0153952,-0.00499232,-0.0043429,-0.0133233,-0.00018041,-8.42212e-07,0.0,-0.0682836,0.0136729,0.0486204,-0.0377294,0.0,0.1,0.0043429,0.175166,0.368643,0.269599,0.332384,inf,inf,inf,inf,0,1,0,1,1,0,1,1,0,0,0
5764000,0,0.0,0.0,0.0,0.0,0.0248347,-7.21641e-07,-3.36885e-09,0.0,-0.0169177,-0.00621839,-0.00481632,-0.0135311,-0.00018041,-8.42212e-07,0.0,-0.0218662,-0.0484984,0.0476555,-0.037753,0.0,0.1,0.00481632,0.175004,0.368905,0.267183,0.331012,inf,inf,inf,inf,0,1,0,1,1,0,1,1,0,0,0
5868000,0,0.0,0.0,0.0,0.0,0.024672,-7.21641e-07,-3.36885e-09,0.0,-0.0174167,-0.00547726,-0.00555413,-0.0124678,-0.00018041,-8.42212e-07,0.0,-0.0293758,-0.0589693,-0.00350819,-0.0382121,0.0,0.107046,0.00555413,0.176515,0.371234,0.26658,0.330448,inf,inf,inf,inf,0,1,0,1,1,0,1,1,0,0,0
5964000,0,0.0,0.0,0.0,0.0,0.0268598,-7.21641e-07,-3.36885e-09,0.0,-0.0165418,-0.00429295,-0.0033297,-0.00673534,-0.00018041,-8.42212e-07,0.0,-0.0182682,-0.00106977,-0.0762265,-0.0381761,0.0,0.108258,0.0033297,0.171212,0.36532,0.259194,0.325074,inf,inf,inf,inf,0,1,0,1,1,0,1,1,0,0,0
6068000,0,0.0,0.0,0.0,0.0,0.0291081,-7.21641e-07,-3.36885e-09,0.0,-0.0156911,-0.00324732,-0.00337596,-0.00385022,-0.00018041,-8.42212e-07,0.0,0.0106095,0.0569821,-0.0475136,-0.0385485,0.0,0.103362,0.00337596,0.172874,0.367703,0.25921,0.324115,inf,inf,inf,inf,0,1,0,1,1,0,1,1,0,0,0
6164000,0,0.0,0.0,0.0,0.0,0.0301343,-7.21641e-07,-3.36885e-09,0.0,-0.0150457,-0.00143841,-0.0023295,-0.0016126,-0.00018041,-8.42212e-07,0.0,0.00448206,-0.0755509,0.0474331,-0.0383797,0.0,0.100955,0.0023295,0.172719,0.367872,0.257518,0.321822,inf,inf,inf,inf,0,1,0,1,1,0,1,1,0,0,0
6268000,0,0.0,0.0,0.0,0.0,0.0328523,-7.21641e-07,-3.36885e-09,0.0,-0.0140199,-0.000321214,-4.92585e-05,0.00327235,-0.00018041,-8.42212e-07,0.0,0.00745798,0.00868908,0.0227851,-0.0385092,0.0,0.103842,4.92585e-05,0.169505,0.3641,0.25276,0.316897,inf,inf,inf,inf,0,1,0,1,1,0,1,1,0,0,0
6364000,0,0.0,0.0,0.0,0.0,0.0348962,-7.21641e-07,-3.36885e-09,0.0,-0.0124955,0.000509165,0.00206185,0.00679439,-0.00018041,-8.42212e-07,0.0,-0.0618463,-0.0148834,0.0341397,-0.0383186,0.0,0.102322,-0.00206185,0.169536,0.364257,0.251438,0.314269,inf,inf,inf,inf,0,1,0,1,1,0,1,1,0,0,0
6468000,0,0.0,0.0,0.0,0.0,0.0362121,-7.21641e-07,-3.36885e-09,0.0,-0.00993517,0.00202842,0.00458514,0.00945569,-0.00018041,-8.42212e-07,0.0,0.0578771,-0.00936569,0.0206002,-0.038463,0.0,0.1,-0.00458514,0.17125,0.36639,0.251758,0.312392,inf,inf,inf,inf,0,1,0,1,1,0,1,1,0,0,0
6572000,0,0.0,0.0,0.0,0.0,0.0366934,-7.21641e-07,-3.36885e-09,0.0,-0.00933676,0.00286606,0.00532181,0.00940472,-0.00018041,-8.42212e-07,0.0,0.0219911,0.000193604,0.0126225,-0.0383374,0.0,0.10101,-0.00532181,0.168176,0.362453,0.247166,0.306885,inf,inf,inf,inf,0,1,0,1,1,0,1,1,0,0,0
6668000,0,0.0,0.0,0.0,0.0,0.0389762,-7.21641e-07,-3.36885e-09,0.0,-0.00931,0.00424604,0.00705757,0.012337,-0.00018041,-8.42212e-07,0.0,-0.0390216,0.0137933,0.0380485,-0.0386871,0.0,0.102677,-0.00705757,0.168252,0.362394,0.245878,0.303731,inf,inf,inf,inf,0,1,0,1,1,0,1,1,0,0,0
6764000,0,0.0,0.0,0.0,0.0,0.0416578,-7.21641e-07,-3.36885e-09,0.0,-0.00666206,0.00522431,0.00961517,0.0161118,-0.00018041,-8.42212e-07,0.0,-0.00537936,-0.0129249,-0.00815132,-0.038398,0.0,0.103713,-0.00961517,0.168415,0.362313,0.244708,0.300487,inf,inf,inf,inf,0,1,0,1,1,0,1,1,0,0,0
6868000,0,0.0,0.0,0.0,0.0,0.0451885,-7.21641e-07,-3.36885e-09,0.0,-0.00475045,0.00568831,0.0121313,0.0200929,-0.00018041,-8.42212e-07,0.0,0.0503788,-0.00919927,-0.0155008,-0.0383279,0.0,0.101327,-0.0121313,0.170267,0.364172,0.245062,0.298,inf,inf,inf,inf,0,1,0,1,1,0,1,1,0,0,0
6964000,0,0.0,0.0,0.0,0.0,0.0485832,-7.21641e-07,-3.36885e-09,0.0,-0.0038989,0.00555726,0.0138362,0.02289,-0.00018041,-8.42212e-07,0.0,0.0565156,-0.11183,-0.0175902,-0.03827,0.0,0.100571,-0.0138362,0.170355,0.363872,0.243626,0.29447,inf,inf,inf,inf,0,1,0,1,1,0,1,1,0,0,0
7068000,0,0.0,0.0,0.0,0.0,0.0531698,-7.21641e-07,-3.36885e-09,0.0,-0.00220402,0.00581801,0.0168106,0.0275061,-0.00018041,-8.42212e-07,0.0,0.0263803,-0.0199266,0.011715,-0.0379975,0.0,0.100536,-0.0168106,0.167353,0.359601,0.238965,0.288409,inf,inf,inf,inf,0,1,0,1,1,0,1,1,0,0,0
7164000,0,0.0,0.0,0.0,0.0,0.0554061,-7.21641e-07,-3.36885e-09,0.0,-0.00131058,0.00806964,0.0174799,0.0274034,-0.00018041,-8.42212e-07,0.0,-0.0139881,0.016482,-0.0272321,-0.0378615,0.0,0.1,-0.0174799,0.167529,0.359231,0.23756,0.284796,inf,inf,inf,inf,0,1,0,1,1,0,1,1,0,0,0
7268000,0,0.0,0.0,0.0,0.0,0.0569777,-7.21641e-07,-3.36885e-09,0.0,-0.000533461,0.00707864,0.0183316,0.0266348,-0.00018041,-8.42212e-07,0.0,-0.0172044,0.0186745,0.0210392,-0.0375618,0.0,0.1,-0.0183316,0.169169,0.360597,0.237371,0.281817,inf,inf,inf,inf,0,1,0,1,1,0,1,1,0,0,0
7364000,0,0.0,0.0,0.0,0.0,0.0572278,-7.21641e-07,-3.36885e-09,0.0,0.00174134,0.00687062,0.016625,0.022548,-0.00018041,-8.42212e-07,0.0,0.0135011,0.00906191,0.00967851,-0.0375122,0.0,0.1,-0.016625,0.164694,0.354391,0.23124,0.27499,inf,inf,inf,inf,0,1,0,1,1,0,1,1,0,0,0
7468000,0,0.0,0.0,0.0,0.0,0.0567173,-7.21641e-07,-3.36885e-09,0.0,0.00275712,0.0061663,0.0154439,0.0184776,-0.00018041,-8.42212e-07,0.0,0.0258758,-0.068492,0.0234457,-0.0373262,0.0,0.1,-0.0154439,0.166349,0.355642,0.230935,0.271971,inf,inf,inf,inf,0,1,0,1,1,0,1,1,0,0,0
7564000,0,0.0,0.0,0.0,0.0,0.0549459,-7.21641e-07,-3.36885e-09,0.0,0.0043312,0.0069106,0.0129778,0.0125977,-0.00018041,-8.42212e-07,0.0,0.0411482,0.00324107,-0.0836739,-0.0372257,0.0,0.1,-0.0129778,0.166325,0.354913,0.229064,0.268154,inf,inf,inf,inf,0,1,0,1,1,0,1,1,0,0,0
7668000,0,0.0,0.0,0.0,0.0,0.050796,-7.21641e-07,-3.36885e-09,0.0,0.00667078,0.00634402,0.0104573,0.00502234,-0.00018041,-8.42212e-07,0.0,0.0453118,0.00406402,0.0123373,-0.0371878,0.0,0.1,-0.0104573,0.163492,0.350553,0.224292,0.262183,inf,inf,inf,inf,0,1,0,1,1,0,1,1,0,0,0
7772000,0,0.0,0.0,0.0,0.0,0.0470126,-7.21641e-07,-3.36885e-09,0.0,0.00728066,0.00673269,0.00797264,-0.00114427,-0.00018041,-8.42212e-07,0.0,-0.0348622,0.0824602,0.0111638,-0.0373235,0.0,0.1,-0.00797264,0.165014,0.351542,0.223702,0.259086,inf,inf,inf,inf,0,1,0,1,1,0,1,1,0,0,0
7868000,0,0.0,0.0,0.0,0.0,0.0455804,-7.21641e-07,-3.36885e-09,0.0,0.00872569,0.00720008,0.00622126,-0.00353215,-0.00018041,-8.42212e-07,0.0,-0.000260543,-0.0160121,-0.0130922,-0.0372073,0.0,0.1,-0.00622126,0.164985,0.3507,0.221664,0.255331,inf,inf,inf,inf,0,1,0,1,1,0,1,1,0,0,0
7964000,0,0.0,0.0,0.0,0.0,0.0462412,-7.21641e-07,-3.36885e-09,0.0,0.0106584,0.00633429,0.00607293,-0.00216228,-0.00018041,-8.42212e-07,0.0,-0.0492057,0.00609504,0.0420375,-0.037223,0.0,0.1,-0.00607293,0.165057,0.349897,0.219788,0.251658,inf,inf,inf,inf,0,1,0,1,1,0,1,1,0,0,0
8068000,0,0.0,0.0,0.0,0.0,0.0463635,-7.21641e-07,-3.36885e-09,0.0,0.0118213,0.00596753,0.00576007,-0.0017239,-0.00018041,-8.42212e-07,0.0,0.000237882,-0.0316539,-0.000658913,-0.0370911,0.0,0.1,-0.00576007,0.162043,0.345396,0.214713,0.24586,inf,inf,inf,inf,0,1,0,1,1,0,1,1,0,0,0
8164000,0,0.0,0.0,0.0,0.0,0.045167,-7.21641e-07,-3.36885e-09,0.0,0.0109728,0.00367229,0.00583354,-0.0024181,-0.00018041,-8.42212e-07,0.0,-0.0279004,0.0278498,0.0405506,-0.036988,0.0,0.1,-0.00583354,0.16201,0.344497,0.212652,0.242252,inf,inf,inf,inf,0,1,0,1,1,0,1,1,0,0,0
8268000,0,0.0,0.0,0.0,0.0,0.043852,-7.21641e-07,-3.36885e-09,0.0,0.0106237,0.0017338,0.00630873,-0.00280481,-0.00018041,-8.42212e-07,0.0,0.0373374,0.022229,0.0109696,-0.0369841,0.0,0.1,-0.00630873,0.163422,0.345213,0.211783,0.239257,inf,inf,inf,inf,0,1,0,1,1,0,1,1,0,0,0
8364000,0,0.0,0.0,0.0,0.0,0.0412047,-7.21641e-07,-3.36885e-09,0.0,0.00930466,0.000535475,0.00339467,-0.0076569,-0.00018041,-8.42212e-07,0.0,0.000856407,-0.0635805,-0.0536666,-0.0366539,0.0,0.1,-0.00339467,0.163269,0.34419,0.209516,0.23569,inf,inf,inf,inf,0,1,0,1,1,0,1,1,0,0,0
8468000,0,0.0,0.0,0.0,0.0,0.0390907,-7.21641e-07,-3.36885e-09,0.0,0.00975248,-0.000453645,0.000516135,-0.0113455,-0.00018041,-8.42212e-07,0.0,-0.0329204,-0.00896192,0.00851554,-0.0365852,0.0,0.1,-0.000516135,0.160351,0.339791,0.204633,0.230296,inf,inf,inf,inf,0,1,0,1,1,0,1,1,0,0,0
8572000,0,0.0,0.0,0.0,0.0,0.035432,-7.21641e-07,-3.36885e-09,0.0,0.00795735,-0.00173038,-0.00381782,-0.0176006,-0.00018041,-8.42212e-07,0.0,-0.0160225,-0.017962,-0.0385128,-0.0365797,0.0,0.1,0.00381782,0.161622,0.340342,0.203623,0.227404,inf,inf,inf,inf,0,1,0,1,1,0,1,1,0,0,0
8668000,0,0.0,0.0,0.0,0.0,0.0295531,-7.21641e-07,-3.36885e-09,0.0,0.00781866,-0.00331973,-0.00707748,-0.0244856,-0.00018041,-8.42212e-07,0.0,-0.00583764,0.00989642,-0.0216351,-0.0366164,0.0,0.1,0.00707748,0.161397,0.339248,0.201397,0.224007,inf,inf,inf,inf,0,1,0,1,1,0,1,1,0,0,0
8772000,0,0.0,0.0,0.0,0.0,0.0224543,-7.21641e-07,-3.36885e-09,0.0,0.00612022,-0.00454092,-0.0114252,-0.0326657,-0.00018041,-8.42212e-07,0.0,0.0195872,0.0705958,-0.00221115,-0.0368977,0.0,0.1,0.0114252,0.158567,0.33496,0.196748,0.218949,inf,inf,inf,inf,0,1,0,1,1,0,1,1,0,0,0
8868000,0,0.0,0.0,0.0,0.0,0.0141039,-7.21641e-07,-3.36885e-09,0.0,0.00533829,-0.00575655,-0.0158021,-0.0413567,-0.00018041,-8.42212e-07,0.0,0.0982546,0.00222898,0.0288484,-0.0368421,0.0,0.1,0.0158021,0.158398,0.33391,0.194618,0.215731,inf,inf,inf,inf,0,1,0,1,1,0,1,1,0,0,0
8964000,0,0.0,0.0,0.0,0.0,0.00950693,-7.21641e-07,-3.36885e-09,0.0,0.00425362,-0.0067497,-0.017243,-0.042574,-0.00018041,-8.42212e-07,0.0,0.0481827,-0.0536361,-0.0576157,-0.0369382,0.0,0.101379,0.017243,0.158134,0.332794,0.192433,0.212538,inf,inf,inf,inf,0,1,0,1,1,0,1,1,0,0,0
9068000,0,0.0,0.0,0.0,0.0,0.00642673,-7.21641e-07,-3.36885e-09,0.0,0.00263664,-0.00892451,-0.0182676,-0.0414363,-0.00018041,-8.42212e-07,0.0,0.00368522,-0.027402,-0.0752472,-0.0367199,0.0,0.10684,0.0182676,0.15543,0.328671,0.188024,0.207836,inf,inf,inf,inf,0,1,0,1,1,0,1,1,0,0,0
9164000,0,0.0,0.0,0.0,0.0,0.00561837,-7.21641e-07,-3.36885e-09,0.0,0.0031385,-0.00846933,-0.0180619,-0.037499,-0.00018041,-8.42212e-07,0.0,-0.0440145,-0.00292499,-0.0624311,-0.0364234,0.0,0.112008,0.0180619,0.155222,0.327608,0.185955,0.204823,inf,inf,inf,inf,0,1,0,1,1,0,1,1,0,0,0
9268000,0,0.0,0.0,0.0,0.0,0.00683848,-7.21641e-07,-3.36885e-09,0.0,0.00271635,-0.00663181,-0.0174422,-0.0314058,-0.00018041,-8.42212e-07,0.0,0.00505981,0.0315254,0.0549369,-0.0364825,0.0,0.11419,0.0174422,0.156237,0.327902,0.184829,0.202277,inf,inf,inf,inf,0,1,0,1,1,0,1,1,0,0,0
9364000,0,0.0,0.0,0.0,0.0,0.00845259,-7.21641e-07,-3.36885e-09,0.0,0.000146545,-0.00641566,-0.0146779,-0.0240395,-0.00018041,-8.42212e-07,0.0,-0.0590122,-0.00805128,-0.0260088,-0.0368326,0.0,0.112872,0.0146779,0.156079,0.326854,0.182898,0.199402,inf,inf,inf,inf,0,1,0,1,1,0,1,1,0,0,0
9468000,0,0.0,0.0,0.0,0.0,0.0107409,-7.21641e-07,-3.36885e-09,0.0,-0.00164384,-0.00725269,-0.0120559,-0.0168522,-0.00018041,-8.42212e-07,0.0,-0.0356181,-0.0243887,0.015683,-0.0366067,0.0,0.109614,0.0120559,0.153324,0.322806,0.178638,0.195068,inf,inf,inf,inf,0,1,0,1,1,0,1,1,0,0,0
9572000,0,0.0,0.0,0.0,0.0,0.0126407,-7.21641e-07,-3.36885e-09,0.0,-0.00192782,-0.00793531,-0.0125784,-0.0139669,-0.00018041,-8.42212e-07,0.0,-0.101821,0.053765,-0.0684874,-0.036525,0.0,0.111692,0.0125784,0.154313,0.32306,0.177574,0.192706,inf,inf,inf,inf,0,1,0,1,1,0,1,1,0,0,0
9668000,0,0.0,0.0,0.0,0.0,0.0161382,-7.21641e-07,-3.36885e-09,0.0,-0.00382505,-0.00829262,-0.00880159,-0.00581173,-0.00018041,-8.42212e-07,0.0,0.0398067,-0.0320476,-0.032123,-0.0364662,0.0,0.116646,0.00880159,0.154115,0.322004,0.175692,0.190023,inf,inf,inf,inf,0,1,0,1,1,0,1,1,0,0,0
9764000,0,0.0,0.0,0.0,0.0,0.0192041,-7.21641e-07,-3.36885e-09,0.0,-0.00589786,-0.0102456,-0.00827003,-0.00205236,-0.00018041,-8.42212e-07,0.0,0.0234219,0.00870629,-0.0262054,-0.0365002,0.0,0.112471,0.00827003,0.153838,0.320901,0.173827,0.187372,inf,inf,inf,inf,0,1,0,1,1,0,1,1,0,0,0
9868000,0,0.0,0.0,0.0,0.0,0.0229409,-7.21641e-07,-3.36885e-09,0.0,-0.00756729,-0.00905479,-0.00816566,0.00151948,-0.00018041,-8.42212e-07,0.0,0.00977688,0.0278011,0.0167944,-0.0366472,0.0,0.110227,0.00816566,0.151242,0.317056,0.169967,0.183458,inf,inf,inf,inf,0,1,0,1,1,0,1,1,0,0,0
9964000,0,0.0,0.0,0.0,0.0,0.0259087,-7.21641e-07,-3.36885e-09,0.0,-0.00779355,-0.00878202,-0.00722635,0.0047204,-0.00018041,-8.42212e-07,0.0,-0.0401858,-0.0291158,-0.0685879,-0.0363899,0.0,0.110899,0.00722635,0.151032,0.31602,0.168256,0.180971,inf,inf,inf,inf,0,1,0,1,1,0,1,1,0,0,0
10068000,0,0.0,0.0,0.0,0.0,0.0297458,-7.21641e-07,-3.36885e-09,0.0,-0.00922302,-0.00624174,-0.00386595,0.0106938,-0.00018041,-8.42212e-07,0.0,0.00484037,-0.0197881,0.0165713,-0.0365097,0.0,0.110244,0.00386595,0.151884,0.316162,0.167274,0.178851,inf,inf,inf,inf,0,1,0,1,1,0,1,1,0,0,0
10164000,0,0.0,0.0,0.0,0.0,0.0319538,-7.21641e-07,-3.36885e-09,0.0,-0.00904621,-0.00603931,-0.00263331,0.0124826,-0.00018041,-8.42212e-07,0.0,-0.0632804,0.0690691,0.0188647,-0.0363949,0.0,0.103054,0.00263331,0.148309,0.311285,0.163002,0.17491,inf,inf,inf,inf,0,1,0,1,1,0,1,1,0,0,0
10268000,0,0.0,0.0,0.0,0.0,0.032963,-7.21641e-07,-3.36885e-09,0.0,-0.00970274,-0.00653188,-0.00361268,0.0106828,-0.00018041,-8.42212e-07,0.0,-0.0107444,0.0157971,-0.0248833,-0.0366022,0.0,0.10033,0.00361268,0.149186,0.311451,0.162118,0.172926,inf,inf,inf,inf,0,1,0,1,1,0,1,1,0,0,0
10364000,0,0.0,0.0,0.0,0.0,0.032204,-7.21641e-07,-3.36885e-09,0.0,-0.00956258,-0.00556179,-0.00415591,0.00797497,-0.00018041,-8.42212e-07,0.0,0.104901,-0.0151473,-0.0258281,-0.0368458,0.0,0.1,0.00415591,0.148903,0.310394,0.160485,0.17065,inf,inf,inf,inf,0,1,0,1,1,0,1,1,0,0,0
10468000,0,0.0,0.0,0.0,0.0,0.0320286,-7.21641e-07,-3.36885e-09,0.0,-0.00875969,-0.00658545,-0.00328372,0.00751061,-0.00018041,-8.42212e-07,0.0,0.0155346,-0.029254,0.0508394,-0.0367417,0.0,0.101322,0.00328372,0.14657,0.306886,0.157263,0.16732,inf,inf,inf,inf,0,1,0,1,1,0,1,1,0,0,0
10564000,0,0.0,0.0,0.0,0.0,0.0328805,-7.21641e-07,-3.36885e-09,0.0,-0.00952315,-0.00610623,-0.00189561,0.00879024,-0.00018041,-8.42212e-07,0.0,-0.0216092,-0.0138874,0.0483304,-0.0368577,0.0,0.107823,0.00189561,0.146352,0.305895,0.155786,0.165186,inf,inf,inf,inf,0,1,0,1,1,0,1,1,0,0,0
10668000,0,0.0,0.0,0.0,0.0,0.0353758,-7.21641e-07,-3.36885e-09,0.0,-0.00679618,-0.00617553,-0.00147216,0.0104648,-0.00018041,-8.42212e-07,0.0,0.0334607,-0.0193678,-0.0669345,-0.0374266,0.0,0.104109,0.00147216,0.147165,0.306012,0.155012,0.163387,inf,inf,inf,inf,0,1,0,1,1,0,1,1,0,0,0
10764000,0,0.0,0.0,0.0,0.0,0.0367831,-7.21641e-07,-3.36885e-09,0.0,-0.00646159,-0.0078101,-0.000525977,0.0115313,-0.00018041,-8.42212e-07,0.0,-0.00139663,-0.0740995,0.00882254,-0.0372411,0.0,0.10249,0.000525977,0.147001,0.305053,0.15366,0.161363,inf,inf,inf,inf,0,1,0,1,1,0,1,1,0,0,0
10868000,0,0.0,0.0,0.0,0.0,0.0375135,-7.21641e-07,-3.36885e-09,0.0,-0.00595952,-0.00732895,-0.00231372,0.00908771,-0.00018041,-8.42212e-07,0.0,-0.0162455,0.0294241,-0.0137032,-0.0370254,0.0,0.1,0.00231372,0.14468,0.301659,0.150656,0.158322,inf,inf,inf,inf,0,1,0,1,1,0,1,1,0,0,0
10964000,0,0.0,0.0,0.0,0.0,0.0361616,-7.21641e-07,-3.36885e-09,0.0,-0.0070378,-0.00636456,-0.0025819,0.00641422,-0.00018041,-8.42212e-07,0.0,-0.00143628,-0.00451027,0.0542777,-0.0369962,0.0,0.1,0.0025819,0.144497,0.300715,0.149376,0.156401,inf,inf,inf,inf,0,1,0,1,1,0,1,1,0,0,0
11068000,0,0.0,0.0,0.0,0.0,0.034608,-7.21641e-07,-3.36885e-09,0.0,-0.00480515,-0.0043509,-0.0049593,0.00183818,-0.00018041,-8.42212e-07,0.0,-0.059,0.0106307,0.00122941,-0.0366834,0.0,0.1,0.0049593,0.145338,0.300842,0.148807,0.154797,inf,inf,inf,inf,0,1,0,1,1,0,1,1,0,0,0
11172000,0,0.0,0.0,0.0,0.0,0.033113,-7.21641e-07,-3.36885e-09,0.0,-0.00534789,-0.00273854,-0.0052123,-0.000117948,-0.00018041,-8.42212e-07,0.0,-0.000352123,-0.00651937,0.0222146,-0.0367094,0.0,0.1,0.0052123,0.143094,0.297573,0.146013,0.151978,inf,inf,inf,inf,0,1,0,1,1,0,1,1,0,0,0
11268000,0,0.0,0.0,0.0,0.0,0.0319017,-7.21641e-07,-3.36885e-09,0.0,-0.00626108,-0.00041271,-0.00427004,-0.000406892,-0.00018041,-8.42212e-07,0.0,0.0369891,-0.0300907,0.0431565,-0.0369692,0.0,0.1,0.00427004,0.142956,0.296678,0.144895,0.150211,inf,inf,inf,inf,0,1,0,1,1,0,1,1,0,0,0
11364000,0,0.0,0.0,0.0,0.0,0.0310852,-7.21641e-07,-3.36885e-09,0.0,-0.00527409,0.000264866,-0.00409479,-0.00102929,-0.00018041,-8.42212e-07,0.0,-0.0325706,-0.0645224,-0.0791268,-0.0368555,0.0,0.100072,0.00409479,0.142804,0.295781,0.143795,0.148482,inf,inf,inf,inf,0,1,0,1,1,0,1,1,0,0,0
11468000,0,0.0,0.0,0.0,0.0,0.0310193,-7.21641e-07,-3.36885e-09,0.0,-0.00364028,0.00190454,-0.00204056,0.00104401,-0.00018041,-8.42212e-07,0.0,-0.00559054,-0.0221651,0.0271365,-0.0368317,0.0,0.101193,0.00204056,0.143561,0.295858,0.143233,0.147021,inf,inf,inf,inf,0,1,0,1,1,0,1,1,0,0,0
11564000,0,0.0,0.0,0.0,0.0,0.0306653,-7.21641e-07,-3.36885e-09,0.0,-0.00313845,0.00254497,-0.00261554,9.0985e-05,-0.00018041,-8.42212e-07,0.0,0.0235269,0.0368749,0.019318,-0.0366844,0.0,0.100147,0.00261554,0.140562,0.291815,0.140209,0.144254,inf,inf,inf,inf,0,1,0,1,1,0,1,1,0,0,0
11668000,0,0.0,0.0,0.0,0.0,0.0305715,-7.21641e-07,-3.36885e-09,0.0,-0.00249297,0.00466244,-0.00361952,-0.000918837,-0.00018041,-8.42212e-07,0.0,-0.0246186,-0.0333257,-0.00848382,-0.0366557,0.0,0.1,0.00361952,0.141352,0.291923,0.139771,0.14289,inf,inf,inf,inf,0,1,0,1,1,0,1,1,0,0,0
11764000,0,0.0,0.0,0.0,0.0,0.0307197,-7.21641e-07,-3.36885e-09,0.0,-0.000162497,0.00637455,-0.00455469,-0.001582,-0.00018041,-8.42212e-07,0.0,0.0353907,-0.0372146,-0.00118536,-0.0365923,0.0,0.101386,0.00455469,0.141162,0.291035,0.138761,0.141315,inf,inf,inf,inf,0,1,0,1,1,0,1,1,0,0,0
11868000,0,0.0,0.0,0.0,0.0,0.0311436,-7.21641e-07,-3.36885e-09,0.0,-0.000344137,0.00934636,-0.00326696,0.000225404,-0.00018041,-8.42212e-07,0.0,0.0931973,0.0763172,0.00775064,-0.0362662,0.0,0.101712,0.00326696,0.139219,0.288119,0.136541,0.138981,inf,inf,inf,inf,0,1,0,1,1,0,1,1,0,0,0
11964000,0,0.0,0.0,0.0,0.0,0.0309217,-7.21641e-07,-3.36885e-09,0.0,-0.000702165,0.0105493,-0.00376585,-0.000516844,-0.00018041,-8.42212e-07,0.0,0.0692098,-0.000542629,0.0453799,-0.0363211,0.0,0.100589,0.00376585,0.139087,0.287289,0.135651,0.137505,inf,inf,inf,inf,0,1,0,1,1,0,1,1,0,0,0
12068000,0,0.0,0.0,0.0,0.0,0.0314518,-7.21641e-07,-3.36885e-09,0.0,-0.00233237,0.0108008,-0.00194478,0.001721,-0.00018041,-8.42212e-07,0.0,-0.0446699,-0.0148108,-0.058606,-0.0366991,0.0,0.101653,0.00194478,0.139851,0.287381,0.135305,0.136279,inf,inf,inf,inf,0,1,0,1,1,0,1,1,0,0,0
12164000,0,0.0,0.0,0.0,0.0,0.0317686,-7.21641e-07,-3.36885e-09,0.0,-0.00188843,0.0112294,-0.00120492,0.00256314,-0.00018041,-8.42212e-07,0.0,-0.0316596,-0.0489808,0.0471702,-0.0365095,0.0,0.100594,0.00120492,0.139771,0.286583,0.134507,0.134887,inf,inf,inf,inf,0,1,0,1,1,0,1,1,0,0,0
12268000,0,0.0,0.0,0.0,0.0,0.031769,-7.21641e-07,-3.36885e-09,0.0,0.000176416,0.0109822,-0.000775945,0.002655,-0.00018041,-8.42212e-07,0.0,-0.00147644,0.0496826,-0.00707765,-0.0366735,0.0,0.1,0.000775945,0.137843,0.28377,0.13242,0.132769,inf,inf,inf,inf,0,1,0,1,1,0,1,1,0,0,0
12364000,0,0.0,0.0,0.0,0.0,0.0316087,-7.21641e-07,-3.36885e-09,0.0,0.000631742,0.0114227,0.000132025,0.00307413,-0.00018041,-8.42212e-07,0.0,-0.0068928,-0.0129996,-0.00749653,-0.0368182,0.0,0.1,-0.000132025,0.137752,0.282992,0.131655,0.131464,inf,inf,inf,inf,0,1,0,1,1,0,1,1,0,0,0
12468000,0,0.0,0.0,0.0,0.0,0.0314715,-7.21641e-07,-3.36885e-09,0.0,0.000876339,0.0115879,0.00128947,0.00368859,-0.00018041,-8.42212e-07,0.0,0.0546414,0.0156979,-0.0210694,-0.0369026,0.0,0.1,-0.00128947,0.138554,0.28311,0.131458,0.13041,inf,inf,inf,inf,0,1,0,1,1,0,1,1,0,0,0
12564000,0,0.0,0.0,0.0,0.0,0.0299755,-7.21641e-07,-3.36885e-09,0.0,0.00185838,0.0114549,0.00118471,0.0017439,-0.00018041,-8.42212e-07,0.0,-0.0538222,-0.0288176,0.00381614,-0.0366752,0.0,0.1,-0.00118471,0.138442,0.282327,0.130713,0.129181,inf,inf,inf,inf,0,1,0,1,1,0,1,1,0,0,0
12668000,0,0.0,0.0,0.0,0.0,0.0277828,-7.21641e-07,-3.36885e-09,0.0,0.00222892,0.011933,0.000268313,-0.0013837,-0.00018041,-8.42212e-07,0.0,0.0353014,0.0732722,-0.024707,-0.0365239,0.0,0.1,-0.000268313,0.136635,0.27967,0.128862,0.127317,inf,inf,inf,inf,0,1,0,1,1,0,1,1,0,0,0
12772000,0,0.0,0.0,0.0,0.0,0.0248844,-7.21641e-07,-3.36885e-09,0.0,0.00281757,0.0117325,-0.00253585,-0.00664264,-0.00018041,-8.42212e-07,0.0,0.0704683,0.0203491,0.0606556,-0.036567,0.0,0.1,0.00253585,0.137426,0.27979,0.128727,0.126395,inf,inf,inf,inf,0,1,0,1,1,0,1,1,0,0,0
12868000,0,0.0,0.0,0.0,0.0,0.022736,-7.21641e-07,-3.36885e-09,0.0,0.00313488,0.0109031,-0.00207176,-0.00753091,-0.00018041,-8.42212e-07,0.0,-0.00307771,0.0183805,0.0188097,-0.0367108,0.0,0.1,0.00207176,0.137327,0.279044,0.128077,0.125308,inf,inf,inf,inf,0,1,0,1,1,0,1,1,0,0,0
12964000,0,0.0,0.0,0.0,0.0,0.0222455,-7.21641e-07,-3.36885e-09,0.0,0.000499789,0.0112794,-0.00339883,-0.00838315,-0.00018041,-8.42212e-07,0.0,-0.0376932,0.0267003,-0.0781037,-0.0365371,0.0,0.103027,0.00339883,0.134772,0.275679,0.125907,0.123448,inf,inf,inf,inf,0,1,0,1,1,0,1,1,0,0,0
13068000,0,0.0,0.0,0.0,0.0,0.0227647,-7.21641e-07,-3.36885e-09,0.0,0.000181953,0.0111314,-0.00160134,-0.00512232,-0.00018041,-8.42212e-07,0.0,0.00804331,-0.0154013,-0.0054222,-0.036661,0.0,0.103168,0.00160134,0.135555,0.275814,0.125826,0.122666,inf,inf,inf,inf,0,1,0,1,1,0,1,1,0,0,0
13164000,0,0.0,0.0,0.0,0.0,0.0246178,-7.21641e-07,-3.36885e-09,0.0,0.000956451,0.0107553,0.00126561,5.8744e-05,-0.00018041,-8.42212e-07,0.0,0.0681761,-0.00298496,0.0322538,-0.0368686,0.0,0.105413,-0.00126561,0.135475,0.275115,0.125258,0.121726,inf,inf,inf,inf,0,1,0,1,1,0,1,1,0,0,0
13268000,0,0.0,0.0,0.0,0.0,0.0281644,-7.21641e-07,-3.36885e-09,0.0,0.000653312,0.0127724,0.0034831,0.00570359,-0.00018041,-8.42212e-07,0.0,0.005577,0.0382095,0.0341187,-0.0369319,0.0,0.108662,-0.0034831,0.133841,0.272704,0.123693,0.120256,inf,inf,inf,inf,0,1,0,1,1,0,1,1,0,0,0
13364000,0,0.0,0.0,0.0,0.0,0.0311326,-7.21641e-07,-3.36885e-09,0.0,0.00310725,0.0111451,0.00228598,0.00687828,-0.00018041,-8.42212e-07,0.0,0.0310702,-0.00340981,0.0336862,-0.0371213,0.0,0.105076,-0.00228598,0.133807,0.272062,0.123186,0.119425,inf,inf,inf,inf,0,1,0,1,1,0,1,1,0,0,0
13468000,0,0.0,0.0,0.0,0.0,0.0330511,-7.21641e-07,-3.36885e-09,0.0,0.0021906,0.0124572,0.00293235,0.00850785,-0.00018041,-8.42212e-07,0.0,-0.0261142,0.00224248,0.00276563,-0.0375562,0.0,0.100494,-0.00293235,0.134578,0.272216,0.123164,0.118826,inf,inf,inf,inf,0,1,0,1,1,0,1,1,0,0,0
13564000,0,0.0,0.0,0.0,0.0,0.0346158,-7.21641e-07,-3.36885e-09,0.0,0.00248386,0.0124645,0.0033694,0.00952635,-0.00018041,-8.42212e-07,0.0,-0.0501152,0.0417448,0.0525907,-0.0375834,0.0,0.10157,-0.0033694,0.134591,0.271615,0.122748,0.118093,inf,inf,inf,inf,0,1,0,1,1,0,1,1,0,0,0
13668000,0,0.0,0.0,0.0,0.0,0.0365048,-7.21641e-07,-3.36885e-09,0.0,0.00251801,0.0138347,0.00318792,0.0100841,-0.00018041,-8.42212e-07,0.0,-0.0304085,0.117826,-0.0324306,-0.0375272,0.0,0.100269,-0.00318792,0.132961,0.269312,0.12128,0.11685,inf,inf,inf,inf,0,1,0,1,1,0,1,1,0,0,0
13764000,0,0.0,0.0,0.0,0.0,0.0381695,-7.21641e-07,-3.36885e-09,0.0,0.001254,0.0142573,0.00464234,0.0120705,-0.00018041,-8.42212e-07,0.0,0.0516471,0.0471663,0.0221188,-0.0370797,0.0,0.103087,-0.00464234,0.132964,0.268742,0.12088,0.116208,inf,inf,inf,inf,0,1,0,1,1,0,1,1,0,0,0
13868000,0,0.0,0.0,0.0,0.0,0.0406272,-7.21641e-07,-3.36885e-09,0.0,0.00273897,0.0143341,0.0035339,0.0120788,-0.00018041,-8.42212e-07,0.0,0.066038,-0.0141798,0.0320808,-0.0370224,0.0,0.102561,-0.0035339,0.13378,0.268959,0.120968,0.1158,inf,inf,inf,inf,0,1,0,1,1,0,1,1,0,0,0
13964000,0,0.0,0.0,0.0,0.0,0.0432179,-7.21641e-07,-3.36885e-09,0.0,0.00478979,0.0137957,0.0049704,0.0146522,-0.00018041,-8.42212e-07,0.0,-0.00666391,0.0133062,-0.0402526,-0.037058,0.0,0.102158,-0.0049704,0.13377,0.268407,0.120575,0.115238,inf,inf,inf,inf,0,1,0,1,1,0,1,1,0,0,0
14068000,0,0.0,0.0,0.0,0.0,0.0443236,-7.21641e-07,-3.36885e-09,0.0,0.00492726,0.0130794,0.00483754,0.0139581,-0.00018041,-8.42212e-07,0.0,0.0341745,0.0497318,-0.020184,-0.0370519,0.0,0.1,-0.00483754,0.13223,0.266259,0.119251,0.114226,inf,inf,inf,inf,0,1,0,1,1,0,1,1,0,0,0
14164000,0,0.0,0.0,0.0,0.0,0.0450578,-7.21641e-07,-3.36885e-09,0.0,0.00586453,0.0130242,0.00279074,0.0112646,-0.00018041,-8.42212e-07,0.0,-0.00973001,-0.0356639,0.00509833,-0.0372552,0.0,0.1,-0.00279074,0.132263,0.26577,0.118933,0.11376,inf,inf,inf,inf,0,1,0,1,1,0,1,1,0,0,0
14268000,0,0.0,0.0,0.0,0.0,0.0455819,-7.21641e-07,-3.36885e-09,0.0,0.00631692,0.0130334,0.000811782,0.00864048,-0.00018041,-8.42212e-07,0.0,0.0186044,-0.0613787,0.00944729,-0.037151,0.0,0.1,-0.000811782,0.133042,0.266022,0.119032,0.113513,inf,inf,inf,inf,0,1,0,1,1,0,1,1,0,0,0
14364000,0,0.0,0.0,0.0,0.0,0.044188,-7.21641e-07,-3.36885e-09,0.0,0.00612587,0.0123288,-0.000784485,0.00485384,-0.00018041,-8.42212e-07,0.0,-0.0403384,-0.077796,0.0110325,-0.0375211,0.0,0.1,0.000784485,0.130798,0.263261,0.117392,0.112472,inf,inf,inf,inf,0,1,0,1,1,0,1,1,0,0,0
14468000,0,0.0,0.0,0.0,0.0,0.04211,-7.21641e-07,-3.36885e-09,0.0,0.00804874,0.0133976,-0.00200249,0.00112318,-0.00018041,-8.42212e-07,0.0,0.0755404,0.0379145,-0.0186785,-0.037564,0.0,0.1,0.00200249,0.131606,0.263565,0.11755,0.112313,inf,inf,inf,inf,0,1,0,1,1,0,1,1,0,0,0
14564000,0,0.0,0.0,0.0,0.0,0.0392292,-7.21641e-07,-3.36885e-09,0.0,0.00852935,0.0132421,-0.00216559,-0.001937,-0.00018041,-8.42212e-07,0.0,-0.00619925,0.0286261,-0.0138677,-0.0372219,0.0,0.1,0.00216559,0.131619,0.263141,0.117257,0.111995,inf,inf,inf,inf,0,1,0,1,1,0,1,1,0,0,0
14668000,0,0.0,0.0,0.0,0.0,0.0366514,-7.21641e-07,-3.36885e-09,0.0,0.00828239,0.0119423,-0.00279487,-0.00475297,-0.00018041,-8.42212e-07,0.0,-0.00423016,0.0491299,0.0247056,-0.0373347,0.0,0.1,0.00279487,0.130207,0.261237,0.116117,0.111285,inf,inf,inf,inf,0,1,0,1,1,0,1,1,0,0,0
14764000,0,0.0,0.0,0.0,0.0,0.0344711,-7.21641e-07,-3.36885e-09,0.0,0.00927049,0.0132869,-0.00188485,-0.00544168,-0.00018041,-8.42212e-07,0.0,0.115636,0.0584223,0.0231844,-0.0372343,0.0,0.1,0.00188485,0.130258,0.260877,0.115862,0.111045,inf,inf,inf,inf,0,1,0,1,1,0,1,1,0,0,0
14868000,0,0.0,0.0,0.0,0.0,0.0336162,-7.21641e-07,-3.36885e-09,0.0,0.0109954,0.0135821,-0.00123326,-0.00495272,-0.00018041,-8.42212e-07,0.0,0.0382086,-0.0193432,0.0193034,-0.036921,0.0,0.101137,0.00123326,0.131059,0.261248,0.11604,0.111024,inf,inf,inf,inf,0,1,0,1,1,0,1,1,0,0,0
14964000,0,0.0,0.0,0.0,0.0,0.03332,-7.21641e-07,-3.36885e-09,0.0,0.0115164,0.0134469,-0.00128552,-0.00467438,-0.00018041,-8.42212e-07,0.0,0.0358926,-0.0653077,0.0450074,-0.0368148,0.0,0.1,0.00128552,0.13115,0.260944,0.115831,0.110852,inf,inf,inf,inf,0,1,0,1,1,0,1,1,0,0,0
15068000,0,0.0,0.0,0.0,0.0,0.0333568,-7.21641e-07,-3.36885e-09,0.0,0.0114508,0.0148437,-0.00253088,-0.00525981,-0.00018041,-8.42212e-07,0.0,-0.0047449,0.00833547,-0.0186317,-0.0363327,0.0,0.100346,0.00253088,0.129725,0.259153,0.114722,0.110287,inf,inf,inf,inf,0,1,0,1,1,0,1,1,0,0,0
15164000,0,0.0,0.0,0.0,0.0,0.0324565,-7.21641e-07,-3.36885e-09,0.0,0.0111863,0.0147213,-0.00317882,-0.00625004,-0.00018041,-8.42212e-07,0.0,-0.0409512,-0.0121511,-0.0573277,-0.0360537,0.0,0.1,0.00317882,0.129803,0.25889,0.114533,0.110171,inf,inf,inf,inf,0,1,0,1,1,0,1,1,0,0,0
15268000,0,0.0,0.0,0.0,0.0,0.0301685,-7.21641e-07,-3.36885e-09,0.0,0.0106167,0.0134558,-0.00565701,-0.0101413,-0.00018041,-8.42212e-07,0.0,0.00520822,-0.00562352,-0.0222671,-0.0360312,0.0,0.1,0.00565701,0.130643,0.25936,0.114782,0.110274,inf,inf,inf,inf,0,1,0,1,1,0,1,1,0,0,0
15364000,0,0.0,0.0,0.0,0.0,0.027676,-7.21641e-07,-3.36885e-09,0.0,0.0107088,0.010222,-0.00788153,-0.0136894,-0.00018041,-8.42212e-07,0.0,0.0822938,-0.0496151,-0.0915662,-0.0358739,0.0,0.1,0.00788153,0.130709,0.25913,0.114604,0.110203,inf,inf,inf,inf,0,1,0,1,1,0,1,1,0,0,0
15468000,0,0.0,0.0,0.0,0.0,0.0255345,-7.21641e-07,-3.36885e-09,0.0,0.0111571,0.00916216,-0.00905725,-0.0153942,-0.00018041,-8.42212e-07,0.0,0.0414277,-0.0301319,-0.000205787,-0.0362656,0.0,0.101762,0.00905725,0.12935,0.257485,0.113597,0.10977,inf,inf,inf,inf,0,1,0,1,1,0,1,1,0,0,0
15564000,0,0.0,0.0,0.0,0.0,0.0242453,-7.21641e-07,-3.36885e-09,0.0,0.0127365,0.00650371,-0.00964809,-0.0156771,-0.00018041,-8.42212e-07,0.0,-0.0183548,-0.0493297,-0.00875385,-0.0360795,0.0,0.1,0.00964809,0.129451,0.257318,0.113462,0.109753,inf,inf,inf,inf,0,1,0,1,1,0,1,1,0,0,0
15668000,0,0.0,0.0,0.0,0.0,0.0227456,-7.21641e-07,-3.36885e-09,0.0,0.0142117,0.0054199,-0.00920084,-0.0149923,-0.00018041,-8.42212e-07,0.0,-0.0292319,0.0171305,0.00327124,-0.0363622,0.0,0.101638,0.00920084,0.13026,0.257856,0.113707,0.10994,inf,inf,inf,inf,0,1,0,1,1,0,1,1,0,0,0
15764000,0,0.0,0.0,0.0,0.0,0.0211858,-7.21641e-07,-3.36885e-09,0.0,0.0147696,0.00458641,-0.00728353,-0.0132147,-0.00018041,-8.42212e-07,0.0,0.024477,-0.0273907,-0.0137378,-0.0361463,0.0,0.100239,0.00728353,0.128217,0.255621,0.112353,0.109394,inf,inf,inf,inf,0,1,0,1,1,0,1,1,0,0,0
15868000,0,0.0,0.0,0.0,0.0,0.0198051,-7.21641e-07,-3.36885e-09,0.0,0.0154522,0.00288222,-0.00768102,-0.0134875,-0.00018041,-8.42212e-07,0.0,0.029832,-0.0499201,0.0247013,-0.0362259,0.0,0.1,0.00768102,0.129049,0.256214,0.112623,0.109626,inf,inf,inf,inf,0,1,0,1,1,0,1,1,0,0,0
15964000,0,0.0,0.0,0.0,0.0,0.0185662,-7.21641e-07,-3.36885e-09,0.0,0.0160966,0.0014824,-0.00816153,-0.0138124,-0.00018041,-8.42212e-07,0.0,0.0288939,0.00188406,-0.0375242,-0.0361014,0.0,0.1,0.00816153,0.129125,0.256119,0.112473,0.109674,inf,inf,inf,inf,0,1,0,1,1,0,1,1,0,0,0
16068000,0,0.0,0.0,0.0,0.0,0.0169646,-7.21641e-07,-3.36885e-09,0.0,0.0171749,-0.00173945,-0.00818555,-0.0138858,-0.00018041,-8.42212e-07,0.0,0.0547489,0.0556318,0.0427711,-0.0359731,0.0,0.101513,0.00818555,0.127855,0.25468,0.111576,0.109382,inf,inf,inf,inf,0,1,0,1,1,0,1,1,0,0,0
16164000,0,0.0,0.0,0.0,0.0,0.0157631,-7.21641e-07,-3.36885e-09,0.0,0.0174392,-0.00237096,-0.00885271,-0.014278,-0.00018041,-8.42212e-07,0.0,0.0529962,-0.0471512,-0.00960744,-0.0358244,0.0,0.102419,0.00885271,0.127962,0.254642,0.111471,0.109464,inf,inf,inf,inf,0,1,0,1,1,0,1,1,0,0,0
16268000,0,0.0,0.0,0.0,0.0,0.0161316,-7.21641e-07,-3.36885e-09,0.0,0.0164955,-0.00141739,-0.0073318,-0.0109221,-0.00018041,-8.42212e-07,0.0,-0.0303385,0.0266246,0.0270249,-0.0357124,0.0,0.104073,0.0073318,0.128786,0.255312,0.111764,0.10975,inf,inf,inf,inf,0,1,0,1,1,0,1,1,0,0,0
16372000,0,0.0,0.0,0.0,0.0,0.0165084,-7.21641e-07,-3.36885e-09,0.0,0.0152267,-0.00160728,-0.00570856,-0.00783543,-0.00018041,-8.42212e-07,0.0,-0.000503163,-0.00363943,0.0327095,-0.0354729,0.0,0.104144,0.00570856,0.127528,0.25395,0.110889,0.109501,inf,inf,inf,inf,0,1,0,1,1,0,1,1,0,0,0
16468000,0,0.0,0.0,0.0,0.0,0.0170022,-7.21641e-07,-3.36885e-09,0.0,0.0168,-0.00216729,-0.00561239,-0.00653169,-0.00018041,-8.42212e-07,0.0,0.0106299,0.00224062,-0.0410633,-0.0356881,0.0,0.104008,0.00561239,0.127638,0.25397,0.110794,0.109614,inf,inf,inf,inf,0,1,0,1,1,0,1,1,0,0,0
16564000,0,0.0,0.0,0.0,0.0,0.018319,-7.21641e-07,-3.36885e-09,0.0,0.0177188,-0.00309997,-0.00460073,-0.00366137,-0.00018041,-8.42212e-07,0.0,0.0100984,0.0223199,-0.0205768,-0.0356211,0.0,0.105986,0.00460073,0.127766,0.254016,0.110721,0.109739,inf,inf,inf,inf,0,1,0,1,1,0,1,1,0,0,0
16668000,0,0.0,0.0,0.0,0.0,0.0199889,-7.21641e-07,-3.36885e-09,0.0,0.019283,-0.00506393,-0.00499227,-0.00206262,-0.00018041,-8.42212e-07,0.0,0.0328341,-0.00452522,-0.0131701,-0.0352456,0.0,0.105434,0.00499227,0.128626,0.254779,0.111061,0.11007,inf,inf,inf,inf,0,1,0,1,1,0,1,1,0,0,0
16764000,0,0.0,0.0,0.0,0.0,0.0209603,-7.21641e-07,-3.36885e-09,0.0,0.0184801,-0.00370864,-0.00588,-0.00183502,-0.00018041,-8.42212e-07,0.0,-0.0111318,0.0205219,-0.0288946,-0.0353974,0.0,0.103391,0.00588,0.128742,0.254853,0.110987,0.110205,inf,inf,inf,inf,0,1,0,1,1,0,1,1,0,0,0
16868000,0,0.0,0.0,0.0,0.0,0.0218174,-7.21641e-07,-3.36885e-09,0.0,0.0180108,-0.00609299,-0.00477568,0.000157088,-0.00018041,-8.42212e-07,0.0,0.0744238,-0.0149184,0.0325886,-0.0357257,0.0,0.103249,0.00477568,0.127495,0.253595,0.110161,0.109995,inf,inf,inf,inf,0,1,0,1,1,0,1,1,0,0,0
16964000,0,0.0,0.0,0.0,0.0,0.0209006,-7.21641e-07,-3.36885e-09,0.0,0.0187514,-0.00755551,-0.00413721,-0.000300032,-0.00018041,-8.42212e-07,0.0,0.0449044,-0.0329397,-0.0392453,-0.0359545,0.0,0.1,0.00413721,0.127641,0.253715,0.110119,0.110145,inf,inf,inf,inf,0,1,0,1,1,0,1,1,0,0,0
17068000,0,0.0,0.0,0.0,0.0,0.0191241,-7.21641e-07,-3.36885e-09,0.0,0.0203275,-0.00752522,-0.0037356,-0.00173757,-0.00018041,-8.42212e-07,0.0,0.0164172,0.0079768,-0.00297308,-0.0359824,0.0,0.1,0.0037356,0.128469,0.254529,0.110438,0.110488,inf,inf,inf,inf,0,1,0,1,1,0,1,1,0,0,0
17164000,0,0.0,0.0,0.0,0.0,0.0178824,-7.21641e-07,-3.36885e-09,0.0,0.0200302,-0.00723751,-0.0037974,-0.00285638,-0.00018041,-8.42212e-07,0.0,-0.0203024,-0.00461944,-0.00643114,-0.0356844,0.0,0.1,0.0037974,0.126552,0.252643,0.10925,0.110097,inf,inf,inf,inf,0,1,0,1,1,0,1,1,0,0,0
17268000,0,0.0,0.0,0.0,0.0,0.0173436,-7.21641e-07,-3.36885e-09,0.0,0.0204948,-0.00539916,-0.00467452,-0.00387318,-0.00018041,-8.42212e-07,0.0,0.0752049,-0.00720769,0.00194451,-0.0359378,0.0,0.100703,0.00467452,0.127399,0.253496,0.109605,0.110449,inf,inf,inf,inf,0,1,0,1,1,0,1,1,0,0,0
17364000,0,0.0,0.0,0.0,0.0,0.017582,-7.21641e-07,-3.36885e-09,0.0,0.021332,-0.00440727,-0.00324129,-0.00186123,-0.00018041,-8.42212e-07,0.0,-0.0321495,0.0256497,0.00590874,-0.0358249,0.0,0.103698,0.00324129,0.127516,0.253655,0.109552,0.1106,inf,inf,inf,inf,0,1,0,1,1,0,1,1,0,0,0
17468000,0,0.0,0.0,0.0,0.0,0.0181417,-7.21641e-07,-3.36885e-09,0.0,0.0220078,-0.0020227,-0.00241485,-0.00031871,-0.00018041,-8.42212e-07,0.0,0.0249524,-0.0130894,0.0173085,-0.0360035,0.0,0.101351,0.00241485,0.126337,0.252517,0.108794,0.110412,inf,inf,inf,inf,0,1,0,1,1,0,1,1,0,0,0
17564000,0,0.0,0.0,0.0,0.0,0.0182145,-7.21641e-07,-3.36885e-09,0.0,0.0215139,-0.00185604,-0.00136283,0.000758738,-0.00018041,-8.42212e-07,0.0,0.0616922,0.0436525,0.0442631,-0.0359878,0.0,0.1,0.00136283,0.126481,0.252712,0.108764,0.110568,inf,inf,inf,inf,0,1,0,1,1,0,1,1,0,0,0
17668000,0,0.0,0.0,0.0,0.0,0.0172866,-7.21641e-07,-3.36885e-09,0.0,0.0219762,-0.000908779,-0.000965164,9.30155e-05,-0.00018041,-8.42212e-07,0.0,0.0392846,-0.00976788,-0.0348896,-0.0357812,0.0,0.1,0.000965164,0.12732,0.25361,0.109111,0.110918,inf,inf,inf,inf,0,1,0,1,1,0,1,1,0,0,0
17764000,0,0.0,0.0,0.0,0.0,0.0166731,-7.21641e-07,-3.36885e-09,0.0,0.0218243,-0.000545602,-7.23445e-05,0.000331199,-0.00018041,-8.42212e-07,0.0,-0.0130736,-0.0214482,0.0058372,-0.0353366,0.0,0.100839,7.23445e-05,0.127498,0.253842,0.109112,0.111078,inf,inf,inf,inf,0,1,0,1,1,0,1,1,0,0,0
17868000,0,0.0,0.0,0.0,0.0,0.0167931,-7.21641e-07,-3.36885e-09,0.0,0.0193047,0.000322247,-0.00253577,-0.00194008,-0.00018041,-8.42212e-07,0.0,0.0391281,-0.00544837,-0.0255313,-0.0356405,0.0,0.101102,0.00253577,0.126286,0.252726,0.108334,0.110874,inf,inf,inf,inf,0,1,0,1,1,0,1,1,0,0,0
17964000,0,0.0,0.0,0.0,0.0,0.0164991,-7.21641e-07,-3.36885e-09,0.0,0.0167454,-0.000167366,-0.00414449,-0.00358648,-0.00018041,-8.42212e-07,0.0,0.00366212,-0.0339458,-0.0486714,-0.0357569,0.0,0.100164,0.00414449,0.126446,0.252964,0.108334,0.111025,inf,inf,inf,inf,0,1,0,1,1,0,1,1,0,0,0
18068000,0,0.0,0.0,0.0,0.0,0.0163651,-7.21641e-07,-3.36885e-09,0.0,0.0152458,0.00127346,-0.00393824,-0.00310326,-0.00018041,-8.42212e-07,0.0,0.0226825,0.0224781,0.035813,-0.0356895,0.0,0.102164,0.00393824,0.127318,0.253918,0.108736,0.111374,inf,inf,inf,inf,0,1,0,1,1,0,1,1,0,0,0
18164000,0,0.0,0.0,0.0,0.0,0.0163074,-7.21641e-07,-3.36885e-09,0.0,0.0147246,0.00326069,-0.0043875,-0.00333793,-0.00018041,-8.42212e-07,0.0,0.0504327,0.0335879,0.0070733,-0.035816,0.0,0.101381,0.0043875,0.127466,0.254164,0.108733,0.111517,inf,inf,inf,inf,0,1,0,1,1,0,1,1,0,0,0
18268000,0,0.0,0.0,0.0,0.0,0.0157226,-7.21641e-07,-3.36885e-09,0.0,0.0137991,0.00414203,-0.00503667,-0.00415333,-0.00018041,-8.42212e-07,0.0,0.0131846,-0.0449494,-0.00662683,-0.0361011,0.0,0.103849,0.00503667,0.126293,0.25309,0.107994,0.111304,inf,inf,inf,inf,0,1,0,1,1,0,1,1,0,0,0
18372000,0,0.0,0.0,0.0,0.0,0.0176493,-7.21641e-07,-3.36885e-09,0.0,0.0144058,0.0053651,-0.0056348,-0.00238232,-0.00018041,-8.42212e-07,0.0,0.0323035,-0.0249161,-0.0182074,-0.0364444,0.0,0.108902,0.0056348,0.127159,0.254061,0.108393,0.111642,inf,inf,inf,inf,0,1,0,1,1,0,1,1,0,0,0
18468000,0,0.0,0.0,0.0,0.0,0.0198903,-7.21641e-07,-3.36885e-09,0.0,0.0128631,0.0061537,-0.00521135,0.000360826,-0.00018041,-8.42212e-07,0.0,-0.0803622,0.00477677,-0.0368811,-0.0363641,0.0,0.106392,0.00521135,0.127306,0.254322,0.108387,0.111773,inf,inf,inf,inf,0,1,0,1,1,0,1,1,0,0,0
18564000,0,0.0,0.0,0.0,0.0,0.0220931,-7.21641e-07,-3.36885e-09,0.0,0.0108583,0.00597116,-0.00275834,0.00471566,-0.00018041,-8.42212e-07,0.0,-0.0151943,0.0197196,-0.00771758,-0.0363607,0.0,0.106626,0.00275834,0.12547,0.252567,0.107315,0.111352,inf,inf,inf,inf,0,1,0,1,1,0,1,1,0,0,0
18668000,0,0.0,0.0,0.0,0.0,0.0242105,-7.21641e-07,-3.36885e-09,0.0,0.00856068,0.00599587,-0.00251484,0.00634196,-0.00018041,-8.42212e-07,0.0,-0.0281662,-0.0277618,-0.0227707,-0.0364754,0.0,0.10566,0.00251484,0.126327,0.253547,0.107702,0.111676,inf,inf,inf,inf,0,1,0,1,1,0,1,1,0,0,0
18764000,0,0.0,0.0,0.0,0.0,0.0259307,-7.21641e-07,-3.36885e-09,0.0,0.00784261,0.00484135,-0.00195735,0.00781472,-0.00018041,-8.42212e-07,0.0,0.059693,-0.106122,0.0433695,-0.0363553,0.0,0.101022,0.00195735,0.126471,0.253814,0.107689,0.111794,inf,inf,inf,inf,0,1,0,1,1,0,1,1,0,0,0
18868000,0,0.0,0.0,0.0,0.0,0.0264537,-7.21641e-07,-3.36885e-09,0.0,0.00714532,0.00342353,-0.00141674,0.00784799,-0.00018041,-8.42212e-07,0.0,0.0614319,-0.0195335,-0.0218249,-0.0366709,0.0,0.1,0.00141674,0.125349,0.252778,0.107017,0.111557,inf,inf,inf,inf,0,1,0,1,1,0,1,1,0,0,0
18964000,0,0.0,0.0,0.0,0.0,0.0252819,-7.21641e-07,-3.36885e-09,0.0,0.00522957,0.00305031,-0.00265999,0.00462436,-0.00018041,-8.42212e-07,0.0,-0.0220524,0.032322,-0.00188557,-0.0366541,0.0,0.1,0.00265999,0.125516,0.253059,0.107031,0.111671,inf,inf,inf,inf,0,1,0,1,1,0,1,1,0,0,0
19068000,0,0.0,0.0,0.0,0.0,0.0248,-7.21641e-07,-3.36885e-09,0.0,0.00303622,0.00396743,-0.00278797,0.00349959,-0.00018041,-8.42212e-07,0.0,-0.0419352,-0.076259,-0.0070137,-0.03648,0.0,0.1,0.00278797,0.126364,0.254045,0.107418,0.111976,inf,inf,inf,inf,0,1,0,1,1,0,1,1,0,0,0
19164000,0,0.0,0.0,0.0,0.0,0.0245889,-7.21641e-07,-3.36885e-09,0.0,0.00213578,0.00222056,-0.00151374,0.00410765,-0.00018041,-8.42212e-07,0.0,0.0741757,0.0399068,0.0078771,-0.0366005,0.0,0.1,0.00151374,0.126563,0.254346,0.10747,0.112089,inf,inf,inf,inf,0,1,0,1,1,0,1,1,0,0,0
19268000,0,0.0,0.0,0.0,0.0,0.0233786,-7.21641e-07,-3.36885e-09,0.0,0.00142143,-0.000246365,-0.00207203,0.0018906,-0.00018041,-8.42212e-07,0.0,0.0270262,-0.0365648,-0.011951,-0.036247,0.0,0.1,0.00207203,0.125404,0.253287,0.10676,0.111822,inf,inf,inf,inf,0,1,0,1,1,0,1,1,0,0,0
19364000,0,0.0,0.0,0.0,0.0,0.0225203,-7.21641e-07,-3.36885e-09,0.0,0.00330788,-0.000913281,-0.00150341,0.00137203,-0.00018041,-8.42212e-07,0.0,-0.0134036,0.042804,-0.0204543,-0.0366743,0.0,0.1,0.00150341,0.125584,0.253577,0.106791,0.111922,inf,inf,inf,inf,0,1,0,1,1,0,1,1,0,0,0
19468000,0,0.0,0.0,0.0,0.0,0.021459,-7.21641e-07,-3.36885e-09,0.0,0.00201341,-0.00296342,-0.00276909,-0.00100073,-0.00018041,-8.42212e-07,0.0,-0.00937655,-0.0024962,-0.028773,-0.0370459,0.0,0.1,0.00276909,0.126461,0.254582,0.107204,0.112218,inf,inf,inf,inf,0,1,0,1,1,0,1,1,0,0,0
19564000,0,0.0,0.0,0.0,0.0,0.0201382,-7.21641e-07,-3.36885e-09,0.0,0.00107412,-0.00387178,-0.00407142,-0.00343799,-0.00018041,-8.42212e-07,0.0,0.0409984,-0.038185,-0.00315788,-0.0374354,0.0,0.1,0.00407142,0.126627,0.254865,0.107228,0.112307,inf,inf,inf,inf,0,1,0,1,1,0,1,1,0,0,0
19668000,0,0.0,0.0,0.0,0.0,0.0187572,-7.21641e-07,-3.36885e-09,0.0,0.000288448,-0.00631103,-0.0041434,-0.00446437,-0.00018041,-8.42212e-07,0.0,0.0447115,-0.0283235,-0.0155376,-0.0374421,0.0,0.1,0.0041434,0.125497,0.253811,0.106556,0.112027,inf,inf,inf,inf,0,1,0,1,1,0,1,1,0,0,0
19764000,19704000,47.3977419,8.5455939,-0.00144199,-0.000978915,0.0168158,-0.00368757,-0.000651676,0.0,0.000564704,-0.00313853,0.00103835,-0.006625,0.000205624,0.00430647,0.00615676,0.00614962,0.0199246,-0.06654,-0.00262837,488.007,0.1,-0.00103835,0.389504,0.254102,0.316228,0.237171,inf,inf,inf,inf,1,1,1,1,2,0,2,2,1,1,0
19868000,19704000,47.3977419,8.5455939,-0.0021056,-0.00159704,0.0174201,-0.00368757,-0.000651676,0.0,0.00102155,-0.0044883,0.000142531,-0.00453707,0.000205624,0.00430647,0.00615676,0.0181452,-0.057204,0.0197793,-0.00168226,488.007,0.102709,-0.000142531,0.341994,0.247378,0.289261,0.226316,inf,inf,inf,inf,1,1,1,1,2,0,2,2,1,1,0
19972000,19704000,47.3977419,8.5455939,-0.00324932,-0.00258307,0.0189391,-0.00368757,-0.000651676,0.0,-0.000669865,-0.00522981,0.00092793,-0.000858379,0.000205624,0.00430647,0.00615676,-0.0154334,0.00217757,-0.0145929,-0.00123299,488.007,0.103084,-0.00092793,0.309977,0.241308,0.269042,0.21675,inf,inf,inf,inf,1,1,1,1,2,0,2,2,1,1,0
20068000,19704000,47.3977419,8.5455939,-0.00377007,-0.00325765,0.0193879,-0.00368757,-0.000651676,0.0,0.000589142,-0.00622144,0.000960698,0.000374186,0.000205624,0.00430647,0.00615676,0.0443051,-0.0304277,0.0284249,-0.000439947,488.007,0.1,-0.000960698,0.286691,0.23841,0.253337,0.208185,inf,inf,inf,inf,1,1,1,1,2,0,2,2,1,1,0
20172000,19704000,47.3977419,8.5455939,-0.00355894,-0.00426747,0.0186191,-0.00368757,-0.000651676,0.0,0.00156765,-0.00691501,0.000470359,-0.000355747,0.000205624,0.00430647,0.00615676,-0.00970121,-0.0205827,-0.0364143,0.000610961,488.007,0.1,-0.000470359,0.269537,0.235453,0.241374,0.200288,inf,inf,inf,inf,1,1,1,1,2,0,2,2,1,1,0
20268000,19704000,47.3977419,8.5455939,-0.00172946,-0.00519607,0.0175078,-0.00368757,-0.000651676,0.0,0.00244229,-0.00698414,-0.000223346,-0.00161731,0.000205624,0.00430647,0.00615676,-0.0192557,0.00154449,0.0517819,0.00141595,488.007,0.1,0.000223346,0.25597,0.234531,0.231788,0.193127,inf,inf,inf,inf,1,1,1,1,2,0,2,2,1,1,0
20372000,19704000,47.3977419,8.5455939,0.000632607,-0.0057405,0.0177977,-0.00368757,-0.000651676,0.0,0.00389258,-0.00792835,0.000317219,-0.00032773,0.000205624,0.00430647,0.00615676,0.0111407,-0.00766614,-0.0363016,0.00147067,488.007,0.100175,-0.000317219,0.24578,0.234787,0.224784,0.186523,inf,inf,inf,inf,1,1,1,1,2,0,2,2,1,1,0
20468000,19704000,47.3977419,8.5455939,0.0025296,-0.00563115,0.0188478,-0.00368757,-0.000651676,0.0,0.00313796,-0.00802805,0.000670378,0.00129235,0.000205624,0.00430647,0.00615676,-0.00488193,-0.0122864,0.0130523,0.00159672,488.007,0.102622,-0.000670378,0.237228,0.234833,0.21902,0.180346,inf,inf,inf,inf,1,1,1,1,2,0,2,2,1,1,0
20564000,19704000,47.3977419,8.5455939,0.00441617,-0.00582758,0.0195665,-0.00368757,-0.000651676,0.0,0.00213543,-0.00869127,0.00268247,0.00391367,0.000205624,0.00430647,0.00615676,0.0299974,-0.0699947,0.0603934,0.00180826,488.007,0.1,-0.00268247,0.230269,0.235156,0.214513,0.174574,inf,inf,inf,inf,1,1,1,1,2,0,2,2,1,1,0
20668000,19704000,47.3977419,8.5455939,0.0062379,-0.00570741,0.019963,-0.00368757,-0.000651676,0.0,0.000841237,-0.00968765,0.000451405,0.00192184,0.000205624,0.00430647,0.00615676,-0.0273416,-0.0065153,-0.0225924,0.00205366,488.007,0.100889,-0.000451405,0.225336,0.234746,0.211901,0.168824,inf,inf,inf,inf,1,1,1,1,2,0,2,2,1,1,0
20764000,19704000,47.3977419,8.5455939,0.00728788,-0.00526085,0.020919,-0.00368757,-0.000651676,0.0,-8.38197e-05,-0.0097754,-1.23656e-05,0.00238994,0.000205624,0.00430647,0.00615676,-0.00361192,0.0308854,0.00867344,0.00175047,488.007,0.103914,1.23656e-05,0.220709,0.235343,0.209326,0.16368,inf,inf,inf,inf,1,1,1,1,2,0,2,2,1,1,0
20868000,19704000,47.3977419,8.5455939,0.00798335,-0.0046856,0.0226739,-0.00368757,-0.000651676,0.0,-0.00155607,-0.00934131,0.0025367,0.00628082,0.000205624,0.00430647,0.00615676,0.0354858,-0.00887334,0.0423052,0.0017217,488.007,0.103366,-0.0025367,0.217723,0.236764,0.208318,0.158868,inf,inf,inf,inf,1,1,1,1,2,0,2,2,1,1,0
20964000,19704000,47.3977419,8.5455939,0.00797939,-0.00424195,0.0251566,-0.00368757,-0.000651676,0.0,-0.00379747,-0.0105583,0.00319458,0.0087448,0.000205624,0.00430647,0.00615676,-0.0823684,0.0249501,0.0073897,0.00185782,488.007,0.104592,-0.00319458,0.214605,0.237418,0.206816,0.154269,inf,inf,inf,inf,1,1,1,1,2,0,2,2,1,1,0
21068000,19704000,47.3977419,8.5455939,0.00783523,-0.00407221,0.0281123,-0.00368757,-0.000651676,0.0,-0.00454371,-0.0110149,0.00346147,0.0109415,0.000205624,0.00430647,0.00615676,0.00692914,0.0212314,0.0456164,0.00203956,488.007,0.103368,-0.00346147,0.212916,0.237169,0.206625,0.149524,inf,inf,inf,inf,1,1,1,1,2,0,2,2,1,1,0
21164000,19704000,47.3977419,8.5455939,0.00795642,-0.00413701,0.0303325,-0.00368757,-0.000651676,0.0,-0.005131,-0.0121539,0.00406015,0.0125391,0.000205624,0.00430647,0.00615676,-0.0411826,-0.015403,0.0270399,0.00194413,488.007,0.103077,-0.00406015,0.210798,0.237767,0.205619,0.145395,inf,inf,inf,inf,1,1,1,1,2,0,2,2,1,1,0
21268000,19704000,47.3977419,8.5455939,0.00794027,-0.00474318,0.0321096,-0.00368757,-0.000651676,0.0,-0.00613112,-0.0110191,0.0048111,0.0135323,0.000205624,0.00430647,0.00615676,0.022921,0.043962,0.0338519,0.00229779,488.007,0.1,-0.0048111,0.209984,0.239072,0.205727,0.141527,inf,inf,inf,inf,1,1,1,1,2,0,2,2,1,1,0
21364000,19704000,47.3977419,8.5455939,0.00787937,-0.00503274,0.0328152,-0.00368757,-0.000651676,0.0,-0.00590989,-0.0122318,0.00346144,0.0115223,0.000205624,0.00430647,0.00615676,-0.0148535,0.031731,0.0228666,0.00250776,488.007,0.1,-0.00346144,0.208529,0.237855,0.204804,0.137351,inf,inf,inf,inf,1,1,1,1,2,0,2,2,1,1,0
21468000,19704000,47.3977419,8.5455939,0.00779164,-0.0050173,0.0336006,-0.00368757,-0.000651676,0.0,-0.00567004,-0.00997296,0.00474318,0.0122803,0.000205624,0.00430647,0.00615676,0.0314625,-0.0040117,0.0644064,0.0024917,488.007,0.100277,-0.00474318,0.2083,0.239017,0.204872,0.1339,inf,inf,inf,inf,1,1,1,1,2,0,2,2,1,1,0
21564000,19704000,47.3977419,8.5455939,0.0074292,-0.00486373,0.0347473,-0.00368757,-0.000651676,0.0,-0.00615214,-0.0100967,0.00711915,0.0144303,0.000205624,0.00430647,0.00615676,0.0108629,-0.0284979,0.0270603,0.00253037,488.007,0.1,-0.00711915,0.207276,0.239327,0.2038,0.130578,inf,inf,inf,inf,1,1,1,1,2,0,2,2,1,1,0
21668000,19704000,47.3977419,8.5455939,0.00717115,-0.00425295,0.0351167,-0.00368757,-0.000651676,0.0,-0.00648367,-0.00989037,0.00727838,0.0133727,0.000205624,0.00430647,0.00615676,-0.0188595,-0.00725628,-0.0425142,0.00310578,488.007,0.1,-0.00727838,0.207428,0.238625,0.203621,0.127032,inf,inf,inf,inf,1,1,1,1,2,0,2,2,1,1,0
21772000,19704000,47.3977419,8.5455939,0.00692693,-0.00353522,0.0359023,-0.00368757,-0.000651676,0.0,-0.00683607,-0.00846929,0.00581752,0.0113486,0.000205624,0.00430647,0.00615676,-0.0367344,0.0243276,-0.0591068,0.0034659,488.007,0.100969,-0.00581752,0.20767,0.239529,0.203206,0.124151,inf,inf,inf,inf,1,1,1,1,2,0,2,2,1,1,0
21868000,19704000,47.3977419,8.5455939,0.00685817,-0.002341,0.0374034,-0.00368757,-0.000651676,0.0,-0.0066749,-0.00630296,0.00713125,0.0129502,0.000205624,0.00430647,0.00615676,-0.0111192,-0.0343235,0.0402788,0.00351594,488.007,0.1,-0.00713125,0.207057,0.239619,0.201808,0.121379,inf,inf,inf,inf,1,1,1,1,2,0,2,2,1,1,0
21972000,19704000,47.3977419,8.5455939,0.00753522,-0.00129251,0.0384561,-0.00368757,-0.000651676,0.0,-0.00602788,-0.00634441,0.0056592,0.0112616,0.000205624,0.00430647,0.00615676,0.000251734,0.0208725,0.0569862,0.00350364,488.007,0.1,-0.0056592,0.207474,0.23866,0.201088,0.118375,inf,inf,inf,inf,1,1,1,1,2,0,2,2,1,1,0
22068000,19704000,47.3977419,8.5455939,0.0086041,-0.000873926,0.0384076,-0.00368757,-0.000651676,0.0,-0.00471658,-0.00557946,0.00492906,0.00943256,0.000205624,0.00430647,0.00615676,-0.0182772,-0.037277,0.0456011,0.00342827,488.007,0.1,-0.00492906,0.206972,0.238618,0.199411,0.115942,inf,inf,inf,inf,1,1,1,1,2,0,2,2,1,1,0
22172000,19704000,47.3977419,8.5455939,0.00943395,-0.000950607,0.0378539,-0.00368757,-0.000651676,0.0,-0.00423379,-0.00499445,0.0053024,0.00830714,0.000205624,0.00430647,0.00615676,0.00870526,-0.0049179,0.0350205,0.00355302,488.007,0.1,-0.0053024,0.207478,0.239219,0.198395,0.113753,inf,inf,inf,inf,1,1,1,1,2,0,2,2,1,1,0
22268000,19704000,47.3977419,8.5455939,0.00988548,-0.00114984,0.0368654,-0.00368757,-0.000651676,0.0,-0.00461541,-0.00478721,0.00521693,0.00650009,0.000205624,0.00430647,0.00615676,0.0186787,-0.0561476,0.00857208,0.00355283,488.007,0.1,-0.00521693,0.207024,0.239072,0.196478,0.111642,inf,inf,inf,inf,1,1,1,1,2,0,2,2,1,1,0
22364000,19704000,47.3977419,8.5455939,0.00984625,-0.000984121,0.036806,-0.00368757,-0.000651676,0.0,-0.00562673,-0.00387824,0.0045999,0.00531243,0.000205624,0.00430647,0.00615676,-0.0256651,-0.000330981,-0.0479736,0.0036733,488.007,0.1,-0.0045999,0.206525,0.238864,0.194386,0.109672,inf,inf,inf,inf,1,1,1,1,2,0,2,2,1,1,0
22468000,19704000,47.3977419,8.5455939,0.0095574,-0.000363201,0.0371094,-0.00368757,-0.000651676,0.0,-0.00532112,-0.00310071,0.00551943,0.00601703,0.000205624,0.00430647,0.00615676,0.0135179,-0.0433956,0.0324236,0.00372961,488.007,0.1,-0.00551943,0.207118,0.237599,0.193101,0.107501,inf,inf,inf,inf,1,1,1,1,2,0,2,2,1,1,0
22564000,19704000,47.3977419,8.5455939,0.00875739,0.000269867,0.0371233,-0.00368757,-0.000651676,0.0,-0.00630867,-0.00233325,0.0041855,0.00424534,0.000205624,0.00430647,0.00615676,-0.0122775,0.00759046,-0.0194589,0.00397853,488.007,0.1,-0.0041855,0.206613,0.237317,0.190858,0.10583,inf,inf,inf,inf,1,1,1,1,2,0,2,2,1,1,0
