timestamp,gyro_rad[0],gyro_rad[1],gyro_rad[2],gyro_integral_dt,accelerometer_timestamp_relative,accelerometer_m_s2[0],accelerometer_m_s2[1],accelerometer_m_s2[2],accelerometer_integral_dt
1216000,-4.72519e-05,0.0119317,-0.000122454,4000,0,0.00986109,0.0389674,-9.83075,4000
1860000,0.00382401,0.00229025,-0.00123604,4000,0,0.00297078,0.0160352,-9.8392,4000
1864000,0.00744853,-0.0126185,-0.00268178,4000,0,-0.00786477,0.0311532,-9.84273,4000
1868000,0.0104205,0.000401834,-0.00825853,4000,0,-0.0372329,0.0238724,-9.77431,4000
1872000,0.00870704,0.00646064,0.00582989,4000,0,-0.0372692,-0.00792487,-9.78029,4000
1876000,0.00308501,-0.00359032,0.00777541,4000,0,0.0725742,0.016421,-9.79994,4000
1884000,-0.00715578,0.00109164,0.00809017,4000,0,-0.0661073,0.00407348,-9.79918,4000
1892000,9.07405e-05,0.00253092,0.00908522,4000,0,-0.0185905,-0.00818379,-9.81469,4000
1896000,0.000924398,0.000829243,-0.00160458,4000,0,-0.0523459,-0.0272603,-9.85964,4000
1900000,-0.00118676,0.0103378,9.47907e-05,4000,0,-0.053471,-0.0400368,-9.82355,4000
1904000,-0.00161159,0.00843548,0.00200973,4000,0,-0.0139958,-0.0828003,-9.79552,4000
1908000,0.00688552,0.00219093,-0.00558167,4000,0,0.043147,-0.0797555,-9.79461,4000
1912000,0.00280317,-0.00593845,-0.00825061,4000,0,0.0127725,-0.00769833,-9.7823,4000
1916000,-0.01276,-0.00829846,-0.0135132,4000,0,-0.0472649,-0.0121368,-9.73787,4000
1920000,-0.00833435,0.000780171,-0.00487193,4000,0,-0.0140813,-0.00133952,-9.78519,4000
1924000,-0.000431067,-0.0108632,0.00745228,4000,0,-0.00181139,-0.00537311,-9.87075,4000
1928000,-0.00402098,-0.0059632,0.0100102,4000,0,-0.0225355,-0.0646145,-9.88124,4000
1932000,0.00206654,0.00742934,0.0105397,4000,0,-0.0441119,-0.0463463,-9.89416,4000
1936000,0.00924807,-0.00384345,0.00588617,4000,0,-0.0100725,-0.00266708,-9.90437,4000
1940000,0.00990594,-0.0123261,-0.000760335,4000,0,0.0124207,0.00935128,-9.8486,4000
1944000,0.0112058,-0.0033199,-0.00356466,4000,0,0.00230817,-0.00467875,-9.80865,4000
1952000,0.00152821,-0.00262167,0.00982967,4000,0,0.00546194,-0.0139121,-9.72623,4000
1960000,0.0044301,-0.00232137,-0.00130879,4000,0,0.0126056,0.030204,-9.83103,4000
1964000,-0.000837865,-0.0067176,-0.0144997,4000,0,-0.0132501,-0.000188741,-9.80013,4000
1968000,-0.00355022,1.9852e-05,-0.0209789,4000,0,0.00675474,-0.0117739,-9.76206,4000
1972000,0.00517079,-6.96127e-05,-0.0213644,4000,0,0.0121183,0.0377121,-9.72819,4000
1976000,0.00031361,-0.00278592,-0.00160265,4000,0,-0.0149869,0.0562924,-9.78468,4000
1984000,-0.00510522,0.00507621,-0.000395411,4000,0,0.0821542,0.0273384,-9.82923,4000
1988000,0.00237978,-0.00792417,8.83628e-05,4000,0,-0.0441055,0.0276969,-9.78895,4000
1992000,0.00465211,0.000332514,0.00286027,4000,0,-0.0913376,-0.0316977,-9.78473,4000
1996000,0.00180281,0.00108318,-0.0187272,4000,0,-0.00896428,-0.0333342,-9.77084,4000
2004000,0.00479712,-0.00876678,0.00140593,4000,0,-0.0883505,0.0708346,-9.77228,4000
2008000,-0.00547473,-0.0103187,-0.00202821,4000,0,-0.110292,0.0411935,-9.76905,4000
2012000,-0.00389093,0.00516825,-0.00156986,4000,0,-0.114484,0.000191523,-9.7739,4000
2016000,0.00169571,0.00330995,-0.0062173,4000,0,-0.090412,-0.00933688,-9.80378,4000
2020000,0.00659641,0.005512,-0.00736098,4000,0,-0.0628482,-0.0096563,-9.81944,4000
2024000,0.00775019,0.00994744,-0.0116705,4000,0,-0.0579893,-0.0088899,-9.75943,4000
2028000,0.00865238,0.0058378,-0.0078672,4000,0,-0.0334048,-0.0238703,-9.76913,4000
2032000,0.00905533,0.00147247,-0.00297566,4000,0,0.0146396,-0.02385,-9.82298,4000
2040000,-0.00366527,0.00735404,0.00789713,4000,0,-0.00912246,-0.034413,-9.75314,4000
2044000,-0.00365445,0.0091719,-0.000770935,4000,0,-0.0131256,0.0335832,-9.78061,4000
2048000,0.00175336,0.00253625,-0.00126297,4000,0,-0.0194212,0.0262732,-9.79069,4000
2056000,0.00628469,0.00181678,-0.00977828,4000,0,-0.0582851,-0.0439431,-9.75884,4000
2060000,0.0101521,-0.00409082,-0.0111108,4000,0,-0.00917081,-0.0210897,-9.73628,4000
2064000,0.0117408,0.000592783,-0.0103519,4000,0,-0.00348852,0.030864,-9.78219,4000
2072000,0.00150363,-0.0120642,-0.00175128,4000,0,-0.0166565,-0.0100327,-9.82777,4000
2076000,0.00455795,-0.00365557,0.0170696,4000,0,-0.060488,-0.0302833,-9.83902,4000
2080000,0.00694363,-0.00114491,0.0146819,4000,0,0.000392038,-0.0344567,-9.79651,4000
2084000,0.0162922,-0.00929115,0.00851387,4000,0,0.0115266,-0.0363323,-9.75412,4000
2088000,0.0218701,-0.00515167,0.00540518,4000,0,-0.00487422,-0.0355597,-9.75488,4000
2092000,0.00887792,-0.0104483,-0.00302544,4000,0,-0.0296863,-0.0325251,-9.79785,4000
2096000,-0.00450234,-0.0180658,0.00109852,4000,0,-0.0427165,-0.00589344,-9.78345,4000
2100000,-0.00143169,-0.00330711,0.00647693,4000,0,0.0201606,-0.00514493,-9.78148,4000
2104000,-0.00182019,-0.00199785,0.00674447,4000,0,0.0462599,-0.0300706,-9.83435,4000
2108000,0.00137024,-0.00900257,0.00954836,4000,0,0.0331652,-0.0441059,-9.87905,4000
2116000,-0.00423852,0.000953704,-0.00535716,4000,0,-0.00346002,0.0173275,-9.85176,4000
2124000,0.00321264,0.00376783,0.00624443,4000,0,0.00136559,-0.0306594,-9.8236,4000
2128000,0.00278183,-0.00452482,0.00966564,4000,0,0.0665056,-0.0422618,-9.87851,4000
2136000,0.00753057,0.00950037,-0.00358113,4000,0,0.0101147,-0.0197944,-9.77324,4000
2140000,0.00637684,0.0230482,-0.00685007,4000,0,-0.0275661,-0.0331624,-9.73968,4000
2144000,0.000498354,0.0149715,-0.00281248,4000,0,-0.0138101,-0.000330512,-9.72707,4000
2152000,-0.0126128,-0.000519196,-0.000985947,4000,0,0.0323461,0.0136859,-9.76116,4000
2156000,-0.00137519,0.00595141,0.00267235,4000,0,0.0209608,-0.0448359,-9.77423,4000
2160000,0.00404482,-0.00397051,0.000473932,4000,0,-0.0413256,-0.0796786,-9.82583,4000
2168000,0.00341157,0.00353769,-0.00411903,4000,0,-0.0525904,0.0660621,-9.81564,4000
2172000,0.00972669,-0.000110664,-0.00684002,4000,0,-0.00932667,0.0352814,-9.85727,4000
2176000,0.00347572,-0.00483472,-0.00213098,4000,0,0.0314793,-0.0814051,-9.80546,4000
2180000,-0.0111351,-0.00649203,-0.0107756,4000,0,-0.0184859,-0.0307265,-9.77249,4000
2184000,-0.0162137,-0.00748603,-0.00931241,4000,0,-0.0277149,-0.0548985,-9.78566,4000
2188000,-0.0140355,-0.00100467,0.00457111,4000,0,0.0116315,-0.039581,-9.7786,4000
2192000,-0.00191547,0.00331846,0.00155333,4000,0,0.0480202,0.0238832,-9.78835,4000
2196000,-0.000554137,-2.55518e-05,-0.00715452,4000,0,-0.00404681,-0.00277053,-9.79845,4000
2200000,-0.0018646,-0.00527687,0.000130181,4000,0,-0.0955983,-0.0373629,-9.81567,4000
2204000,0.00579767,-0.000469317,0.0130929,4000,0,-0.064529,-0.0342284,-9.8834,4000
2208000,0.0023459,0.0056704,0.00424271,4000,0,0.0246192,0.0118427,-9.90801,4000
2212000,-0.00455537,0.00426942,-0.00227005,4000,0,0.035395,0.0277349,-9.84749,4000
2216000,-0.000801023,0.00838569,-0.00900331,4000,0,0.00694249,0.00893852,-9.80485,4000
2220000,-0.00548941,0.00833119,-0.0152365,4000,0,0.0190073,-0.0490358,-9.83975,4000
2228000,-0.015899,-0.000840363,0.00446855,4000,0,-0.00544378,-0.0340278,-9.75663,4000
2232000,-0.0112176,0.000595982,0.00644851,4000,0,0.0144274,-0.0244904,-9.79318,4000
2236000,-0.0072266,0.00656695,0.00713972,4000,0,0.019195,-0.019685,-9.79743,4000
2244000,0.00584243,-0.00113134,-0.0118987,4000,0,-0.0257109,-0.0157359,-9.8368,4000
2248000,0.00974508,-0.00266242,-0.00774543,4000,0,-0.000218472,0.00462832,-9.87601,4000
2252000,0.00457177,0.00193184,0.00364053,4000,0,0.0193757,0.0122221,-9.78747,4000
2260000,-0.0113198,-0.0104313,0.00439992,4000,0,0.00934685,-0.0411576,-9.82813,4000
2268000,-0.0123868,-0.00636455,-0.000379438,4000,0,-0.0706147,-0.0668108,-9.78508,4000
2272000,-0.00521122,-0.00310974,0.00349987,4000,0,-0.0365523,-0.0714375,-9.80008,4000
2276000,0.00263982,0.00175621,0.0209041,4000,0,-0.0302671,0.00594592,-9.79728,4000
2280000,-0.0031374,-6.14656e-05,0.00807644,4000,0,-0.0145895,-0.0438039,-9.7809,4000
2284000,-0.000407122,5.09274e-05,-0.00898632,4000,0,0.0161082,-0.0237077,-9.7579,4000
2292000,0.00821215,-0.00385488,0.00634797,4000,0,-0.00478731,-0.00913048,-9.90412,4000
2296000,0.00410298,-0.0084133,-0.00773767,4000,0,-0.0107628,0.0510377,-9.89193,4000
2300000,-0.00351375,-0.00700124,-0.00129026,4000,0,0.00779139,0.0107361,-9.83598,4000
2304000,-0.00154323,0.000917191,0.00721961,4000,0,0.0513075,0.0130979,-9.80441,4000
2308000,0.00125361,-0.000502045,0.0107671,4000,0,0.0563425,-0.00157382,-9.81177,4000
2316000,-0.00906573,-0.0018677,-0.00817007,4000,0,0.058402,-0.0128954,-9.77364,4000
2320000,-0.00862267,-0.0028682,-0.00363388,4000,0,0.0195043,-0.00896056,-9.84191,4000
2324000,-0.0117076,-0.00247909,0.000263721,4000,0,0.0218975,0.0178532,-9.82449,4000
2328000,-0.00842485,0.00120778,0.00154365,4000,0,-0.0148566,0.00197497,-9.77991,4000
2332000,-0.00766916,0.00207529,-0.00224781,4000,0,-0.0289269,0.0125108,-9.78411,4000
2336000,-0.00216923,0.00551146,-0.0041084,4000,0,0.00529139,0.0222996,-9.80613,4000
2340000,0.00266194,0.000247665,-0.0003638,4000,0,-0.0363945,0.0302013,-9.79327,4000
2344000,-0.00233641,0.00171618,-0.00612726,4000,0,-0.0317702,-0.00586345,-9.81805,4000
2348000,-0.000508939,0.015626,-0.00492071,4000,0,0.00343824,-0.0738322,-9.79832,4000
2356000,-0.00763473,-0.00737493,-0.0133824,4000,0,-0.0047028,-0.0131243,-9.8089,4000
2360000,-0.00790976,-0.0010548,-0.00483447,4000,0,-0.0101816,-0.0321057,-9.79999,4000
2364000,-0.00149828,0.00611861,-0.00201691,4000,0,0.0403917,0.00345351,-9.81668,4000
2368000,-0.0031175,0.0106321,0.00449203,4000,0,0.0543404,-0.0286595,-9.87393,4000
2372000,-0.00485547,0.000413977,0.00712615,4000,0,0.00178092,-0.0418631,-9.87268,4000
2380000,-0.00350253,0.00731805,0.00211223,4000,0,-0.0241308,-0.0152706,-9.78162,4000
2384000,0.00280877,0.00259364,0.000702939,4000,0,-0.00883878,0.00342895,-9.77523,4000
2388000,0.00166912,-0.00653904,-0.00070848,4000,0,0.0235214,0.0245977,-9.77823,4000
2396000,-0.00520292,0.0060066,0.00141958,4000,0,-0.0130461,0.0185142,-9.80602,4000
2400000,-0.00367651,0.0108238,0.00329952,4000,0,0.0673179,-0.00451372,-9.76536,4000
2408000,-0.00570126,-0.00189991,-0.00113126,4000,0,-0.00387576,0.00803054,-9.82919,4000
2412000,0.00668117,-0.0088031,0.00108821,4000,0,0.034535,-0.000481825,-9.84028,4000
2420000,0.00374442,0.0031558,0.000462674,4000,0,0.0100718,-0.00867731,-9.79573,4000
2428000,0.00228149,-6.75897e-05,0.00715829,4000,0,0.013917,0.0210379,-9.85751,4000
2436000,0.00915344,-0.00696264,-0.016371,4000,0,-0.0076787,0.0275905,-9.73517,4000
2440000,0.0116807,-0.00914337,-0.00869032,4000,0,0.00791199,-0.0303714,-9.78603,4000
2444000,0.00674227,-0.00771346,0.00289654,4000,0,-0.000551092,-0.0389253,-9.8445,4000
2448000,0.00248908,-0.00492898,0.0014158,4000,0,0.00089433,0.0253957,-9.80686,4000
2452000,0.00274776,0.00337464,-0.00286002,4000,0,0.0131183,-0.0503834,-9.81049,4000
2456000,0.00341965,-0.00164303,-0.00371933,4000,0,0.0598369,-0.110515,-9.79317,4000
2460000,0.00158408,-0.00422528,0.00177638,4000,0,0.012918,-0.0397905,-9.74714,4000
2468000,-0.00159324,-0.00448658,0.00483845,4000,0,0.0730884,0.00193439,-9.77617,4000
2472000,-0.000703557,-0.0164024,0.00455782,4000,0,0.00102617,-0.0260463,-9.7939,4000
2476000,0.0111505,-0.0131049,-0.00383727,4000,0,-0.051347,0.00668886,-9.77432,4000
2480000,0.00584442,0.00941735,0.00688422,4000,0,0.00412221,0.0159577,-9.80275,4000
2488000,0.00994896,-0.00503454,-0.00727906,4000,0,-0.000465375,-0.0376587,-9.79455,4000
2492000,0.004774,-0.00204286,-0.00976237,4000,0,-0.0156945,-0.0669627,-9.81258,4000
2496000,0.0075618,-0.00331063,-0.00226276,4000,0,-0.0257002,-0.00198523,-9.79642,4000
2504000,-0.00363859,0.00231189,0.00461537,4000,0,0.0282122,0.00998974,-9.79182,4000
2508000,0.00225883,0.00760795,-0.00227911,4000,0,-0.0351927,-0.00612436,-9.77174,4000
2516000,-0.00320512,0.00303728,-0.00984896,4000,0,-0.00247107,0.0367292,-9.75549,4000
2520000,0.000376848,-0.00123901,-0.0120808,4000,0,-0.0180192,0.0613588,-9.77899,4000
2528000,0.0121008,0.00702467,-0.00511205,4000,0,0.0239465,0.0107451,-9.83244,4000
2532000,0.0155609,0.0172993,0.00338879,4000,0,0.0636051,-0.0368395,-9.76057,4000
2536000,0.00731702,0.0102048,0.00372007,4000,0,0.0241118,-0.0365985,-9.72788,4000
2540000,-0.00992873,0.00119071,-0.00994805,4000,0,0.0188199,-0.0284157,-9.73649,4000
2544000,-0.0116616,-0.00155133,-0.0043238,4000,0,-0.0148299,-0.00214823,-9.7422,4000
2548000,0.000839225,-0.00948181,0.00112604,4000,0,-0.0197898,0.00556183,-9.76309,4000
2556000,0.00749827,0.00177231,-0.00416618,4000,0,0.00101883,0.0374144,-9.8218,4000
2560000,0.00690212,0.00622754,0.00262707,4000,0,0.0224305,0.0583757,-9.80567,4000
2568000,-0.0118258,0.0116307,0.00516541,4000,0,0.016451,0.0110157,-9.84196,4000
2576000,-0.0093844,-0.00330429,-0.00553758,4000,0,0.0563712,-0.00329066,-9.82827,4000
2580000,-0.00622274,0.0050559,-0.00389206,4000,0,-0.00357903,0.0486634,-9.76535,4000
2584000,0.00913599,0.00924262,-0.00570651,4000,0,-0.03193,0.00674097,-9.7255,4000
2588000,0.00616729,-0.000261336,-0.00696872,4000,0,-0.00588718,-0.0314391,-9.73701,4000
2592000,0.00269603,-0.0096585,-0.00567604,4000,0,0.0144701,0.00117819,-9.75423,4000
2596000,0.00653417,-0.00988235,-0.000918786,4000,0,0.0467109,0.00190663,-9.7754,4000
2600000,-0.00413612,0.00305163,0.00680753,4000,0,0.00362191,0.00798612,-9.82317,4000
2604000,-0.00256968,0.000371908,-0.00398247,4000,0,-0.0675692,-0.0293305,-9.77059,4000
2608000,-0.00305891,-0.00484961,-0.0139091,4000,0,-0.0584662,-0.0554042,-9.78138,4000
2616000,-0.00952381,-0.0080504,0.00988972,4000,0,-0.00441279,0.0319894,-9.76255,4000
2620000,-0.0161826,-0.00569084,0.010756,4000,0,0.0160677,0.0239637,-9.83389,4000
2624000,-0.0144018,0.00838504,0.00309538,4000,0,0.0391799,-0.0317506,-9.877,4000
2628000,-0.0118791,0.0109345,-0.00661858,4000,0,0.00651719,-0.02764,-9.82698,4000
2636000,-0.00586789,-0.00581737,0.0109755,4000,0,0.0198115,-0.0187309,-9.83655,4000
2640000,0.00863933,-0.0143822,0.00855806,4000,0,-0.0240341,0.00175613,-9.83809,4000
2644000,0.0135881,-0.0220888,0.00477623,4000,0,-0.0255359,0.00497326,-9.8096,4000
2648000,0.00920406,-0.0112672,-0.000645072,4000,0,-0.0493075,0.0234776,-9.83456,4000
2652000,-0.00154135,0.00448811,-0.00580506,4000,0,-0.0361748,0.000594718,-9.87357,4000
2660000,-0.00779836,-0.00109247,0.0180024,4000,0,0.00815571,-1.70845e-05,-9.77208,4000
2664000,-0.00677145,0.00210559,0.0104422,4000,0,-0.00187089,-0.011604,-9.7542,4000
2668000,0.0013387,-0.00392525,-0.006414,4000,0,-0.0248389,-0.0419968,-9.7516,4000
2672000,0.00537328,-0.00688977,-0.00676714,4000,0,-0.0338016,-0.0550011,-9.78699,4000
2676000,0.00531389,-0.0052835,-0.00208121,4000,0,-0.0385216,-0.00817597,-9.8132,4000
2680000,-0.00228668,-0.000695197,-0.00128888,4000,0,-0.0566649,0.0911339,-9.84806,4000
2684000,-0.0102845,0.0068996,0.00196444,4000,0,-0.0147026,0.0943573,-9.84014,4000
2688000,0.000577977,0.00223068,0.00223656,4000,0,0.0217588,0.0498681,-9.82563,4000
2692000,0.0120988,-0.00714252,0.007571,4000,0,0.0394935,0.0166786,-9.77971,4000
2700000,-0.0145333,0.00593909,0.0122305,4000,0,0.0442855,0.138962,-9.81727,4000
2708000,0.00764065,-0.0124085,0.00898528,4000,0,0.0492524,-0.0128015,-9.82134,4000
2712000,0.00676038,-0.00443164,0.00572625,4000,0,0.0224853,0.00346162,-9.82954,4000
2720000,-0.0067715,0.00563792,-0.0124185,4000,0,-0.0233806,0.0772027,-9.76557,4000
2724000,-0.00401412,-0.00215544,-0.0122548,4000,0,-0.0332761,0.00484182,-9.78457,4000
2728000,0.00901318,-0.000783931,-0.00214894,4000,0,0.0366512,-0.0729437,-9.82718,4000
2732000,0.00732072,-0.000756057,0.01022,4000,0,0.00268665,-0.0640147,-9.81623,4000
2736000,0.00307148,0.00436304,0.00761682,4000,0,-0.0497009,-0.0276946,-9.81423,4000
2740000,-0.00565904,0.00736757,-0.00440301,4000,0,-0.0682828,0.0107865,-9.78834,4000
2744000,-0.00154432,0.000296315,-0.00265014,4000,0,-0.0881306,0.005527,-9.79597,4000
2748000,0.00787868,0.00449026,0.0103069,4000,0,0.0162055,0.00237145,-9.82669,4000
2756000,0.00618551,-0.0199368,-0.00537783,4000,0,-0.0422981,-0.00519312,-9.78153,4000
2760000,0.00244396,-0.000638808,-0.00697299,4000,0,-0.0219294,0.0132209,-9.84396,4000
2768000,0.00823872,-0.00825168,-0.00200251,4000,0,0.0157993,0.0344729,-9.78605,4000
2772000,0.0159045,-0.0107495,0.00325446,4000,0,-0.0543548,0.0403956,-9.80673,4000
2776000,0.00689081,0.00375918,0.00405019,4000,0,-0.0437892,0.0532357,-9.8165,4000
2780000,-0.00203691,0.0127787,-0.00609196,4000,0,-0.0365178,0.0152933,-9.78309,4000
2784000,0.00322924,0.0081928,-0.00626313,4000,0,-0.0238189,0.0560896,-9.82831,4000
2788000,0.00703584,0.000780354,0.00220116,4000,0,-0.00448913,0.0481832,-9.85809,4000
2792000,0.0105529,-0.00944416,0.00486483,4000,0,-0.0293914,-0.0580792,-9.80601,4000
2796000,0.0116179,-0.00586706,-0.00161369,4000,0,-0.0580443,-0.0303443,-9.78957,4000
2804000,-0.00166633,-0.0036886,-0.00259614,4000,0,-0.0052685,0.027603,-9.78761,4000
2808000,0.00797953,0.00128288,9.27456e-05,4000,0,0.00012954,0.0103492,-9.81822,4000
2816000,0.00156295,0.000431739,-0.016971,4000,0,-0.0333321,0.0460688,-9.74055,4000
2820000,-0.000446785,0.00952899,-0.011631,4000,0,-0.0327199,0.0137582,-9.76664,4000
2824000,0.00270316,0.0150478,0.000141166,4000,0,0.0767104,-0.00135226,-9.803,4000
2828000,0.00975035,-0.000909627,0.00679456,4000,0,0.0824615,-0.033493,-9.80311,4000
2836000,0.0030574,-0.01308,0.00286765,4000,0,-0.0248317,0.0117063,-9.78402,4000
2840000,0.00259117,-0.000310885,0.000528954,4000,0,0.0236188,0.00976507,-9.81151,4000
2848000,-0.0099886,-0.00428605,0.00577635,4000,0,-0.00928053,0.0311238,-9.83082,4000
2852000,-0.00158217,0.00463245,0.00689425,4000,0,-0.0340457,0.0140317,-9.79698,4000
2856000,-0.000343072,0.00689214,0.0134166,4000,0,-0.0347124,0.0142952,-9.8341,4000
2860000,0.0101302,0.00233578,0.00881642,4000,0,-0.000121256,-0.0213103,-9.86609,4000
2868000,0.00128859,0.00603446,0.010304,4000,0,-0.0758856,-0.0318124,-9.83615,4000
2872000,-0.000680944,0.00583045,0.0067939,4000,0,-0.024135,0.0046606,-9.78343,4000
2876000,0.00681015,-0.00229235,-0.00819061,4000,0,-0.0428913,0.0348505,-9.74884,4000
2880000,0.00236985,0.00290354,-0.0171732,4000,0,-0.0635364,-0.0328002,-9.7854,4000
2884000,0.00429171,0.00282644,-0.00905942,4000,0,-0.0224981,-0.0432424,-9.7765,4000
2888000,0.00505277,-0.00405526,0.00362607,4000,0,-0.0265363,0.00385726,-9.74206,4000
2892000,0.0018672,0.00176857,0.00134984,4000,0,-0.0353112,0.00519717,-9.79806,4000
2896000,-0.00948785,0.00781988,0.0012543,4000,0,-0.0704816,0.00365784,-9.83272,4000
2900000,-0.0103888,-0.00541263,0.000917135,4000,0,-0.0351165,0.0463386,-9.8206,4000
2904000,0.00613478,-0.0120337,0.00118455,4000,0,0.0159106,0.0159961,-9.81501,4000
2908000,-0.011546,-0.0027881,0.00912432,4000,0,0.0432658,-0.0186724,-9.8371,4000
2912000,-0.0151677,-0.00196995,0.00425743,4000,0,0.0875722,-0.00580377,-9.83925,4000
2916000,0.00682266,0.00447422,-0.0028639,4000,0,0.0498567,-0.00194042,-9.81199,4000
2920000,0.0026785,0.0071654,-0.00488586,4000,0,-0.0166829,0.000799369,-9.83573,4000
2928000,0.000967556,0.00268116,-0.00642639,4000,0,0.00988532,0.0191068,-9.83571,4000
2932000,0.000110632,-0.00885976,-7.91645e-05,4000,0,0.0373877,-0.0109903,-9.83685,4000
2940000,-0.00171271,-0.0155685,-0.000861407,4000,0,0.0362764,0.046012,-9.78193,4000
2948000,-0.00530756,-0.000497226,0.0023794,4000,0,0.0145858,-0.00372342,-9.80818,4000
2952000,-0.00543443,-0.000766963,-0.000612951,4000,0,0.010308,0.0100997,-9.75057,4000
2956000,0.00321192,-0.000350246,-0.00908356,4000,0,0.0263145,0.00562228,-9.78596,4000
2960000,0.00612748,0.00526509,-0.00118243,4000,0,0.0472224,0.0559434,-9.81602,4000
2964000,-0.00207481,0.00634492,0.00301356,4000,0,0.0181104,0.00954808,-9.78756,4000
2968000,-0.00429329,-0.00147422,-0.00280503,4000,0,-0.0498691,-0.0351207,-9.78326,4000
2972000,-0.0129741,-0.0154491,0.00402381,4000,0,-0.0225397,-0.00792373,-9.8333,4000
2980000,0.0219286,0.0101209,0.0101142,4000,0,0.0814038,-0.0766988,-9.76147,4000
2988000,-0.00376206,-0.00400442,-0.00499366,4000,0,0.00471731,0.0139856,-9.79954,4000
2992000,-0.00738148,0.00162623,-0.00370128,4000,0,-0.0527337,-0.0048453,-9.84496,4000
2996000,0.00531225,-0.00379032,0.00106458,4000,0,-0.0478308,-0.0517633,-9.85056,4000
3000000,0.00931114,-0.00150735,-0.00650163,4000,0,-0.00628286,-0.0276738,-9.87426,4000
3004000,-0.00301829,0.000480306,0.00384865,4000,0,-0.0309672,0.00432062,-9.88088,4000
3008000,-0.00533536,1.73842e-06,0.00628063,4000,0,-0.0412742,0.0250474,-9.82323,4000
3012000,-0.00846474,-0.00401746,0.00318394,4000,0,-0.0211954,0.0562743,-9.7993,4000
3016000,-0.00694079,0.00225847,-0.000634289,4000,0,0.0100699,0.0944595,-9.78921,4000
3020000,0.00365848,0.00370784,0.00193129,4000,0,-0.00593616,0.0494519,-9.76157,4000
3024000,0.00627748,-0.0055192,0.00871953,4000,0,-0.0494765,-0.0206157,-9.73797,4000
3028000,0.0111802,-0.00316867,0.00382963,4000,0,-0.0704149,0.0189652,-9.75984,4000
3032000,-0.000760222,0.00666356,0.0063505,4000,0,0.0175974,0.0445161,-9.78945,4000
3040000,0.00143396,0.00260523,-0.00625841,4000,0,0.00837946,0.0181872,-9.78139,4000
3048000,-0.00808876,0.00700658,-0.0014681,4000,0,0.00367281,0.0103648,-9.79205,4000
3056000,0.00291288,0.000847891,-0.00304401,4000,0,0.0333657,-0.0201318,-9.79196,4000
3064000,0.00160795,-0.00305522,0.00571118,4000,0,0.0358374,0.00982258,-9.88097,4000
3072000,0.000504046,0.00912847,-0.000647259,4000,0,0.0460247,0.00941543,-9.78215,4000
3076000,-0.002165,0.0219425,-0.000890148,4000,0,0.046581,-0.0416446,-9.75603,4000
3080000,-0.00325453,0.0106852,-0.00278381,4000,0,0.0187064,-0.0497601,-9.79497,4000
3088000,0.0021451,-0.00831516,-0.00358843,4000,0,0.0128574,0.018436,-9.80819,4000
3096000,-0.00193224,-0.00247184,0.00237835,4000,0,-0.0222051,-0.0490383,-9.76245,4000
3104000,0.00597464,0.000480472,0.00460545,4000,0,-0.0173377,0.0157328,-9.75779,4000
3108000,0.00440924,0.00287241,-0.00282077,4000,0,0.00528288,0.0156792,-9.75089,4000
3112000,-0.00242426,0.0128988,-0.00237758,4000,0,-0.028455,0.0178515,-9.78887,4000
3116000,-0.00540623,0.00833725,-0.00518173,4000,0,-0.0339403,-0.0223899,-9.76949,4000
3120000,0.00313335,-0.00156202,-0.00349409,4000,0,0.00780835,-0.0406044,-9.74585,4000
3124000,-0.00160293,-0.00219861,0.00147469,4000,0,0.0142245,-0.0733502,-9.81732,4000
3128000,-0.0113923,-0.00627132,-0.00468096,4000,0,-0.000815212,-0.0188219,-9.88918,4000
3136000,-0.00691535,-0.00252922,0.0017326,4000,0,0.0118562,0.0486997,-9.79733,4000
3140000,-0.0116225,-0.00992568,-0.00322962,4000,0,0.0324531,0.0457316,-9.82228,4000
3144000,-0.00520763,-0.0183905,-0.00514548,4000,0,0.0215691,0.0278671,-9.80682,4000
3152000,-0.00553768,-0.00777819,-0.00270819,4000,0,0.0372252,0.0562214,-9.84987,4000
3156000,-0.00946197,-0.0024291,0.00548537,4000,0,-0.0117866,0.0458996,-9.83992,4000
3160000,-0.00686983,0.00537895,-0.00225676,4000,0,-0.0100801,0.0214179,-9.8553,4000
3164000,-0.000677149,0.00208253,0.006015,4000,0,0.00441987,-0.0282392,-9.83935,4000
3168000,-0.00836712,-0.0016621,0.00306088,4000,0,-3.6737e-05,-0.0450883,-9.82473,4000
3172000,-0.00926244,-0.00431473,-0.00995841,4000,0,0.00255172,0.00707583,-9.81576,4000
3176000,-0.0008627,0.00206396,-0.0100076,4000,0,-0.0350034,0.015637,-9.7631,4000
3180000,-0.00424953,0.000686028,0.000312355,4000,0,0.020155,-0.0194304,-9.74153,4000
3184000,-0.00188489,-0.00169406,0.00647167,4000,0,0.00683631,-0.0241348,-9.78157,4000
3192000,-0.00595782,-0.0047613,0.00355428,4000,0,0.0592765,-0.0320379,-9.7547,4000
3196000,0.000133909,-0.00178141,0.000144453,4000,0,-0.0150954,-0.0646338,-9.81677,4000
3204000,-0.00391094,0.012663,0.0020976,4000,0,0.0134882,0.00956077,-9.7457,4000
3208000,0.00309481,0.00151456,0.00253223,4000,0,0.0339928,-0.0364998,-9.78521,4000
3212000,0.00199721,-0.00230656,-0.00126609,4000,0,0.0168698,-0.0131037,-9.82405,4000
3216000,-0.00122071,0.00987455,-0.00131629,4000,0,-0.00327301,-0.00852625,-9.81588,4000
3220000,-0.00519668,0.00970456,0.00955535,4000,0,-0.0570083,-0.00614115,-9.827,4000
3228000,-0.000184474,-0.00252025,-0.0047485,4000,0,-0.016293,0.0397962,-9.84257,4000
3232000,0.00807275,-0.00175004,0.00776175,4000,0,-9.42163e-05,0.0307474,-9.78228,4000
3236000,0.0186949,0.00252603,0.00748377,4000,0,0.00705448,-0.0338533,-9.81568,4000
3240000,0.008134,-0.00245057,0.00231378,4000,0,-0.0404158,-0.00188554,-9.85998,4000
3248000,-0.00872754,0.013748,0.014137,4000,0,-0.0107298,-0.036798,-9.86539,4000
3256000,-0.000706153,-0.0075981,0.00910006,4000,0,0.008414,-0.00431199,-9.86144,4000
3260000,-0.0026993,-0.00175613,0.0060038,4000,0,-0.00769717,-0.00455122,-9.83119,4000
3264000,-0.0077533,-0.0132636,-0.00336688,4000,0,-0.0304379,0.041128,-9.80339,4000
3268000,-0.0126262,-0.00221901,-0.00239699,4000,0,-0.0299264,0.00334753,-9.84884,4000
3276000,-0.00956617,0.00383206,0.000862015,4000,0,0.0153934,-0.00184906,-9.82027,4000
3280000,-0.0116174,0.00086076,0.000444348,4000,0,-0.00262977,-0.0276505,-9.82692,4000
3284000,-0.0192591,-0.00229884,-6.35097e-05,4000,0,-0.00475549,-0.0502545,-9.77192,4000
3288000,-0.00492106,0.000163487,0.00597786,4000,0,0.0359156,-0.00543927,-9.73819,4000
3292000,-0.00228534,0.00750329,0.0167006,4000,0,0.0554295,-0.0171281,-9.81492,4000
3296000,-0.0115535,0.00631541,0.013105,4000,0,-0.0155652,-0.0399563,-9.85306,4000
3300000,-0.00458462,0.0019128,0.00214921,4000,0,-0.0425223,-0.0408054,-9.84283,4000
3308000,-0.0049078,-0.00194317,-0.00533992,4000,0,0.0150349,-0.0680416,-9.80249,4000
3316000,-0.00275473,-0.00702504,-0.0127698,4000,0,0.0665157,-0.0236117,-9.79515,4000
3320000,-0.00643367,0.000912292,-0.0123166,4000,0,-0.00509659,-0.0337736,-9.7906,4000
3324000,-0.00322052,0.000154236,0.00326271,4000,0,-0.0202471,-0.0401657,-9.77023,4000
3328000,0.000301066,-1.34587e-05,0.00795847,4000,0,-0.00920504,0.0128664,-9.79861,4000
3332000,0.0142478,0.00506129,0.00191307,4000,0,-0.0324941,-0.000949166,-9.85074,4000
3336000,0.0168076,-0.00303032,-0.00530144,4000,0,-0.0187839,-0.056447,-9.83522,4000
3344000,-0.00332772,0.00487544,-0.00712487,4000,0,0.0192308,0.0508284,-9.79051,4000
3348000,-0.00166002,0.00689901,-0.0067092,4000,0,-0.0191954,0.0336761,-9.77936,4000
3352000,0.00310081,-0.000678341,0.00831867,4000,0,-0.0781554,-0.00649414,-9.79118,4000
3356000,-0.00191416,0.00427505,0.0142148,4000,0,-0.0347289,-0.0381458,-9.81283,4000
3360000,-0.00657478,0.00441343,0.0116943,4000,0,0.0153927,-0.0171775,-9.81493,4000
3368000,0.00227506,0.00544566,0.00811732,4000,0,-0.0303493,-0.0662784,-9.85774,4000
3372000,0.00755766,-0.00523337,0.00230921,4000,0,0.0145772,-0.0564027,-9.86224,4000
3376000,-0.00219558,-0.0128963,-0.00164602,4000,0,-0.0165827,0.0141459,-9.86102,4000
3380000,0.00214524,-0.00634555,-0.011026,4000,0,0.0064656,0.00180365,-9.80042,4000
3384000,0.0116155,-0.00149747,-0.0130838,4000,0,0.0152919,-0.0407775,-9.74029,4000
3392000,-0.000830591,-0.00172268,0.0245582,4000,0,0.0391098,0.0373403,-9.77443,4000
3396000,0.003387,-0.00835967,0.0139555,4000,0,-0.0571276,0.0366844,-9.77639,4000
3400000,0.00663342,-0.00354307,0.0089413,4000,0,-0.0940876,0.0108936,-9.80018,4000
3404000,0.00438733,0.00559055,0.00519126,4000,0,0.00784005,0.0421067,-9.84365,4000
3412000,-0.014924,-0.00152446,0.00365929,4000,0,-0.0309265,-0.0331814,-9.85627,4000
3416000,-0.00377504,-0.00132077,-0.00696534,4000,0,-0.0158805,-0.0210459,-9.81449,4000
3424000,-0.0167182,-0.00367032,0.00419883,4000,0,0.0451416,-0.0350337,-9.8297,4000
3428000,-0.00439775,-0.00519717,0.0136899,4000,0,0.0184158,0.0124502,-9.83511,4000
3432000,0.00159011,-6.39428e-05,0.0162295,4000,0,-0.0261568,-0.0210225,-9.84592,4000
3436000,-0.00785641,-0.00291887,0.00657651,4000,0,0.0031794,-0.0497405,-9.83671,4000
3444000,0.00463731,-0.00140331,0.00144697,4000,0,-0.00184327,0.0282762,-9.7249,4000
3452000,0.0038587,0.0136387,0.0160324,4000,0,-0.031024,-0.015194,-9.77561,4000
3456000,-0.000297814,0.00418645,0.0241478,4000,0,-0.0538806,-0.0403151,-9.8014,4000
3460000,-0.00226507,0.00286203,0.00148504,4000,0,-0.0343726,0.0079068,-9.80551,4000
3464000,0.0126215,-0.00307982,-0.00378366,4000,0,0.0379757,0.000563362,-9.86022,4000
3468000,0.0154308,-0.00259976,0.0022591,4000,0,0.0422138,-0.0484552,-9.83904,4000
3472000,0.0104226,0.00427153,0.00240002,4000,0,0.0329976,0.0149422,-9.77417,4000
3476000,0.00893565,-0.00291019,-0.00276782,4000,0,0.0377747,0.0715729,-9.77149,4000
3480000,0.00295188,-0.00427312,0.000217907,4000,0,-0.0214283,0.0668419,-9.76717,4000
3484000,0.00014296,0.00379959,0.00193243,4000,0,-0.0621479,0.0380959,-9.84049,4000
3488000,0.002187,-0.000999787,0.00412138,4000,0,-0.0481479,-0.00253682,-9.88556,4000
3492000,0.00461227,-0.00457404,0.00627255,4000,0,0.0191054,0.0261539,-9.82723,4000
3496000,0.00275695,0.0056319,0.00181188,4000,0,0.00418416,0.0294491,-9.71997,4000
3504000,0.0168074,0.000942792,0.00372066,4000,0,-0.0109196,-0.0288697,-9.81803,4000
3508000,-0.00840738,-0.00046726,-0.00184291,4000,0,0.0268086,-0.0027048,-9.78768,4000
3512000,-0.00787339,0.00493251,0.00218645,4000,0,0.039423,0.0257877,-9.81675,4000
3516000,-0.00242297,0.00403488,0.00125553,4000,0,0.0193838,0.028901,-9.78038,4000
3520000,-0.0108493,-0.00115327,0.00403965,4000,0,-0.012152,0.0161277,-9.76147,4000
3524000,-0.00277066,0.000477391,0.00181235,4000,0,-0.0726893,0.0368615,-9.82345,4000
3528000,0.00453694,0.00147572,-0.00493071,4000,0,-0.0410841,0.0439541,-9.82883,4000
3532000,0.00916483,-0.00162725,-0.000895688,4000,0,0.00850665,-0.0166044,-9.80649,4000
3540000,0.00633267,9.96886e-05,0.0127795,4000,0,0.0493966,0.000246569,-9.81287,4000
3548000,-0.0282539,-0.0115461,-0.00882967,4000,0,-0.0504486,-0.00620156,-9.88815,4000
3552000,-0.0138848,-0.00783287,-0.00621321,4000,0,0.0110031,0.0382889,-9.86041,4000
3556000,0.00444337,-0.0126571,0.00453721,4000,0,0.0714959,0.0340381,-9.83172,4000
3560000,0.0133302,-0.0116988,0.00355296,4000,0,0.0510821,-0.0109415,-9.79735,4000
3564000,0.00810042,-0.0149526,-0.00143612,4000,0,0.0150664,-0.0142936,-9.78781,4000
3568000,0.00871096,-0.00838927,-0.0120516,4000,0,-0.00111579,-0.0429827,-9.75658,4000
3572000,-0.00347358,-0.00669855,-0.0197165,4000,0,-0.00367246,-0.0155192,-9.74476,4000
3576000,-0.011852,-0.0135429,-0.0182994,4000,0,0.0390697,0.0388071,-9.7454,4000
3584000,-0.00430069,-0.00417171,-0.00566572,4000,0,0.00620026,-0.00493178,-9.77122,4000
3588000,-0.00126857,0.00116454,-0.00700603,4000,0,0.0203595,0.00924781,-9.78975,4000
3596000,0.00985309,-0.00194806,-0.00777545,4000,0,0.0547616,0.0561228,-9.81003,4000
3600000,0.00875511,0.00211409,-0.00843461,4000,0,0.000349045,0.0198282,-9.78662,4000
3604000,0.00226048,-0.00119287,-0.000212037,4000,0,-0.0277132,-0.0225655,-9.79696,4000
3608000,-0.00857278,-0.00927701,0.00499914,4000,0,-0.0195622,0.0321044,-9.86216,4000
3612000,-0.0101817,0.00442645,0.00417655,4000,0,-0.00572935,0.0143579,-9.88292,4000
3620000,-0.000497354,0.0107456,-0.00339507,4000,0,-0.0232276,0.00168504,-9.82429,4000
3624000,0.00151825,-0.0103369,-0.000422015,4000,0,-0.000340497,0.011119,-9.83193,4000
3628000,-0.00305699,-0.00755255,0.00901502,4000,0,0.0441411,0.0170661,-9.79599,4000
3632000,-0.00845493,-0.0103838,0.00848486,4000,0,0.0155006,0.0154497,-9.80439,4000
3636000,-0.0096042,-0.011885,0.00143726,4000,0,-0.0392111,0.0531771,-9.80965,4000
3640000,-0.0111107,0.00126016,-0.00128507,4000,0,-0.0278053,0.0720133,-9.81569,4000
3644000,-0.00667091,-0.00187543,0.00782655,4000,0,-0.0835501,0.00661144,-9.85087,4000
3652000,0.00824868,0.00905022,0.0110006,4000,0,-0.0187492,0.000246567,-9.79272,4000
3656000,-0.00109789,0.0145991,0.00780461,4000,0,-0.00561235,0.0258213,-9.79983,4000
3660000,-0.0062903,0.022622,0.00687709,4000,0,0.0424538,-0.0363075,-9.83508,4000
3668000,-0.00963811,0.0158076,-0.00562923,4000,0,-0.00228784,-0.0452075,-9.85908,4000
3672000,-0.00399559,0.016413,-0.00297308,4000,0,-0.0387059,-0.04354,-9.84743,4000
3676000,0.00379649,0.0132999,0.00316956,4000,0,-0.0296981,-0.0512307,-9.80142,4000
3680000,0.00975882,0.0143588,0.00600376,4000,0,-0.0242975,-0.0393593,-9.83566,4000
3688000,0.00706021,0.0146014,0.00206307,4000,0,-0.0319315,-0.0478842,-9.80133,4000
3692000,-0.0032058,0.00685621,0.00415723,4000,0,0.0194801,-0.0379433,-9.79982,4000
3696000,-0.00767688,-0.00621926,0.0104161,4000,0,0.0566633,0.000642048,-9.82902,4000
3700000,-0.0073918,0.00619409,0.0113929,4000,0,-0.000552034,0.0464652,-9.83445,4000
3704000,0.00113947,0.00874726,0.00327175,4000,0,-0.0382158,0.045063,-9.80114,4000
3708000,0.00352242,-0.00673115,-0.0010416,4000,0,-0.0133723,0.015895,-9.7886,4000
3716000,-0.0042129,0.00214177,-0.00679642,4000,0,-0.00240982,0.00780137,-9.76354,4000
3720000,0.00583031,0.00797825,-0.00772589,4000,0,-0.0308013,0.00930531,-9.82096,4000
3724000,0.00642602,0.00663657,-0.0159971,4000,0,0.0224146,0.00315873,-9.79218,4000
3728000,-0.0025425,0.00830201,-0.0109308,4000,0,0.0844231,-0.0135103,-9.79306,4000
3732000,-0.00600462,0.00582506,0.00174286,4000,0,0.050147,-0.051725,-9.80533,4000
3736000,-0.00535113,-0.00419709,0.00100413,4000,0,0.00594596,-0.0186726,-9.80071,4000
3740000,-0.0140091,-0.00533451,-0.00141755,4000,0,-0.0299085,0.0374864,-9.8336,4000
3744000,-0.0220966,0.000862745,-0.0131511,4000,0,0.0392536,0.0138192,-9.87935,4000
3748000,-0.0156201,-0.000888539,-0.00679686,4000,0,0.0711867,-0.0509711,-9.82775,4000
3756000,-0.005103,-0.0029093,-0.0139809,4000,0,-0.0067059,0.000536827,-9.85839,4000
3760000,-0.0142007,0.000948199,-0.0129672,4000,0,-0.0080487,-0.0316835,-9.76709,4000
3768000,0.0068951,0.00299527,0.0046583,4000,0,-0.0264523,0.0199558,-9.85285,4000
3772000,-0.0055123,-0.0157597,0.00316123,4000,0,0.00266918,-0.036137,-9.8702,4000
3776000,-0.00214728,-0.00450678,-0.000694474,4000,0,0.0227403,-0.0459336,-9.82859,4000
3780000,0.000576898,-4.08862e-05,-0.00272365,4000,0,0.0378365,-0.0280757,-9.83089,4000
3784000,0.00494221,-0.000200621,-0.000356967,4000,0,0.0328286,0.0123258,-9.86865,4000
3788000,0.0102734,0.00375396,0.00230199,4000,0,0.0153368,0.0110843,-9.85016,4000
3792000,0.00373311,0.00165504,0.00268544,4000,0,0.00172547,-0.0233356,-9.82802,4000
3796000,-0.00409436,-0.00978073,0.00831011,4000,0,0.0190214,-0.0676646,-9.82976,4000
3800000,-0.00328459,-0.00773227,0.0114959,4000,0,0.00671865,-0.0637599,-9.8238,4000
3804000,0.000725665,-0.000309341,0.00729175,4000,0,0.0109851,0.0348049,-9.82204,4000
3808000,0.00437572,-0.00509161,0.0109065,4000,0,0.00721187,0.0599369,-9.82486,4000
3812000,0.00132532,-0.000194007,-0.00260954,4000,0,-0.0377614,0.0213182,-9.79928,4000
3816000,-0.00282127,0.00449313,-0.019427,4000,0,0.00191546,0.0130372,-9.82638,4000
3820000,-0.00774886,0.00246092,-0.00637541,4000,0,0.0313099,-0.00348547,-9.81069,4000
3824000,-0.0107219,-0.00478651,0.007978,4000,0,-0.0116175,-0.00407779,-9.76125,4000
3832000,0.00669471,0.00261344,0.00111529,4000,0,-0.00846538,0.0188896,-9.82544,4000
3836000,0.0111272,-0.00255201,0.00128052,4000,0,0.0103081,0.0484655,-9.81921,4000
3840000,0.00187209,-0.000882444,0.00699829,4000,0,-0.0285371,0.00632819,-9.82589,4000
3844000,-0.00801333,-0.00163122,-0.00319802,4000,0,-0.0229129,0.000465841,-9.80997,4000
3848000,-0.00404219,-0.00959603,-0.00755605,4000,0,0.0291039,-0.00246646,-9.74063,4000
3852000,-0.00161435,-0.0174386,-0.00539588,4000,0,0.00358109,0.0160503,-9.74566,4000
3856000,-0.00648195,-0.00268087,-0.00107772,4000,0,-0.00561839,0.0567903,-9.79288,4000
3860000,-0.00326008,0.0058957,-0.00470499,4000,0,-0.00605516,0.0161142,-9.81508,4000
3864000,0.00780468,0.0131172,-0.000629313,4000,0,0.0325172,-0.0423092,-9.86244,4000
3868000,0.00819481,0.00769672,0.009681,4000,0,0.027725,-0.0522547,-9.88163,4000
3876000,0.0125365,-0.00350235,-1.97939e-05,4000,0,0.0117307,0.0276818,-9.88841,4000
3880000,0.0109784,0.00618792,-0.00335582,4000,0,0.0207851,0.0156444,-9.83522,4000
3888000,0.0159001,-0.0081307,0.0059214,4000,0,0.0186017,-0.0402447,-9.77441,4000
3892000,0.0164412,-0.0109629,0.0065228,4000,0,0.000562571,-0.0238925,-9.77255,4000
3896000,0.00349714,-0.0029839,0.00426897,4000,0,-0.071336,0.00221672,-9.74586,4000
3900000,0.00146831,0.00476633,-0.00692184,4000,0,-0.0481752,-0.0619688,-9.80109,4000
3904000,-0.00185934,0.000550234,-0.0182018,4000,0,0.00790386,-0.0487716,-9.84832,4000
3908000,-0.00559929,0.00336148,-0.0100007,4000,0,0.0266167,0.00111618,-9.81741,4000
3912000,-0.00300049,0.00726317,-0.00390858,4000,0,0.0250784,0.0207242,-9.78141,4000
3916000,-0.00498217,-0.00596192,0.00185008,4000,0,0.0445674,0.0134807,-9.7858,4000
3920000,-0.00567962,-0.0013355,0.000701555,4000,0,0.0510413,0.00179459,-9.76036,4000
3928000,0.00963356,-0.0103007,-0.00351325,4000,0,0.0271195,0.0193494,-9.82104,4000
3932000,0.00432038,-0.00894459,-0.00117628,4000,0,-0.0403274,-0.0137435,-9.78998,4000
3940000,-0.00554024,0.00958541,-0.00498806,4000,0,0.00164788,-0.0278523,-9.81563,4000
3944000,0.00983351,0.0174175,-0.00140909,4000,0,0.00599064,0.0361407,-9.8187,4000
3948000,-0.00409223,0.0171903,-0.00187116,4000,0,-0.022593,-0.0205955,-9.83595,4000
3956000,0.0131156,0.000689142,-0.00266744,4000,0,-0.00964484,0.00888994,-9.75998,4000
3960000,0.00151224,-0.00848169,0.00033211,4000,0,-0.0281467,-0.0434026,-9.84116,4000
3968000,0.00286424,-0.00260272,-0.00180917,4000,0,0.00693516,0.00611091,-9.79422,4000
3972000,0.00028411,-8.2105e-05,-0.00484313,4000,0,0.0591019,0.0281154,-9.80613,4000
3976000,0.00441644,-0.00174976,-0.00207709,4000,0,0.0478617,0.13286,-9.8327,4000
3984000,-0.000490113,0.00350848,-0.00139166,4000,0,-0.0867753,0.0490357,-9.8295,4000
3988000,-0.000424619,-0.0072823,0.00672568,4000,0,0.00600537,0.028731,-9.81398,4000
3996000,0.00419348,-0.00326821,-0.0102544,4000,0,-0.0224986,-0.0382881,-9.79544,4000
4000000,-0.0109936,0.00786304,-0.00527795,4000,0,-0.015111,-0.0270256,-9.79009,4000
4008000,0.0244969,0.00983241,0.0016837,4000,0,-0.052505,0.011609,-9.81541,4000
4016000,-0.000290513,0.00384121,0.00325926,4000,0,-0.0314541,-0.0557819,-9.7664,4000
4020000,-0.00505914,0.00525685,-0.00257139,4000,0,-0.0730021,-0.0593978,-9.78379,4000
4028000,0.0115399,-0.0107449,-0.000940987,4000,0,-0.0594901,-0.0389893,-9.7871,4000
4032000,0.00744546,-0.000115138,0.000466152,4000,0,-0.035567,-0.0199003,-9.7613,4000
4036000,0.0104469,0.0145529,0.00324788,4000,0,-0.0263963,-0.0213708,-9.84431,4000
4044000,-0.0031238,0.00285711,0.00574925,4000,0,-0.0307301,-0.0358451,-9.80669,4000
4048000,-0.00177424,0.00382471,-0.00285071,4000,0,-0.0279596,-0.0533686,-9.77886,4000
4052000,-0.000519457,-0.000999544,-0.00557192,4000,0,-0.0341763,-0.0221391,-9.80941,4000
4056000,0.00224328,-0.00165961,0.0049484,4000,0,0.0361002,-0.0338893,-9.84871,4000
4064000,-0.0053563,-0.00783627,-0.00382688,4000,0,-0.0163318,-0.014511,-9.85279,4000
4068000,0.00201027,-0.000504301,0.00175101,4000,0,-0.0420769,-0.0419164,-9.80595,4000
4072000,0.0102394,0.00901329,0.00944331,4000,0,-0.0449491,-0.0501726,-9.84337,4000
4080000,-0.0097917,0.0129983,-0.00099712,4000,0,-0.0105962,-0.00962399,-9.79982,4000
4088000,-0.00135593,0.0103984,-0.00320891,4000,0,-0.000149158,0.0416122,-9.85137,4000
4092000,0.000528418,0.0103527,0.00159863,4000,0,-0.0148962,0.00862195,-9.86482,4000
4096000,-0.00172512,0.00941994,0.0129212,4000,0,-0.00112277,0.00964335,-9.83169,4000
4100000,-0.00234084,0.0137786,-0.00200022,4000,0,0.0385336,0.0513377,-9.81375,4000
4104000,0.000509249,0.0036365,-0.00439905,4000,0,0.019433,0.0409636,-9.81709,4000
4108000,0.0064792,-0.00303575,0.00143858,4000,0,0.0297978,-0.0165249,-9.83308,4000
4116000,-0.00913859,-0.0080517,-0.00399191,4000,0,-0.00588287,-0.0390634,-9.8235,4000
4120000,-0.00773502,-0.00306476,-0.00607784,4000,0,0.0330932,0.0101365,-9.79539,4000
4124000,-0.00564183,0.00709773,-0.00139652,4000,0,0.0275983,0.0359728,-9.76273,4000
4128000,-0.0070753,0.0130604,0.00429629,4000,0,-0.00333821,0.0373229,-9.79267,4000
4136000,0.00497139,0.00657562,-0.00212435,4000,0,-0.0119835,0.0701423,-9.8572,4000
4140000,0.00770687,0.00830673,0.000954044,4000,0,-0.00360987,0.0270768,-9.81475,4000
4144000,0.00913747,-0.00453485,0.00538411,4000,0,0.039818,-0.0546733,-9.76658,4000
4148000,-0.00618582,0.00164564,0.00152953,4000,0,-0.0197093,-0.0253143,-9.79827,4000
4152000,-0.0146681,-0.00249951,-0.000387162,4000,0,-0.0617233,-0.0188768,-9.80659,4000
4156000,-0.00631553,-0.00976221,-0.00211462,4000,0,-0.00199961,-0.00770689,-9.7941,4000
4160000,-0.00106365,0.000601024,-0.0143463,4000,0,-0.00859231,0.0192983,-9.82841,4000
4164000,-0.00147523,0.00377744,-0.0162087,4000,0,0.0110242,-0.024208,-9.87755,4000
4168000,-0.00449877,-0.00505817,-0.00547511,4000,0,0.0012594,0.0159395,-9.82414,4000
4176000,0.00613236,-0.000790383,0.0110537,4000,0,-0.0251137,0.0554365,-9.83111,4000
4180000,0.00491587,-0.0014804,0.00440815,4000,0,-0.0301598,0.0416213,-9.83295,4000
4184000,-0.00195031,-0.00359879,-0.00142986,4000,0,0.0185734,0.0218406,-9.80577,4000
4192000,-0.0098143,-0.00312656,0.00657393,4000,0,0.0326759,-0.000786935,-9.8358,4000
4196000,-0.00490274,0.00894967,0.00797067,4000,0,0.0288521,-0.0152846,-9.77592,4000
4200000,-0.00333722,0.00918793,-0.000175516,4000,0,0.0629548,0.0203286,-9.7752,4000
4204000,7.22283e-05,-0.00760591,-0.000912171,4000,0,0.0336835,0.00229839,-9.81757,4000
4208000,0.00357504,-0.000279036,0.00958985,4000,0,-0.038992,-0.0273676,-9.84397,4000
4212000,0.00277954,0.00216267,0.00550179,4000,0,-0.0017879,-0.0502667,-9.80924,4000
4220000,-0.00477544,-0.00451268,0.0124869,4000,0,0.0195458,0.0147227,-9.84528,4000
4224000,0.003943,-0.00897593,-0.000152359,4000,0,-0.0296436,0.0214343,-9.80852,4000
4228000,0.00311664,-0.00301077,-0.00511384,4000,0,0.00742065,0.00497311,-9.8313,4000
4232000,0.00517603,-0.000588866,-0.00174274,4000,0,0.0533102,-0.0286639,-9.83687,4000
4240000,-0.00337643,-0.00214593,-0.015103,4000,0,0.0389447,-0.0042455,-9.8143,4000
4244000,-0.000200525,0.00057582,-0.00887044,4000,0,0.0346209,0.0384104,-9.79507,4000
4248000,0.00424601,-0.00271907,-0.0120951,4000,0,-0.00514148,-0.00922425,-9.78181,4000
4252000,0.0083395,-3.0847e-05,-0.0121786,4000,0,-0.0173016,-0.0420885,-9.80252,4000
4256000,0.0024687,0.000940829,-0.00191777,4000,0,0.012321,-0.00209062,-9.76206,4000
4260000,-0.00263484,0.00836714,-0.00725715,4000,0,0.0245995,-0.0180712,-9.79726,4000
4264000,-0.00422958,-0.00130152,-0.0177184,4000,0,-0.0255286,-0.0218688,-9.81893,4000
4268000,-0.013513,0.00501531,-0.00651936,4000,0,-0.0520116,-0.00421992,-9.78488,4000
4276000,0.00571689,-0.00707147,-0.00176239,4000,0,-0.0493694,0.00810692,-9.81714,4000
4280000,0.00264555,0.00643784,0.00137363,4000,0,-0.0511704,0.0672472,-9.75389,4000
4284000,-0.0133735,0.00713838,0.00900741,4000,0,-0.00957731,0.0358934,-9.80855,4000
4288000,-0.0181008,-0.00745092,0.00807632,4000,0,0.0419425,-0.0329726,-9.84055,4000
4296000,0.000444188,0.00268039,-0.0154363,4000,0,-0.0581186,0.025823,-9.84343,4000
4300000,-0.0115333,0.000528972,-0.00372895,4000,0,-0.0419752,0.041489,-9.75965,4000
4308000,0.00233796,0.00861146,0.00209265,4000,0,-0.0221464,0.0408188,-9.86624,4000
4312000,0.00832326,0.0108671,0.00443279,4000,0,-0.000370869,-0.00404901,-9.83959,4000
4316000,0.0143663,0.0144108,0.00453564,4000,0,-0.00729434,-0.0679857,-9.80334,4000
4320000,0.011208,-0.00391295,0.0119758,4000,0,-0.0545194,-0.0613849,-9.83417,4000
4324000,0.0055636,-0.00722828,0.0134886,4000,0,-0.0366319,-0.0103386,-9.81439,4000
4328000,0.00130439,-0.00215085,-0.00310679,4000,0,0.0118074,0.0239622,-9.82207,4000
4332000,-0.00582252,-0.00586947,-0.0135126,4000,0,-0.0491298,0.0624342,-9.88534,4000
4336000,-0.0145847,0.00144223,-0.00557612,4000,0,-0.0853415,0.034561,-9.85374,4000
4344000,0.00134831,1.42908e-05,-0.00281755,4000,0,-0.0146744,0.0391517,-9.83434,4000
4348000,-0.00193768,-0.001377,-0.00119259,4000,0,-0.0474485,-0.0387985,-9.78013,4000
4352000,0.00445807,0.0059854,-0.014906,4000,0,-0.0286711,-0.0719494,-9.76291,4000
4360000,0.0037738,0.0043605,-0.00199553,4000,0,-0.0418771,-0.00689298,-9.75309,4000
4364000,0.00527506,0.00485498,-0.00371886,4000,0,-0.0514609,-0.0287184,-9.78952,4000
4368000,-0.00292701,-0.00143734,0.00224603,4000,0,-0.0418857,-0.00223955,-9.78766,4000
4376000,0.00524454,-0.0047367,0.00811639,4000,0,-0.0253229,-0.0284241,-9.83236,4000
4384000,-0.00464744,0.0103879,-0.00238405,4000,0,0.0583394,0.0573229,-9.81614,4000
4388000,-0.0110224,0.0133477,-0.00437603,4000,0,0.0710576,-0.00204772,-9.84248,4000
4392000,-0.00753466,-0.00226262,0.000638903,4000,0,0.0549171,-0.0156638,-9.83689,4000
4396000,-0.013284,0.00294954,0.0102695,4000,0,0.0156861,0.0134748,-9.79487,4000
4400000,-0.0105144,0.0115783,0.00698052,4000,0,0.063255,0.00603833,-9.77176,4000
4404000,0.0031062,0.00899266,-0.00301243,4000,0,0.078667,-0.0361176,-9.83755,4000
4408000,0.00686384,0.00441068,0.00727687,4000,0,0.0179535,-0.0334679,-9.83239,4000
4412000,0.0111156,0.00890545,0.0143984,4000,0,-0.0163438,-0.0154757,-9.79853,4000
4416000,0.0141063,-0.00321333,0.00731691,4000,0,1.56937e-05,-0.00906967,-9.82505,4000
4420000,0.00774759,-0.00695354,0.00201045,4000,0,-0.024077,-0.0143358,-9.856,4000
4424000,0.00621272,0.00175356,0.000680255,4000,0,-0.0457209,0.00954681,-9.88229,4000
4428000,-0.00220912,-0.00232225,-0.000720761,4000,0,-0.0141741,0.00522376,-9.84067,4000
4432000,-0.0100239,0.00375389,0.0139479,4000,0,-0.000792694,-0.00856784,-9.78544,4000
4436000,-0.000893279,0.00728708,0.0201508,4000,0,-0.0675587,0.0212214,-9.81142,4000
4444000,0.0126707,0.00624954,0.00101857,4000,0,-0.0104964,0.0538984,-9.86189,4000
4452000,0.00106405,-0.00565004,-0.0108093,4000,0,0.00590821,0.0291334,-9.87482,4000
4456000,0.00599945,0.00107394,0.000719862,4000,0,0.0456394,0.000198794,-9.80951,4000
4460000,0.00691083,0.00625543,0.00513712,4000,0,0.0476793,0.023117,-9.82265,4000
4468000,-0.00971831,-0.00137996,-0.00506726,4000,0,-0.0341698,-0.0373989,-9.88031,4000
4472000,-0.00106126,0.000528882,0.000451442,4000,0,-0.0460218,-0.0148531,-9.89609,4000
4480000,-0.00299284,0.0134601,0.000241308,4000,0,-0.0446282,0.0269213,-9.7871,4000
4488000,-0.00210765,0.00580849,-0.0019952,4000,0,-0.0312146,0.0755102,-9.84899,4000
4496000,0.00289803,0.00741635,0.000848309,4000,0,0.0523935,0.000680233,-9.77127,4000
4500000,0.00390244,0.000996977,0.00589354,4000,0,0.0515346,0.00571262,-9.8177,4000
4504000,0.00475765,-0.00291811,0.00772887,4000,0,0.0656904,-0.00749608,-9.82388,4000
4508000,0.00390358,0.00499807,-0.0010473,4000,0,0.0294069,-0.0474428,-9.7821,4000
4512000,-0.00682614,0.0116375,-0.00584335,4000,0,0.0124031,0.00230848,-9.78691,4000
4516000,-0.0112454,0.00129676,-0.00462442,4000,0,0.0474719,0.0149271,-9.80044,4000
4520000,0.0032199,0.000830753,-0.00612477,4000,0,-0.0023278,0.00203332,-9.82808,4000
4524000,0.00250359,0.0117896,-0.0102805,4000,0,0.0178368,0.0247089,-9.8177,4000
4528000,0.00409009,-0.00112097,-0.00115627,4000,0,0.0292045,0.00832084,-9.78422,4000
4536000,-0.00142634,-0.00475592,0.0137567,4000,0,-0.0353575,-0.0153558,-9.8025,4000
4544000,-0.0101774,-0.00397207,-0.0146716,4000,0,0.0173367,-0.0531971,-9.87444,4000
4548000,0.0109199,0.00185185,-0.00895101,4000,0,0.00769584,-0.0244104,-9.80843,4000
4552000,0.00931846,0.00671334,0.00466038,4000,0,0.0300348,0.013949,-9.79426,4000
4556000,0.00168651,0.0112205,0.00235352,4000,0,0.0418607,-0.0219438,-9.79094,4000
4560000,-0.0052418,0.00826303,-0.0138544,4000,0,0.0528715,-0.0706149,-9.7968,4000
4564000,-0.00675543,0.00352903,-0.0177748,4000,0,0.0681413,-0.0724544,-9.7727,4000
4568000,-0.00629914,0.000814289,-0.00650902,4000,0,0.0065653,-0.0459725,-9.73105,4000
4576000,0.000379863,-0.00329114,0.000231112,4000,0,-0.0247082,-0.0246382,-9.78037,4000
4580000,-0.00145735,-0.00316309,-0.00127191,4000,0,-0.0179453,-0.00841745,-9.79532,4000
4584000,0.00530259,-0.00686816,0.00225352,4000,0,0.00705762,0.00153445,-9.80815,4000
4588000,-0.00627767,-0.00967197,-0.00101678,4000,0,0.016415,0.0267915,-9.78663,4000
4596000,0.0104782,-0.0110482,-0.0123697,4000,0,-0.0368644,-0.0421197,-9.84177,4000
4600000,0.00131301,-0.011995,-0.00583098,4000,0,-0.0262416,-0.0429261,-9.80013,4000
4604000,-0.00862806,-0.00684244,5.83115e-07,4000,0,-0.0231704,-0.0185574,-9.81586,4000
4612000,0.00330014,0.00168698,8.98731e-05,4000,0,0.0129169,0.0664943,-9.81421,4000
4620000,0.0217995,0.000546433,0.00909876,4000,0,0.00931544,-0.039019,-9.78122,4000
4624000,0.000931775,0.00823093,-0.00363094,4000,0,-0.00353053,-0.0349199,-9.77038,4000
4628000,-0.0114174,-0.00135812,-0.00313327,4000,0,-0.0306491,-0.00361099,-9.76273,4000
4632000,-0.00184323,-0.00479587,0.00261414,4000,0,-0.0521587,-0.00717578,-9.82199,4000
4636000,-0.00446693,0.00374463,0.00630073,4000,0,-0.00458433,-0.0465442,-9.84254,4000
4640000,-0.00080881,0.00439355,0.00978359,4000,0,0.00330087,-0.0545054,-9.82951,4000
4644000,0.000162023,0.00434986,0.0025818,4000,0,-0.0300768,-0.0355668,-9.83704,4000
4648000,-0.00164808,-0.0043739,0.00258461,4000,0,-0.0202583,-0.0438465,-9.85077,4000
4652000,0.00537521,0.000769725,-0.00365465,4000,0,-0.0262508,-0.020649,-9.86206,4000
4656000,0.00760125,0.00563774,-0.00943891,4000,0,0.0112324,0.0277186,-9.82607,4000
4660000,0.0057356,-0.00579102,-0.00329208,4000,0,0.053417,0.0412051,-9.77242,4000
4664000,0.0096144,-0.0102471,-0.0039126,4000,0,0.0558367,0.0232229,-9.80838,4000
4672000,0.004096,-0.00457315,0.000563609,4000,0,-0.0213534,0.046565,-9.80809,4000
4676000,0.00552462,0.000456541,-0.000137719,4000,0,0.051667,-0.00445407,-9.80363,4000
4680000,0.00109922,0.00591703,-0.00395334,4000,0,0.0475283,-0.0170581,-9.75603,4000
4684000,-0.0119712,0.00585448,-0.00921314,4000,0,0.0162266,0.0364384,-9.72964,4000
4688000,-0.00944596,-6.62022e-05,0.00870048,4000,0,0.00731534,0.0532699,-9.79355,4000
4692000,-0.00273997,0.00107282,0.00899461,4000,0,0.0181227,0.0434846,-9.79012,4000
4696000,-0.00534309,0.00260888,-0.00229624,4000,0,-0.0176557,-0.0204693,-9.76117,4000
4700000,-0.00912922,0.00869327,0.0100867,4000,0,-0.0258375,-0.0424678,-9.78165,4000
4704000,0.000993655,0.00141989,0.00462532,4000,0,0.0251919,0.00840999,-9.76166,4000
4708000,0.00338932,-0.00267653,0.00391207,4000,0,0.0769439,0.00964857,-9.74453,4000
4716000,-0.0072103,-0.00561022,-0.00457588,4000,0,-0.0150264,-0.0188773,-9.80826,4000
4720000,0.00114746,-0.00146171,0.00772993,4000,0,-0.0555027,-0.0454349,-9.78784,4000
4728000,-0.00925184,-0.0017833,0.00111322,4000,0,0.0208616,-0.0810799,-9.78751,4000
4732000,0.000293978,-0.00111486,-0.00229139,4000,0,-0.0592116,-0.0287618,-9.83563,4000
4740000,0.00776873,0.00979565,0.00374529,4000,0,-0.0263411,0.0413478,-9.77351,4000
4744000,0.0044684,0.0216633,0.0128663,4000,0,-0.052594,-0.00936988,-9.83883,4000
4748000,0.00726662,0.0112845,0.00805412,4000,0,-0.0696449,0.0128379,-9.83789,4000
4752000,0.00166944,0.0121172,-0.00768292,4000,0,-0.0107349,0.0118247,-9.77458,4000
4760000,0.00926698,-0.00807886,0.0080692,4000,0,0.00917389,-0.0213552,-9.85148,4000
4764000,0.0117962,-0.00902479,0.00498024,4000,0,-0.0171998,-0.0554228,-9.84601,4000
4768000,-0.0043542,-0.0111863,-0.00084295,4000,0,0.0203024,-0.0271918,-9.80572,4000
4772000,0.00012496,-0.00152074,0.00531513,4000,0,0.032823,-0.0170139,-9.79628,4000
4780000,-0.00043644,0.00827466,-0.00104677,4000,0,0.0134324,-0.0636836,-9.75255,4000
4784000,0.00182164,0.0110984,0.00340707,4000,0,0.0513278,-0.00168115,-9.76789,4000
4788000,-0.00652175,0.00147203,-0.00600847,4000,0,0.0510492,0.0651808,-9.77304,4000
4792000,-0.00621895,-0.00841344,-0.00542072,4000,0,0.00908813,0.0304509,-9.7917,4000
4796000,-0.00356116,0.000729544,-0.00477499,4000,0,-0.0183594,-0.008,-9.83202,4000
4800000,-0.00483584,0.00804708,-0.00706534,4000,0,-0.00504248,-0.0193562,-9.82496,4000
4804000,-0.0155029,0.00158914,-7.56446e-05,4000,0,-0.0242582,-0.0364176,-9.80423,4000
4812000,0.00711456,-0.00261436,0.00346727,4000,0,0.0100678,0.0124151,-9.78165,4000
4820000,-0.000420428,0.00410133,0.00430773,4000,0,-0.0363145,-0.0460499,-9.78767,4000
4824000,0.00544827,0.00534135,0.00162465,4000,0,-0.0605487,-0.0666439,-9.80623,4000
4828000,-0.0100441,-0.00903337,-0.00915029,4000,0,-0.0713728,-0.010173,-9.83397,4000
4832000,-0.0144385,-0.000679075,-0.0161741,4000,0,-0.0296011,0.04438,-9.82213,4000
4836000,0.00414909,0.000482818,-0.00427612,4000,0,-0.0145467,0.017189,-9.80629,4000
4840000,0.00590298,-0.00923976,0.00441787,4000,0,-0.0353153,-0.0128855,-9.83204,4000
4844000,-0.0103116,0.000431741,-0.00155301,4000,0,-0.0255285,0.0196087,-9.83744,4000
4848000,-0.0216388,0.00719198,-0.00262558,4000,0,-0.0340088,0.0876914,-9.76587,4000
4852000,-0.0156146,0.00297226,-0.00112528,4000,0,-0.056382,0.0296948,-9.75238,4000
4856000,0.00105443,-0.00229153,0.0038038,4000,0,-0.00851211,-0.00690753,-9.82527,4000
4860000,0.0130325,-0.00436513,0.00730139,4000,0,0.0327213,0.0326471,-9.8148,4000
4864000,0.00522725,-0.00114512,0.00323986,4000,0,0.0548571,-0.000191205,-9.79268,4000
4868000,0.00102495,0.00381908,0.000717067,4000,0,0.0242142,0.00273563,-9.80209,4000
4872000,0.00821648,-0.00146005,0.00547644,4000,0,0.0086097,0.0407834,-9.81318,4000
4876000,0.00765745,-0.00367576,0.00537863,4000,0,0.02382,-0.00314374,-9.81324,4000
4880000,0.00398265,0.00488593,0.00272145,4000,0,0.0382763,-0.0417542,-9.82675,4000
4884000,-0.00221939,6.69509e-05,-0.00455811,4000,0,-0.00198847,0.000105947,-9.86669,4000
4888000,-0.00868806,-0.0143986,-0.00117537,4000,0,-0.0641288,0.0207357,-9.80637,4000
4892000,-0.00646318,-0.00601832,0.0135641,4000,0,-0.0366665,-0.0154646,-9.69534,4000
4896000,-0.00014118,0.00781312,0.00235069,4000,0,-0.0433678,-0.0399725,-9.70515,4000
4904000,0.00944696,-0.00225452,0.00345121,4000,0,-0.0277501,0.0146075,-9.89806,4000
4908000,0.0101527,-0.00391862,-0.0023308,4000,0,0.0175688,0.0522037,-9.85942,4000
4912000,0.0110573,-0.00834354,-0.00450276,4000,0,-0.0262478,-0.00798228,-9.78644,4000
4916000,0.00984999,-0.00222884,0.00039009,4000,0,-0.0822855,-0.0670845,-9.80112,4000
4920000,-0.00129222,0.00694701,0.00199385,4000,0,0.00524109,-0.0145101,-9.82315,4000
4924000,-0.00380766,-0.00340991,0.0113714,4000,0,0.0264644,-0.0437253,-9.78,4000
4928000,0.00454523,-0.00955592,0.0193963,4000,0,-0.0152665,-0.0356602,-9.82885,4000
4932000,0.00668668,-6.95211e-05,0.00886971,4000,0,-0.00421487,0.0431857,-9.80674,4000
4936000,0.00340869,-0.00378172,8.09654e-05,4000,0,-0.00847844,-0.0010227,-9.83467,4000
4940000,-0.00966004,-0.0098772,0.00172333,4000,0,-0.0286755,-0.0289425,-9.84122,4000
4944000,-0.00699133,-0.0096082,0.0023941,4000,0,-0.0469316,-0.00725505,-9.7742,4000
4948000,0.00226418,-0.0118747,0.00432615,4000,0,-0.0225926,0.0487257,-9.81425,4000
4952000,0.00195941,-0.00211495,0.00409474,4000,0,0.0636892,0.026211,-9.79395,4000
4956000,0.00594721,0.00503942,-0.00211467,4000,0,0.0856974,-0.0407923,-9.79545,4000
4960000,0.00333883,-0.00165103,-0.000643678,4000,0,0.0233835,-0.0123021,-9.80547,4000
4968000,-0.00262099,-0.00516788,-0.010253,4000,0,-0.0481331,0.0431619,-9.80576,4000
4972000,-0.00917444,0.00457904,-0.00443946,4000,0,0.0178236,0.0106598,-9.76908,4000
4976000,-0.00448966,0.0063213,-0.000153341,4000,0,0.0105563,-0.0437143,-9.79165,4000
4980000,-0.00279897,-0.00919898,-0.00381102,4000,0,0.0479872,-0.0400969,-9.82389,4000
4984000,-0.0108673,-0.0057809,-0.00544272,4000,0,0.0119338,-0.000375936,-9.82539,4000
4992000,0.00898213,-0.00124585,-0.0107856,4000,0,-0.0134554,0.0167497,-9.8051,4000
4996000,0.00719736,0.00292741,-0.0050056,4000,0,-0.0338653,0.0275092,-9.74433,4000
5000000,-0.00251468,-0.00180391,0.0130431,4000,0,0.00745459,0.0562419,-9.71549,4000
5004000,-0.00411215,-0.00739961,0.00751382,4000,0,0.0257401,0.00646942,-9.767,4000
5008000,-0.00390291,-0.00512693,-0.000250842,4000,0,0.0420246,-0.063233,-9.80345,4000
5012000,-0.00100054,0.00332884,0.00337348,4000,0,0.017612,-2.58616e-05,-9.79545,4000
5016000,-0.00531729,0.002911,-0.000136063,4000,0,0.0131921,-0.00844924,-9.78833,4000
5020000,-0.00419175,0.000759037,0.00628234,4000,0,0.0256353,-0.0384361,-9.81285,4000
5024000,-0.00645588,0.00667111,0.00882024,4000,0,-0.0240679,0.0608287,-9.82401,4000
5028000,-0.0066927,0.0104091,0.00478051,4000,0,-0.0867589,0.0692148,-9.81866,4000
5032000,0.0026826,0.0104011,0.00432203,4000,0,-0.0785849,0.0386909,-9.83167,4000
5036000,0.00754626,0.00727898,-0.000711548,4000,0,-0.0246341,0.0461798,-9.79497,4000
5040000,0.0137355,-0.00499348,-0.00177046,4000,0,-0.0538142,-0.00878769,-9.77956,4000
5044000,0.0133172,-0.00131974,0.00156318,4000,0,-0.0391252,-0.0145369,-9.86175,4000
5048000,0.00219301,0.0103556,-0.00567636,4000,0,0.0166857,-0.0207516,-9.824,4000
5052000,-0.000713113,0.00886629,-0.00339335,4000,0,0.0102984,-0.0403806,-9.80849,4000
5056000,0.000586221,0.00123788,0.000706085,4000,0,-0.00822425,-0.0170965,-9.8024,4000
5060000,-0.00144389,-0.0084176,-0.00877227,4000,0,0.0173052,-0.000962379,-9.76391,4000
5064000,-0.00426618,0.00045482,-0.0044111,4000,0,0.0346572,0.0252625,-9.77146,4000
5068000,-0.00777284,0.00750624,1.09114e-05,4000,0,0.00559166,0.0253632,-9.73485,4000
5072000,-0.00279664,0.00136295,-0.0026789,4000,0,-0.0175355,-0.0385135,-9.77679,4000
5076000,0.00469078,0.0036674,0.00116037,4000,0,0.0049794,-0.0411682,-9.84094,4000
5080000,0.00561705,0.00778675,-0.00468145,4000,0,0.0242439,-0.00752795,-9.85461,4000
5088000,8.24006e-05,0.00815069,0.000175722,4000,0,0.0686875,-0.106014,-9.81476,4000
5092000,0.00505278,0.0157361,0.0067557,4000,0,0.0543699,-0.0244267,-9.80686,4000
5096000,0.00266523,0.000788442,0.00848239,4000,0,0.0312515,-0.00474907,-9.79058,4000
5100000,0.0028116,0.0024361,0.00060813,4000,0,-0.0105804,-0.020598,-9.81532,4000
5108000,0.000683594,0.00111607,-0.0109009,4000,0,0.0294548,0.0146634,-9.863,4000
5112000,-0.00144891,0.00432802,0.000136873,4000,0,0.00154035,-0.0235861,-9.80764,4000
5120000,0.00451423,0.00808644,-0.00730948,4000,0,-0.0348817,-0.0219494,-9.82636,4000
5124000,0.00234526,0.00875822,0.00295406,4000,0,-0.0389109,-0.08152,-9.78634,4000
5128000,0.0037058,0.00888953,0.000879919,4000,0,-0.025527,-0.015768,-9.7824,4000
5136000,-0.000268584,-0.00212221,0.00709624,4000,0,0.0309899,-0.0674529,-9.7315,4000
5140000,0.00521781,0.00319433,0.00662659,4000,0,0.0267555,-0.0470961,-9.75248,4000
5144000,0.0101949,0.00105155,0.0132476,4000,0,-0.0401768,0.00797623,-9.81479,4000
5148000,0.00714455,0.00415548,0.00165331,4000,0,-0.0383556,0.0198241,-9.77439,4000
5152000,-0.00136189,0.0127271,-0.00214456,4000,0,0.00518947,0.050201,-9.7971,4000
5156000,-0.0114371,0.00420233,0.00591483,4000,0,-0.0340853,0.00897561,-9.86973,4000
5160000,-0.00557581,-0.00309816,0.00299282,4000,0,-0.0197602,0.0276553,-9.84311,4000
5164000,0.00812414,0.00239804,-0.00579293,4000,0,-0.0038768,0.0103991,-9.8308,4000
5168000,-0.00247597,-0.00129603,0.00575158,4000,0,-0.0102687,-0.073671,-9.83528,4000
5172000,-0.00250735,-0.00717514,0.00587381,4000,0,-0.0244962,-0.072644,-9.78861,4000
5176000,0.0085012,0.0007044,-0.0135213,4000,0,-0.00644295,-0.0618545,-9.8048,4000
5180000,0.00209641,0.00190813,-0.00793042,4000,0,0.0139545,-0.0908084,-9.84659,4000
5184000,-0.0041377,-0.00341445,-0.00522795,4000,0,-0.0175087,-0.0409289,-9.81398,4000
5192000,-0.00246569,-0.006056,-0.0054486,4000,0,-0.00173599,-0.00719263,-9.80854,4000
5196000,0.000488851,0.00857459,0.00310317,4000,0,-0.00204315,-0.0118201,-9.82641,4000
5200000,0.0108483,0.00538309,-0.00574223,4000,0,-0.014875,-0.0376015,-9.75733,4000
5204000,0.0146153,-0.0133928,-0.00710303,4000,0,0.00284857,-0.0263964,-9.79944,4000
5208000,0.00793334,-0.0105883,0.00875361,4000,0,0.00754602,0.00443456,-9.8627,4000
5212000,0.019757,0.000240772,0.0135419,4000,0,0.00428784,0.0041023,-9.84772,4000
5216000,0.0231952,-0.00510915,0.00647703,4000,0,-0.0573358,-0.030162,-9.81974,4000
5220000,0.0128417,-0.0061937,-0.00746141,4000,0,-0.0900286,-0.00938102,-9.82989,4000
5224000,0.00227724,-0.00334435,-0.00830548,4000,0,-0.0377747,0.045671,-9.81557,4000
5228000,0.00289306,-0.000565247,-0.00259107,4000,0,0.0275238,0.0319475,-9.73179,4000
5236000,0.00797134,0.00214803,0.00577163,4000,0,-0.0405231,-0.0196207,-9.85069,4000
5240000,-0.00266069,-0.00221035,0.00656139,4000,0,-0.0465665,-0.0194398,-9.81336,4000
5244000,-2.07581e-05,0.00627435,0.00050411,4000,0,3.06713e-05,-0.0180359,-9.86793,4000
5248000,-0.00429704,0.0116724,-0.00971525,4000,0,-0.00960986,-0.00322709,-9.86182,4000
5252000,-0.00985298,0.00967661,-0.0123083,4000,0,-0.0171789,0.00314296,-9.81109,4000
5256000,-0.00721457,0.00391924,-0.00530226,4000,0,0.00980091,-0.0113996,-9.8148,4000
5260000,-0.00345012,-0.00185052,-0.0040058,4000,0,-0.00267726,-0.00573449,-9.80971,4000
5264000,0.00934943,-0.00142718,0.0102909,4000,0,-0.010835,0.0153237,-9.81148,4000
5272000,-0.00403393,0.00697313,-0.00452589,4000,0,0.0581567,0.0487287,-9.82419,4000
5276000,-0.00359929,0.00301096,0.0070474,4000,0,0.0430872,0.0312471,-9.80709,4000
5280000,0.0068142,0.00160675,0.0152845,4000,0,0.0156732,-0.0105554,-9.7662,4000
5284000,-0.00338272,-0.0029719,0.00546293,4000,0,0.0571271,-0.0101026,-9.78058,4000
