timestamp,lat,lon,alt,alt_ellipsoid,delta_alt,vel_n,vel_e,vel_d,yaw,eph,epv,terrain_alt,lat_lon_reset_counter,alt_reset_counter,terrain_alt_valid,dead_reckoning
1856000,47.3977417,8.5455942,0.0,0.0,0.0,0.0,0.0,0.0,0.0,0.0,0.0,0.0,0,0,0,0
1960000,47.3977419,8.5455939,0.0,0.0,0.0,0.0,0.0,0.0,0.0,0.0,0.0,0.0,0,0,0,0
2064000,47.3977419,8.545594,0.0,0.0,0.0,0.0,0.0,0.0,0.0,0.0,0.0,0.0,0,0,0,0
2160000,47.3977419,8.5455939,0.0,0.0,0.0,0.0,0.0,0.0,0.0,0.0,0.0,0.0,0,0,0,0
2256000,47.3977419,8.5455941,0.0,0.0,0.0,0.0,0.0,0.0,0.0,0.0,0.0,0.0,0,0,0,0
2360000,47.397742,8.5455937,0.0,0.0,0.0,0.0,0.0,0.0,0.0,0.0,0.0,0.0,0,0,0,0
2464000,47.397742,8.545594,0.0,0.0,0.0,0.0,0.0,0.0,0.0,0.0,0.0,0.0,0,0,0,0
2560000,47.3977421,8.545594,0.0,0.0,0.0,0.0,0.0,0.0,0.0,0.0,0.0,0.0,0,0,0,0
2664000,47.397742,8.5455939,0.0,0.0,0.0,0.0,0.0,0.0,0.0,0.0,0.0,0.0,0,0,0,0
2760000,47.397742,8.5455941,0.0,0.0,0.0,0.0,0.0,0.0,0.0,0.0,0.0,0.0,0,0,0,0
2864000,47.3977419,8.5455941,0.0,0.0,0.0,0.0,0.0,0.0,0.0,0.0,0.0,0.0,0,0,0,0
2960000,47.397742,8.5455938,0.0,0.0,0.0,0.0,0.0,0.0,0.0,0.0,0.0,0.0,0,0,0,0
3056000,47.397742,8.5455939,0.0,0.0,0.0,0.0,0.0,0.0,0.0,0.0,0.0,0.0,0,0,0,0
3160000,47.397742,8.5455942,0.0,0.0,0.0,0.0,0.0,0.0,0.0,0.0,0.0,0.0,0,0,0,0
3264000,47.397742,8.545594,0.0,0.0,0.0,0.0,0.0,0.0,0.0,0.0,0.0,0.0,0,0,0,0
3360000,47.3977419,8.5455941,0.0,0.0,0.0,0.0,0.0,0.0,0.0,0.0,0.0,0.0,0,0,0,0
3464000,47.397742,8.5455938,0.0,0.0,0.0,0.0,0.0,0.0,0.0,0.0,0.0,0.0,0,0,0,0
3560000,47.3977419,8.5455938,0.0,0.0,0.0,0.0,0.0,0.0,0.0,0.0,0.0,0.0,0,0,0,0
3656000,47.3977418,8.545594,0.0,0.0,0.0,0.0,0.0,0.0,0.0,0.0,0.0,0.0,0,0,0,0
3760000,47.3977418,8.5455939,0.0,0.0,0.0,0.0,0.0,0.0,0.0,0.0,0.0,0.0,0,0,0,0
3856000,47.3977417,8.5455939,0.0,0.0,0.0,0.0,0.0,0.0,0.0,0.0,0.0,0.0,0,0,0,0
3960000,47.3977418,8.545594,0.0,0.0,0.0,0.0,0.0,0.0,0.0,0.0,0.0,0.0,0,0,0,0
4064000,47.3977419,8.5455938,0.0,0.0,0.0,0.0,0.0,0.0,0.0,0.0,0.0,0.0,0,0,0,0
4160000,47.3977418,8.5455938,0.0,0.0,0.0,0.0,0.0,0.0,0.0,0.0,0.0,0.0,0,0,0,0
4264000,47.3977417,8.5455939,0.0,0.0,0.0,0.0,0.0,0.0,0.0,0.0,0.0,0.0,0,0,0,0
4360000,47.397742,8.5455939,0.0,0.0,0.0,0.0,0.0,0.0,0.0,0.0,0.0,0.0,0,0,0,0
4464000,47.3977419,8.5455943,0.0,0.0,0.0,0.0,0.0,0.0,0.0,0.0,0.0,0.0,0,0,0,0
4560000,47.3977421,8.5455941,0.0,0.0,0.0,0.0,0.0,0.0,0.0,0.0,0.0,0.0,0,0,0,0
4656000,47.3977422,8.5455938,0.0,0.0,0.0,0.0,0.0,0.0,0.0,0.0,0.0,0.0,0,0,0,0
4760000,47.397742,8.5455937,0.0,0.0,0.0,0.0,0.0,0.0,0.0,0.0,0.0,0.0,0,0,0,0
4864000,47.3977421,8.5455935,0.0,0.0,0.0,0.0,0.0,0.0,0.0,0.0,0.0,0.0,0,0,0,0
4960000,47.3977419,8.5455938,0.0,0.0,0.0,0.0,0.0,0.0,0.0,0.0,0.0,0.0,0,0,0,0
5056000,47.3977419,8.5455941,0.0,0.0,0.0,0.0,0.0,0.0,0.0,0.0,0.0,0.0,0,0,0,0
5160000,47.397742,8.545594,0.0,0.0,0.0,0.0,0.0,0.0,0.0,0.0,0.0,0.0,0,0,0,0
5264000,47.3977419,8.5455939,0.0,0.0,0.0,0.0,0.0,0.0,0.0,0.0,0.0,0.0,0,0,0,0
5360000,47.3977419,8.5455939,0.0,0.0,0.0,0.0,0.0,0.0,0.0,0.0,0.0,0.0,0,0,0,0
5464000,47.3977419,8.5455939,0.0,0.0,0.0,0.0,0.0,0.0,0.0,0.0,0.0,0.0,0,0,0,0
5560000,47.397742,8.5455938,0.0,0.0,0.0,0.0,0.0,0.0,0.0,0.0,0.0,0.0,0,0,0,0
5664000,47.3977419,8.5455937,0.0,0.0,0.0,0.0,0.0,0.0,0.0,0.0,0.0,0.0,0,0,0,0
5760000,47.3977418,8.5455939,0.0,0.0,0.0,0.0,0.0,0.0,0.0,0.0,0.0,0.0,0,0,0,0
5864000,47.3977418,8.5455941,0.0,0.0,0.0,0.0,0.0,0.0,0.0,0.0,0.0,0.0,0,0,0,0
5960000,47.397742,8.5455938,0.0,0.0,0.0,0.0,0.0,0.0,0.0,0.0,0.0,0.0,0,0,0,0
6064000,47.397742,8.545594,0.0,0.0,0.0,0.0,0.0,0.0,0.0,0.0,0.0,0.0,0,0,0,0
6160000,47.3977419,8.545594,0.0,0.0,0.0,0.0,0.0,0.0,0.0,0.0,0.0,0.0,0,0,0,0
6264000,47.3977419,8.5455938,0.0,0.0,0.0,0.0,0.0,0.0,0.0,0.0,0.0,0.0,0,0,0,0
6360000,47.3977419,8.545594,0.0,0.0,0.0,0.0,0.0,0.0,0.0,0.0,0.0,0.0,0,0,0,0
6464000,47.3977419,8.5455939,0.0,0.0,0.0,0.0,0.0,0.0,0.0,0.0,0.0,0.0,0,0,0,0
6560000,47.3977418,8.5455941,0.0,0.0,0.0,0.0,0.0,0.0,0.0,0.0,0.0,0.0,0,0,0,0
6664000,47.3977419,8.5455938,0.0,0.0,0.0,0.0,0.0,0.0,0.0,0.0,0.0,0.0,0,0,0,0
6760000,47.3977419,8.5455939,0.0,0.0,0.0,0.0,0.0,0.0,0.0,0.0,0.0,0.0,0,0,0,0
6864000,47.3977421,8.5455937,0.0,0.0,0.0,0.0,0.0,0.0,0.0,0.0,0.0,0.0,0,0,0,0
6960000,47.3977419,8.5455939,0.0,0.0,0.0,0.0,0.0,0.0,0.0,0.0,0.0,0.0,0,0,0,0
7064000,47.3977421,8.5455937,0.0,0.0,0.0,0.0,0.0,0.0,0.0,0.0,0.0,0.0,0,0,0,0
7160000,47.3977419,8.5455937,0.0,0.0,0.0,0.0,0.0,0.0,0.0,0.0,0.0,0.0,0,0,0,0
7264000,47.3977421,8.5455941,0.0,0.0,0.0,0.0,0.0,0.0,0.0,0.0,0.0,0.0,0,0,0,0
7360000,47.3977419,8.5455938,0.0,0.0,0.0,0.0,0.0,0.0,0.0,0.0,0.0,0.0,0,0,0,0
7456000,47.397742,8.5455938,0.0,0.0,0.0,0.0,0.0,0.0,0.0,0.0,0.0,0.0,0,0,0,0
7560000,47.3977418,8.545594,0.0,0.0,0.0,0.0,0.0,0.0,0.0,0.0,0.0,0.0,0,0,0,0
7664000,47.3977418,8.545594,0.0,0.0,0.0,0.0,0.0,0.0,0.0,0.0,0.0,0.0,0,0,0,0
7760000,47.3977419,8.5455939,0.0,0.0,0.0,0.0,0.0,0.0,0.0,0.0,0.0,0.0,0,0,0,0
7864000,47.3977419,8.545594,0.0,0.0,0.0,0.0,0.0,0.0,0.0,0.0,0.0,0.0,0,0,0,0
7960000,47.3977419,8.5455941,0.0,0.0,0.0,0.0,0.0,0.0,0.0,0.0,0.0,0.0,0,0,0,0
8064000,47.397742,8.5455942,0.0,0.0,0.0,0.0,0.0,0.0,0.0,0.0,0.0,0.0,0,0,0,0
8160000,47.397742,8.545594,0.0,0.0,0.0,0.0,0.0,0.0,0.0,0.0,0.0,0.0,0,0,0,0
8264000,47.3977419,8.5455942,0.0,0.0,0.0,0.0,0.0,0.0,0.0,0.0,0.0,0.0,0,0,0,0
8360000,47.3977419,8.5455941,0.0,0.0,0.0,0.0,0.0,0.0,0.0,0.0,0.0,0.0,0,0,0,0
8464000,47.3977419,8.5455939,0.0,0.0,0.0,0.0,0.0,0.0,0.0,0.0,0.0,0.0,0,0,0,0
8560000,47.3977419,8.5455939,0.0,0.0,0.0,0.0,0.0,0.0,0.0,0.0,0.0,0.0,0,0,0,0
8664000,47.3977418,8.545594,0.0,0.0,0.0,0.0,0.0,0.0,0.0,0.0,0.0,0.0,0,0,0,0
8760000,47.3977419,8.545594,0.0,0.0,0.0,0.0,0.0,0.0,0.0,0.0,0.0,0.0,0,0,0,0
8856000,47.3977418,8.5455939,0.0,0.0,0.0,0.0,0.0,0.0,0.0,0.0,0.0,0.0,0,0,0,0
8960000,47.3977418,8.545594,0.0,0.0,0.0,0.0,0.0,0.0,0.0,0.0,0.0,0.0,0,0,0,0
9064000,47.3977419,8.5455941,0.0,0.0,0.0,0.0,0.0,0.0,0.0,0.0,0.0,0.0,0,0,0,0
9160000,47.397742,8.545594,0.0,0.0,0.0,0.0,0.0,0.0,0.0,0.0,0.0,0.0,0,0,0,0
9256000,47.397742,8.5455939,0.0,0.0,0.0,0.0,0.0,0.0,0.0,0.0,0.0,0.0,0,0,0,0
9360000,47.397742,8.5455939,0.0,0.0,0.0,0.0,0.0,0.0,0.0,0.0,0.0,0.0,0,0,0,0
9464000,47.3977421,8.545594,0.0,0.0,0.0,0.0,0.0,0.0,0.0,0.0,0.0,0.0,0,0,0,0
9560000,47.397742,8.545594,0.0,0.0,0.0,0.0,0.0,0.0,0.0,0.0,0.0,0.0,0,0,0,0
9664000,47.397742,8.545594,0.0,0.0,0.0,0.0,0.0,0.0,0.0,0.0,0.0,0.0,0,0,0,0
9760000,47.3977419,8.5455938,0.0,0.0,0.0,0.0,0.0,0.0,0.0,0.0,0.0,0.0,0,0,0,0
9864000,47.397742,8.545594,0.0,0.0,0.0,0.0,0.0,0.0,0.0,0.0,0.0,0.0,0,0,0,0
9960000,47.397742,8.545594,0.0,0.0,0.0,0.0,0.0,0.0,0.0,0.0,0.0,0.0,0,0,0,0
10064000,47.397742,8.545594,0.0,0.0,0.0,0.0,0.0,0.0,0.0,0.0,0.0,0.0,0,0,0,0
10160000,47.397742,8.5455939,0.0,0.0,0.0,0.0,0.0,0.0,0.0,0.0,0.0,0.0,0,0,0,0
10264000,47.3977419,8.545594,0.0,0.0,0.0,0.0,0.0,0.0,0.0,0.0,0.0,0.0,0,0,0,0
10360000,47.397742,8.5455938,0.0,0.0,0.0,0.0,0.0,0.0,0.0,0.0,0.0,0.0,0,0,0,0
10464000,47.3977418,8.5455939,0.0,0.0,0.0,0.0,0.0,0.0,0.0,0.0,0.0,0.0,0,0,0,0
10560000,47.3977419,8.5455937,0.0,0.0,0.0,0.0,0.0,0.0,0.0,0.0,0.0,0.0,0,0,0,0
10664000,47.3977419,8.5455941,0.0,0.0,0.0,0.0,0.0,0.0,0.0,0.0,0.0,0.0,0,0,0,0
10760000,47.397742,8.5455942,0.0,0.0,0.0,0.0,0.0,0.0,0.0,0.0,0.0,0.0,0,0,0,0
10864000,47.397742,8.545594,0.0,0.0,0.0,0.0,0.0,0.0,0.0,0.0,0.0,0.0,0,0,0,0
10960000,47.3977419,8.545594,0.0,0.0,0.0,0.0,0.0,0.0,0.0,0.0,0.0,0.0,0,0,0,0
11064000,47.397742,8.545594,0.0,0.0,0.0,0.0,0.0,0.0,0.0,0.0,0.0,0.0,0,0,0,0
11160000,47.3977419,8.545594,0.0,0.0,0.0,0.0,0.0,0.0,0.0,0.0,0.0,0.0,0,0,0,0
11264000,47.3977419,8.5455937,0.0,0.0,0.0,0.0,0.0,0.0,0.0,0.0,0.0,0.0,0,0,0,0
11360000,47.397742,8.5455938,0.0,0.0,0.0,0.0,0.0,0.0,0.0,0.0,0.0,0.0,0,0,0,0
11464000,47.3977419,8.5455937,0.0,0.0,0.0,0.0,0.0,0.0,0.0,0.0,0.0,0.0,0,0,0,0
11560000,47.3977419,8.545594,0.0,0.0,0.0,0.0,0.0,0.0,0.0,0.0,0.0,0.0,0,0,0,0
11664000,47.3977419,8.545594,0.0,0.0,0.0,0.0,0.0,0.0,0.0,0.0,0.0,0.0,0,0,0,0
11760000,47.3977419,8.545594,0.0,0.0,0.0,0.0,0.0,0.0,0.0,0.0,0.0,0.0,0,0,0,0
11864000,47.3977419,8.5455939,0.0,0.0,0.0,0.0,0.0,0.0,0.0,0.0,0.0,0.0,0,0,0,0
11960000,47.3977421,8.5455939,0.0,0.0,0.0,0.0,0.0,0.0,0.0,0.0,0.0,0.0,0,0,0,0
12064000,47.3977418,8.5455938,0.0,0.0,0.0,0.0,0.0,0.0,0.0,0.0,0.0,0.0,0,0,0,0
12160000,47.3977419,8.5455941,0.0,0.0,0.0,0.0,0.0,0.0,0.0,0.0,0.0,0.0,0,0,0,0
12264000,47.3977419,8.5455939,0.0,0.0,0.0,0.0,0.0,0.0,0.0,0.0,0.0,0.0,0,0,0,0
12360000,47.3977419,8.545594,0.0,0.0,0.0,0.0,0.0,0.0,0.0,0.0,0.0,0.0,0,0,0,0
12464000,47.3977419,8.5455942,0.0,0.0,0.0,0.0,0.0,0.0,0.0,0.0,0.0,0.0,0,0,0,0
12560000,47.397742,8.5455941,0.0,0.0,0.0,0.0,0.0,0.0,0.0,0.0,0.0,0.0,0,0,0,0
12656000,47.397742,8.5455941,0.0,0.0,0.0,0.0,0.0,0.0,0.0,0.0,0.0,0.0,0,0,0,0
12760000,47.3977419,8.545594,0.0,0.0,0.0,0.0,0.0,0.0,0.0,0.0,0.0,0.0,0,0,0,0
12864000,47.3977418,8.5455941,0.0,0.0,0.0,0.0,0.0,0.0,0.0,0.0,0.0,0.0,0,0,0,0
12960000,47.3977421,8.5455941,0.0,0.0,0.0,0.0,0.0,0.0,0.0,0.0,0.0,0.0,0,0,0,0
13064000,47.397742,8.5455941,0.0,0.0,0.0,0.0,0.0,0.0,0.0,0.0,0.0,0.0,0,0,0,0
13160000,47.397742,8.5455939,0.0,0.0,0.0,0.0,0.0,0.0,0.0,0.0,0.0,0.0,0,0,0,0
13264000,47.3977419,8.5455938,0.0,0.0,0.0,0.0,0.0,0.0,0.0,0.0,0.0,0.0,0,0,0,0
13360000,47.397742,8.5455939,0.0,0.0,0.0,0.0,0.0,0.0,0.0,0.0,0.0,0.0,0,0,0,0
13464000,47.397742,8.545594,0.0,0.0,0.0,0.0,0.0,0.0,0.0,0.0,0.0,0.0,0,0,0,0
13560000,47.397742,8.5455941,0.0,0.0,0.0,0.0,0.0,0.0,0.0,0.0,0.0,0.0,0,0,0,0
13664000,47.397742,8.5455939,0.0,0.0,0.0,0.0,0.0,0.0,0.0,0.0,0.0,0.0,0,0,0,0
13760000,47.3977419,8.545594,0.0,0.0,0.0,0.0,0.0,0.0,0.0,0.0,0.0,0.0,0,0,0,0
13864000,47.3977419,8.5455941,0.0,0.0,0.0,0.0,0.0,0.0,0.0,0.0,0.0,0.0,0,0,0,0
13960000,47.3977419,8.545594,0.0,0.0,0.0,0.0,0.0,0.0,0.0,0.0,0.0,0.0,0,0,0,0
14064000,47.397742,8.545594,0.0,0.0,0.0,0.0,0.0,0.0,0.0,0.0,0.0,0.0,0,0,0,0
14160000,47.3977418,8.5455939,0.0,0.0,0.0,0.0,0.0,0.0,0.0,0.0,0.0,0.0,0,0,0,0
14264000,47.3977421,8.5455939,0.0,0.0,0.0,0.0,0.0,0.0,0.0,0.0,0.0,0.0,0,0,0,0
14360000,47.397742,8.545594,0.0,0.0,0.0,0.0,0.0,0.0,0.0,0.0,0.0,0.0,0,0,0,0
14464000,47.3977421,8.5455939,0.0,0.0,0.0,0.0,0.0,0.0,0.0,0.0,0.0,0.0,0,0,0,0
14560000,47.397742,8.545594,0.0,0.0,0.0,0.0,0.0,0.0,0.0,0.0,0.0,0.0,0,0,0,0
14664000,47.3977419,8.545594,0.0,0.0,0.0,0.0,0.0,0.0,0.0,0.0,0.0,0.0,0,0,0,0
14760000,47.3977419,8.5455939,0.0,0.0,0.0,0.0,0.0,0.0,0.0,0.0,0.0,0.0,0,0,0,0
14864000,47.3977419,8.545594,0.0,0.0,0.0,0.0,0.0,0.0,0.0,0.0,0.0,0.0,0,0,0,0
14960000,47.397742,8.5455937,0.0,0.0,0.0,0.0,0.0,0.0,0.0,0.0,0.0,0.0,0,0,0,0
15064000,47.3977421,8.5455937,0.0,0.0,0.0,0.0,0.0,0.0,0.0,0.0,0.0,0.0,0,0,0,0
15160000,47.397742,8.5455939,0.0,0.0,0.0,0.0,0.0,0.0,0.0,0.0,0.0,0.0,0,0,0,0
15264000,47.3977421,8.5455939,0.0,0.0,0.0,0.0,0.0,0.0,0.0,0.0,0.0,0.0,0,0,0,0
15360000,47.397742,8.5455941,0.0,0.0,0.0,0.0,0.0,0.0,0.0,0.0,0.0,0.0,0,0,0,0
15464000,47.397742,8.5455942,0.0,0.0,0.0,0.0,0.0,0.0,0.0,0.0,0.0,0.0,0,0,0,0
15560000,47.397742,8.5455942,0.0,0.0,0.0,0.0,0.0,0.0,0.0,0.0,0.0,0.0,0,0,0,0
15664000,47.3977419,8.5455942,0.0,0.0,0.0,0.0,0.0,0.0,0.0,0.0,0.0,0.0,0,0,0,0
15760000,47.3977419,8.5455941,0.0,0.0,0.0,0.0,0.0,0.0,0.0,0.0,0.0,0.0,0,0,0,0
15864000,47.3977419,8.545594,0.0,0.0,0.0,0.0,0.0,0.0,0.0,0.0,0.0,0.0,0,0,0,0
15960000,47.3977419,8.5455939,0.0,0.0,0.0,0.0,0.0,0.0,0.0,0.0,0.0,0.0,0,0,0,0
16064000,47.397742,8.5455939,0.0,0.0,0.0,0.0,0.0,0.0,0.0,0.0,0.0,0.0,0,0,0,0
16160000,47.3977418,8.545594,0.0,0.0,0.0,0.0,0.0,0.0,0.0,0.0,0.0,0.0,0,0,0,0
16264000,47.3977421,8.5455938,0.0,0.0,0.0,0.0,0.0,0.0,0.0,0.0,0.0,0.0,0,0,0,0
16360000,47.397742,8.5455939,0.0,0.0,0.0,0.0,0.0,0.0,0.0,0.0,0.0,0.0,0,0,0,0
16464000,47.397742,8.5455939,0.0,0.0,0.0,0.0,0.0,0.0,0.0,0.0,0.0,0.0,0,0,0,0
16560000,47.397742,8.545594,0.0,0.0,0.0,0.0,0.0,0.0,0.0,0.0,0.0,0.0,0,0,0,0
16664000,47.3977421,8.5455939,0.0,0.0,0.0,0.0,0.0,0.0,0.0,0.0,0.0,0.0,0,0,0,0
16760000,47.3977419,8.5455941,0.0,0.0,0.0,0.0,0.0,0.0,0.0,0.0,0.0,0.0,0,0,0,0
16864000,47.3977419,8.545594,0.0,0.0,0.0,0.0,0.0,0.0,0.0,0.0,0.0,0.0,0,0,0,0
16960000,47.3977419,8.5455938,0.0,0.0,0.0,0.0,0.0,0.0,0.0,0.0,0.0,0.0,0,0,0,0
17064000,47.3977418,8.5455941,0.0,0.0,0.0,0.0,0.0,0.0,0.0,0.0,0.0,0.0,0,0,0,0
17160000,47.397742,8.5455941,0.0,0.0,0.0,0.0,0.0,0.0,0.0,0.0,0.0,0.0,0,0,0,0
17264000,47.397742,8.5455937,0.0,0.0,0.0,0.0,0.0,0.0,0.0,0.0,0.0,0.0,0,0,0,0
17360000,47.3977418,8.5455939,0.0,0.0,0.0,0.0,0.0,0.0,0.0,0.0,0.0,0.0,0,0,0,0
17464000,47.3977418,8.5455939,0.0,0.0,0.0,0.0,0.0,0.0,0.0,0.0,0.0,0.0,0,0,0,0
17560000,47.397742,8.545594,0.0,0.0,0.0,0.0,0.0,0.0,0.0,0.0,0.0,0.0,0,0,0,0
17664000,47.3977419,8.5455939,0.0,0.0,0.0,0.0,0.0,0.0,0.0,0.0,0.0,0.0,0,0,0,0
17760000,47.3977419,8.5455939,0.0,0.0,0.0,0.0,0.0,0.0,0.0,0.0,0.0,0.0,0,0,0,0
17864000,47.3977419,8.5455938,0.0,0.0,0.0,0.0,0.0,0.0,0.0,0.0,0.0,0.0,0,0,0,0
17960000,47.3977419,8.5455938,0.0,0.0,0.0,0.0,0.0,0.0,0.0,0.0,0.0,0.0,0,0,0,0
18064000,47.3977419,8.5455939,0.0,0.0,0.0,0.0,0.0,0.0,0.0,0.0,0.0,0.0,0,0,0,0
18160000,47.397742,8.5455939,0.0,0.0,0.0,0.0,0.0,0.0,0.0,0.0,0.0,0.0,0,0,0,0
18264000,47.397742,8.5455939,0.0,0.0,0.0,0.0,0.0,0.0,0.0,0.0,0.0,0.0,0,0,0,0
18360000,47.3977421,8.5455939,0.0,0.0,0.0,0.0,0.0,0.0,0.0,0.0,0.0,0.0,0,0,0,0
18464000,47.3977421,8.5455937,0.0,0.0,0.0,0.0,0.0,0.0,0.0,0.0,0.0,0.0,0,0,0,0
18560000,47.3977421,8.5455939,0.0,0.0,0.0,0.0,0.0,0.0,0.0,0.0,0.0,0.0,0,0,0,0
18664000,47.3977419,8.545594,0.0,0.0,0.0,0.0,0.0,0.0,0.0,0.0,0.0,0.0,0,0,0,0
18760000,47.3977419,8.545594,0.0,0.0,0.0,0.0,0.0,0.0,0.0,0.0,0.0,0.0,0,0,0,0
18864000,47.3977419,8.5455941,0.0,0.0,0.0,0.0,0.0,0.0,0.0,0.0,0.0,0.0,0,0,0,0
18960000,47.3977419,8.5455938,0.0,0.0,0.0,0.0,0.0,0.0,0.0,0.0,0.0,0.0,0,0,0,0
19064000,47.3977419,8.5455938,0.0,0.0,0.0,0.0,0.0,0.0,0.0,0.0,0.0,0.0,0,0,0,0
19160000,47.3977419,8.5455938,0.0,0.0,0.0,0.0,0.0,0.0,0.0,0.0,0.0,0.0,0,0,0,0
19264000,47.3977419,8.5455936,0.0,0.0,0.0,0.0,0.0,0.0,0.0,0.0,0.0,0.0,0,0,0,0
19360000,47.3977421,8.5455937,0.0,0.0,0.0,0.0,0.0,0.0,0.0,0.0,0.0,0.0,0,0,0,0
19456000,47.3977419,8.5455938,0.0,0.0,0.0,0.0,0.0,0.0,0.0,0.0,0.0,0.0,0,0,0,0
19560000,47.3977419,8.5455939,0.0,0.0,0.0,0.0,0.0,0.0,0.0,0.0,0.0,0.0,0,0,0,0
19664000,47.3977418,8.5455939,0.0,0.0,0.0,0.0,0.0,0.0,0.0,0.0,0.0,0.0,0,0,0,0
19760000,47.3977419,8.5455938,0.0,0.0,0.0,0.0,0.0,0.0,0.0,0.0,0.0,0.0,0,0,0,0
19864000,47.397742,8.5455939,0.0,0.0,0.0,0.0,0.0,0.0,0.0,0.0,0.0,0.0,0,0,0,0
19960000,47.3977421,8.5455939,0.0,0.0,0.0,0.0,0.0,0.0,0.0,0.0,0.0,0.0,0,0,0,0
20064000,47.3977421,8.5455941,0.0,0.0,0.0,0.0,0.0,0.0,0.0,0.0,0.0,0.0,0,0,0,0
20160000,47.3977421,8.545594,0.0,0.0,0.0,0.0,0.0,0.0,0.0,0.0,0.0,0.0,0,0,0,0
20256000,47.3977421,8.545594,0.0,0.0,0.0,0.0,0.0,0.0,0.0,0.0,0.0,0.0,0,0,0,0
20360000,47.3977419,8.5455941,0.0,0.0,0.0,0.0,0.0,0.0,0.0,0.0,0.0,0.0,0,0,0,0
20456000,47.397742,8.545594,0.0,0.0,0.0,0.0,0.0,0.0,0.0,0.0,0.0,0.0,0,0,0,0
20560000,47.3977419,8.545594,0.0,0.0,0.0,0.0,0.0,0.0,0.0,0.0,0.0,0.0,0,0,0,0
20664000,47.397742,8.5455939,0.0,0.0,0.0,0.0,0.0,0.0,0.0,0.0,0.0,0.0,0,0,0,0
20760000,47.3977421,8.5455938,0.0,0.0,0.0,0.0,0.0,0.0,0.0,0.0,0.0,0.0,0,0,0,0
20864000,47.397742,8.5455938,0.0,0.0,0.0,0.0,0.0,0.0,0.0,0.0,0.0,0.0,0,0,0,0
20960000,47.3977419,8.5455938,0.0,0.0,0.0,0.0,0.0,0.0,0.0,0.0,0.0,0.0,0,0,0,0
21064000,47.397742,8.545594,0.0,0.0,0.0,0.0,0.0,0.0,0.0,0.0,0.0,0.0,0,0,0,0
21160000,47.397742,8.5455939,0.0,0.0,0.0,0.0,0.0,0.0,0.0,0.0,0.0,0.0,0,0,0,0
21264000,47.397742,8.545594,0.0,0.0,0.0,0.0,0.0,0.0,0.0,0.0,0.0,0.0,0,0,0,0
21360000,47.397742,8.5455941,0.0,0.0,0.0,0.0,0.0,0.0,0.0,0.0,0.0,0.0,0,0,0,0
21464000,47.397742,8.5455942,0.0,0.0,0.0,0.0,0.0,0.0,0.0,0.0,0.0,0.0,0,0,0,0
21560000,47.3977422,8.545594,0.0,0.0,0.0,0.0,0.0,0.0,0.0,0.0,0.0,0.0,0,0,0,0
21664000,47.3977422,8.5455938,0.0,0.0,0.0,0.0,0.0,0.0,0.0,0.0,0.0,0.0,0,0,0,0
21760000,47.397742,8.5455937,0.0,0.0,0.0,0.0,0.0,0.0,0.0,0.0,0.0,0.0,0,0,0,0
21864000,47.397742,8.5455939,0.0,0.0,0.0,0.0,0.0,0.0,0.0,0.0,0.0,0.0,0,0,0,0
21960000,47.3977419,8.545594,0.0,0.0,0.0,0.0,0.0,0.0,0.0,0.0,0.0,0.0,0,0,0,0
22064000,47.397742,8.5455941,0.0,0.0,0.0,0.0,0.0,0.0,0.0,0.0,0.0,0.0,0,0,0,0
22160000,47.3977418,8.545594,0.0,0.0,0.0,0.0,0.0,0.0,0.0,0.0,0.0,0.0,0,0,0,0
22264000,47.397742,8.545594,0.0,0.0,0.0,0.0,0.0,0.0,0.0,0.0,0.0,0.0,0,0,0,0
22360000,47.397742,8.5455938,0.0,0.0,0.0,0.0,0.0,0.0,0.0,0.0,0.0,0.0,0,0,0,0
22464000,47.397742,8.5455938,0.0,0.0,0.0,0.0,0.0,0.0,0.0,0.0,0.0,0.0,0,0,0,0
22560000,47.3977419,8.5455939,0.0,0.0,0.0,0.0,0.0,0.0,0.0,0.0,0.0,0.0,0,0,0,0
22664000,47.3977419,8.5455939,0.0,0.0,0.0,0.0,0.0,0.0,0.0,0.0,0.0,0.0,0,0,0,0
22760000,47.3977419,8.5455939,0.0,0.0,0.0,0.0,0.0,0.0,0.0,0.0,0.0,0.0,0,0,0,0
22864000,47.3977419,8.5455939,0.0,0.0,0.0,0.0,0.0,0.0,0.0,0.0,0.0,0.0,0,0,0,0
22960000,47.3977419,8.5455939,0.0,0.0,0.0,0.0,0.0,0.0,0.0,0.0,0.0,0.0,0,0,0,0
23064000,47.3977418,8.545594,0.0,0.0,0.0,0.0,0.0,0.0,0.0,0.0,0.0,0.0,0,0,0,0
23160000,47.3977419,8.5455937,0.0,0.0,0.0,0.0,0.0,0.0,0.0,0.0,0.0,0.0,0,0,0,0
23264000,47.3977419,8.5455938,0.0,0.0,0.0,0.0,0.0,0.0,0.0,0.0,0.0,0.0,0,0,0,0
23360000,47.397742,8.5455939,0.0,0.0,0.0,0.0,0.0,0.0,0.0,0.0,0.0,0.0,0,0,0,0
23464000,47.397742,8.545594,0.0,0.0,0.0,0.0,0.0,0.0,0.0,0.0,0.0,0.0,0,0,0,0
23560000,47.3977421,8.5455942,0.0,0.0,0.0,0.0,0.0,0.0,0.0,0.0,0.0,0.0,0,0,0,0
23664000,47.3977421,8.5455939,0.0,0.0,0.0,0.0,0.0,0.0,0.0,0.0,0.0,0.0,0,0,0,0
23760000,47.3977419,8.5455937,0.0,0.0,0.0,0.0,0.0,0.0,0.0,0.0,0.0,0.0,0,0,0,0
23864000,47.3977419,8.5455938,0.0,0.0,0.0,0.0,0.0,0.0,0.0,0.0,0.0,0.0,0,0,0,0
23960000,47.3977419,8.545594,0.0,0.0,0.0,0.0,0.0,0.0,0.0,0.0,0.0,0.0,0,0,0,0
24064000,47.3977419,8.5455938,0.0,0.0,0.0,0.0,0.0,0.0,0.0,0.0,0.0,0.0,0,0,0,0
24160000,47.397742,8.5455939,0.0,0.0,0.0,0.0,0.0,0.0,0.0,0.0,0.0,0.0,0,0,0,0
24256000,47.3977421,8.5455937,0.0,0.0,0.0,0.0,0.0,0.0,0.0,0.0,0.0,0.0,0,0,0,0
24360000,47.3977419,8.5455937,0.0,0.0,0.0,0.0,0.0,0.0,0.0,0.0,0.0,0.0,0,0,0,0
24464000,47.3977419,8.5455938,0.0,0.0,0.0,0.0,0.0,0.0,0.0,0.0,0.0,0.0,0,0,0,0
24560000,47.3977418,8.5455939,0.0,0.0,0.0,0.0,0.0,0.0,0.0,0.0,0.0,0.0,0,0,0,0
24664000,47.3977419,8.5455938,0.0,0.0,0.0,0.0,0.0,0.0,0.0,0.0,0.0,0.0,0,0,0,0
24760000,47.3977418,8.5455938,0.0,0.0,0.0,0.0,0.0,0.0,0.0,0.0,0.0,0.0,0,0,0,0
24856000,47.3977418,8.545594,0.0,0.0,0.0,0.0,0.0,0.0,0.0,0.0,0.0,0.0,0,0,0,0
24960000,47.3977419,8.545594,0.0,0.0,0.0,0.0,0.0,0.0,0.0,0.0,0.0,0.0,0,0,0,0
25064000,47.3977419,8.545594,0.0,0.0,0.0,0.0,0.0,0.0,0.0,0.0,0.0,0.0,0,0,0,0
25160000,47.3977418,8.5455939,0.0,0.0,0.0,0.0,0.0,0.0,0.0,0.0,0.0,0.0,0,0,0,0
25264000,47.3977418,8.545594,0.0,0.0,0.0,0.0,0.0,0.0,0.0,0.0,0.0,0.0,0,0,0,0
25360000,47.3977419,8.545594,0.0,0.0,0.0,0.0,0.0,0.0,0.0,0.0,0.0,0.0,0,0,0,0
25456000,47.3977418,8.5455939,0.0,0.0,0.0,0.0,0.0,0.0,0.0,0.0,0.0,0.0,0,0,0,0
25560000,47.3977418,8.5455939,0.0,0.0,0.0,0.0,0.0,0.0,0.0,0.0,0.0,0.0,0,0,0,0
25664000,47.3977419,8.5455938,0.0,0.0,0.0,0.0,0.0,0.0,0.0,0.0,0.0,0.0,0,0,0,0
25760000,47.3977419,8.5455938,0.0,0.0,0.0,0.0,0.0,0.0,0.0,0.0,0.0,0.0,0,0,0,0
25864000,47.397742,8.5455939,0.0,0.0,0.0,0.0,0.0,0.0,0.0,0.0,0.0,0.0,0,0,0,0
25960000,47.3977421,8.5455941,0.0,0.0,0.0,0.0,0.0,0.0,0.0,0.0,0.0,0.0,0,0,0,0
26064000,47.3977419,8.5455942,0.0,0.0,0.0,0.0,0.0,0.0,0.0,0.0,0.0,0.0,0,0,0,0
26160000,47.3977419,8.5455941,0.0,0.0,0.0,0.0,0.0,0.0,0.0,0.0,0.0,0.0,0,0,0,0
26264000,47.3977419,8.5455941,0.0,0.0,0.0,0.0,0.0,0.0,0.0,0.0,0.0,0.0,0,0,0,0
26360000,47.3977419,8.5455939,0.0,0.0,0.0,0.0,0.0,0.0,0.0,0.0,0.0,0.0,0,0,0,0
26464000,47.3977419,8.5455941,0.0,0.0,0.0,0.0,0.0,0.0,0.0,0.0,0.0,0.0,0,0,0,0
26560000,47.397742,8.5455941,0.0,0.0,0.0,0.0,0.0,0.0,0.0,0.0,0.0,0.0,0,0,0,0
26664000,47.3977419,8.5455939,0.0,0.0,0.0,0.0,0.0,0.0,0.0,0.0,0.0,0.0,0,0,0,0
26760000,47.3977419,8.5455939,0.0,0.0,0.0,0.0,0.0,0.0,0.0,0.0,0.0,0.0,0,0,0,0
26864000,47.3977419,8.5455939,0.0,0.0,0.0,0.0,0.0,0.0,0.0,0.0,0.0,0.0,0,0,0,0
26960000,47.397742,8.5455939,0.0,0.0,0.0,0.0,0.0,0.0,0.0,0.0,0.0,0.0,0,0,0,0
27064000,47.3977421,8.5455939,0.0,0.0,0.0,0.0,0.0,0.0,0.0,0.0,0.0,0.0,0,0,0,0
27160000,47.397742,8.5455939,0.0,0.0,0.0,0.0,0.0,0.0,0.0,0.0,0.0,0.0,0,0,0,0
27264000,47.3977419,8.5455939,0.0,0.0,0.0,0.0,0.0,0.0,0.0,0.0,0.0,0.0,0,0,0,0
27360000,47.397742,8.5455938,0.0,0.0,0.0,0.0,0.0,0.0,0.0,0.0,0.0,0.0,0,0,0,0
27464000,47.397742,8.5455938,0.0,0.0,0.0,0.0,0.0,0.0,0.0,0.0,0.0,0.0,0,0,0,0
27560000,47.3977421,8.545594,0.0,0.0,0.0,0.0,0.0,0.0,0.0,0.0,0.0,0.0,0,0,0,0
27656000,47.3977419,8.545594,0.0,0.0,0.0,0.0,0.0,0.0,0.0,0.0,0.0,0.0,0,0,0,0
27760000,47.3977418,8.545594,0.0,0.0,0.0,0.0,0.0,0.0,0.0,0.0,0.0,0.0,0,0,0,0
27864000,47.397742,8.5455941,0.0,0.0,0.0,0.0,0.0,0.0,0.0,0.0,0.0,0.0,0,0,0,0
27960000,47.3977421,8.5455941,0.0,0.0,0.0,0.0,0.0,0.0,0.0,0.0,0.0,0.0,0,0,0,0
28064000,47.3977419,8.545594,0.0,0.0,0.0,0.0,0.0,0.0,0.0,0.0,0.0,0.0,0,0,0,0
28160000,47.3977419,8.5455939,0.0,0.0,0.0,0.0,0.0,0.0,0.0,0.0,0.0,0.0,0,0,0,0
28264000,47.3977419,8.5455941,0.0,0.0,0.0,0.0,0.0,0.0,0.0,0.0,0.0,0.0,0,0,0,0
28360000,47.397742,8.545594,0.0,0.0,0.0,0.0,0.0,0.0,0.0,0.0,0.0,0.0,0,0,0,0
28456000,47.3977419,8.5455939,0.0,0.0,0.0,0.0,0.0,0.0,0.0,0.0,0.0,0.0,0,0,0,0
28560000,47.3977418,8.5455939,0.0,0.0,0.0,0.0,0.0,0.0,0.0,0.0,0.0,0.0,0,0,0,0
28664000,47.3977418,8.5455939,0.0,0.0,0.0,0.0,0.0,0.0,0.0,0.0,0.0,0.0,0,0,0,0
28760000,47.397742,8.5455939,0.0,0.0,0.0,0.0,0.0,0.0,0.0,0.0,0.0,0.0,0,0,0,0
28864000,47.397742,8.545594,0.0,0.0,0.0,0.0,0.0,0.0,0.0,0.0,0.0,0.0,0,0,0,0
28960000,47.397742,8.5455943,0.0,0.0,0.0,0.0,0.0,0.0,0.0,0.0,0.0,0.0,0,0,0,0
29064000,47.3977419,8.5455941,0.0,0.0,0.0,0.0,0.0,0.0,0.0,0.0,0.0,0.0,0,0,0,0
29160000,47.397742,8.5455941,0.0,0.0,0.0,0.0,0.0,0.0,0.0,0.0,0.0,0.0,0,0,0,0
29264000,47.3977419,8.5455937,0.0,0.0,0.0,0.0,0.0,0.0,0.0,0.0,0.0,0.0,0,0,0,0
29360000,47.3977419,8.5455939,0.0,0.0,0.0,0.0,0.0,0.0,0.0,0.0,0.0,0.0,0,0,0,0
29456000,47.3977421,8.5455941,0.0,0.0,0.0,0.0,0.0,0.0,0.0,0.0,0.0,0.0,0,0,0,0
29560000,47.3977421,8.5455937,0.0,0.0,0.0,0.0,0.0,0.0,0.0,0.0,0.0,0.0,0,0,0,0
29664000,47.397742,8.545594,0.0,0.0,0.0,0.0,0.0,0.0,0.0,0.0,0.0,0.0,0,0,0,0
29760000,47.397742,8.5455938,0.0,0.0,0.0,0.0,0.0,0.0,0.0,0.0,0.0,0.0,0,0,0,0
29864000,47.397742,8.545594,0.0,0.0,0.0,0.0,0.0,0.0,0.0,0.0,0.0,0.0,0,0,0,0
29960000,47.397742,8.5455942,0.0,0.0,0.0,0.0,0.0,0.0,0.0,0.0,0.0,0.0,0,0,0,0
30064000,47.397742,8.5455938,0.0,0.0,0.0,0.0,0.0,0.0,0.0,0.0,0.0,0.0,0,0,0,0
30160000,47.3977419,8.545594,0.0,0.0,0.0,0.0,0.0,0.0,0.0,0.0,0.0,0.0,0,0,0,0
30264000,47.3977419,8.5455939,0.0,0.0,0.0,0.0,0.0,0.0,0.0,0.0,0.0,0.0,0,0,0,0
30360000,47.397742,8.5455941,0.0,0.0,0.0,0.0,0.0,0.0,0.0,0.0,0.0,0.0,0,0,0,0
30464000,47.397742,8.545594,0.0,0.0,0.0,0.0,0.0,0.0,0.0,0.0,0.0,0.0,0,0,0,0
30560000,47.3977418,8.5455939,0.0,0.0,0.0,0.0,0.0,0.0,0.0,0.0,0.0,0.0,0,0,0,0
30664000,47.3977419,8.5455939,0.0,0.0,0.0,0.0,0.0,0.0,0.0,0.0,0.0,0.0,0,0,0,0
30760000,47.3977419,8.5455937,0.0,0.0,0.0,0.0,0.0,0.0,0.0,0.0,0.0,0.0,0,0,0,0
30864000,47.3977419,8.545594,0.0,0.0,0.0,0.0,0.0,0.0,0.0,0.0,0.0,0.0,0,0,0,0
30960000,47.3977419,8.5455937,0.0,0.0,0.0,0.0,0.0,0.0,0.0,0.0,0.0,0.0,0,0,0,0
31064000,47.3977419,8.5455938,0.0,0.0,0.0,0.0,0.0,0.0,0.0,0.0,0.0,0.0,0,0,0,0
31160000,47.397742,8.5455938,0.0,0.0,0.0,0.0,0.0,0.0,0.0,0.0,0.0,0.0,0,0,0,0
31256000,47.3977419,8.5455937,0.0,0.0,0.0,0.0,0.0,0.0,0.0,0.0,0.0,0.0,0,0,0,0
31360000,47.397742,8.5455938,0.0,0.0,0.0,0.0,0.0,0.0,0.0,0.0,0.0,0.0,0,0,0,0
31464000,47.3977418,8.545594,0.0,0.0,0.0,0.0,0.0,0.0,0.0,0.0,0.0,0.0,0,0,0,0
31560000,47.3977419,8.545594,0.0,0.0,0.0,0.0,0.0,0.0,0.0,0.0,0.0,0.0,0,0,0,0
31656000,47.3977419,8.5455939,0.0,0.0,0.0,0.0,0.0,0.0,0.0,0.0,0.0,0.0,0,0,0,0
31760000,47.3977419,8.5455939,0.0,0.0,0.0,0.0,0.0,0.0,0.0,0.0,0.0,0.0,0,0,0,0
31864000,47.3977419,8.5455941,0.0,0.0,0.0,0.0,0.0,0.0,0.0,0.0,0.0,0.0,0,0,0,0
31960000,47.3977419,8.5455941,0.0,0.0,0.0,0.0,0.0,0.0,0.0,0.0,0.0,0.0,0,0,0,0
32056000,47.3977419,8.5455943,0.0,0.0,0.0,-0.01,0.0,-0.04,0.0,0.0,0.0,0.0,0,0,0,0
32160000,47.3977419,8.545594,-0.011,0.0,0.0,-0.11,0.0,-0.16,0.0,0.0,0.0,0.0,0,0,0,0
32264000,47.3977417,8.5455939,-0.035,0.0,0.0,-0.3,0.0,-0.31,0.0,0.0,0.0,0.0,0,0,0,0
32360000,47.3977413,8.5455939,-0.072,0.0,0.0,-0.51,0.0,-0.49,0.0,0.0,0.0,0.0,0,0,0,0
32464000,47.3977406,8.5455939,-0.136,0.0,0.0,-0.77,0.0,-0.75,0.0,0.0,0.0,0.0,0,0,0,0
32560000,47.39774,8.5455938,-0.222,0.0,0.0,-1.03,0.0,-1.03,0.0,0.0,0.0,0.0,0,0,0,0
32664000,47.3977389,8.5455937,-0.349,0.0,0.0,-1.46,0.0,-1.4,0.0,0.0,0.0,0.0,0,0,0,0
32760000,47.3977372,8.5455937,-0.484,0.0,0.0,-2.0,0.0,-1.37,0.0,0.0,0.0,0.0,0,0,0,0
32856000,47.3977352,8.5455937,-0.613,0.0,0.0,-2.71,0.0,-1.31,0.0,0.0,0.0,0.0,0,0,0,0
32960000,47.3977324,8.5455939,-0.747,0.0,0.0,-3.52,0.0,-1.18,0.0,0.0,0.0,0.0,0,0,0,0
33056000,47.3977292,8.5455938,-0.84,0.0,0.0,-3.95,0.0,-0.69,0.0,0.0,0.0,0.0,0,0,0,0
33160000,47.3977251,8.5455938,-0.897,0.0,0.0,-4.66,0.0,-0.42,0.0,0.0,0.0,0.0,0,0,0,0
33256000,47.3977208,8.5455939,-0.927,0.0,0.0,-5.31,0.0,-0.15,0.0,0.0,0.0,0.0,0,0,0,0
33360000,47.3977156,8.5455941,-0.933,0.0,0.0,-6.13,0.0,0.0,0.0,0.0,0.0,0.0,0,0,0,0
33464000,47.3977095,8.5455938,-0.929,0.0,0.0,-7.01,-0.01,0.1,0.0,0.0,0.0,0.0,0,0,0,0
33560000,47.397703,8.5455938,-0.913,0.0,0.0,-7.75,-0.01,0.23,0.0,0.0,0.0,0.0,0,0,0,0
33664000,47.3976955,8.5455938,-0.886,0.0,0.0,-8.51,-0.01,0.25,0.0,0.0,0.0,0.0,0,0,0,0
33760000,47.397688,8.5455939,-0.871,0.0,0.0,-9.13,-0.02,-0.07,0.0,0.0,0.0,0.0,0,0,0,0
33856000,47.3976798,8.5455936,-0.913,0.0,0.0,-9.62,-0.03,-0.84,0.0,0.0,0.0,0.0,0,0,0,0
33960000,47.3976706,8.5455936,-1.027,0.0,0.0,-9.76,-0.04,-1.25,0.0,0.0,0.0,0.0,0,0,0,0
34064000,47.3976614,8.5455936,-1.162,0.0,0.0,-9.79,-0.06,-1.3,0.0,0.0,0.0,0.0,0,0,0,0
34160000,47.3976529,8.5455935,-1.288,0.0,0.0,-9.84,-0.11,-1.31,0.0,0.0,0.0,0.0,0,0,0,0
34264000,47.3976438,8.5455931,-1.426,0.0,0.0,-9.92,-0.2,-1.33,0.0,0.0,0.0,0.0,0,0,0,0
34360000,47.3976351,8.545593,-1.555,0.0,0.0,-9.99,-0.31,-1.35,0.0,0.0,0.0,0.0,0,0,0,0
34464000,47.3976258,8.5455924,-1.698,0.0,0.0,-10.05,-0.46,-1.39,0.0,0.0,0.0,0.0,0,0,0,0
34560000,47.3976169,8.5455918,-1.829,0.0,0.0,-10.04,-0.59,-1.2,0.0,0.0,0.0,0.0,0,0,0,0
34664000,47.3976076,8.545591,-1.921,0.0,0.0,-10.02,-0.72,-0.62,0.0,0.0,0.0,0.0,0,0,0,0
34760000,47.397599,8.54559,-1.955,0.0,0.0,-10.0,-0.84,-0.03,0.0,0.0,0.0,0.0,0,0,0,0
34864000,47.3975898,8.5455886,-1.947,0.0,0.0,-10.08,-1.08,0.12,0.0,0.0,0.0,0.0,0,0,0,0
34960000,47.397581,8.5455871,-1.936,0.0,0.0,-10.11,-1.22,0.1,0.0,0.0,0.0,0.0,0,0,0,0
35064000,47.3975715,8.5455853,-1.925,0.0,0.0,-10.08,-1.24,0.09,0.0,0.0,0.0,0.0,0,0,0,0
35160000,47.3975627,8.5455836,-1.916,0.0,0.0,-10.02,-1.22,0.09,0.0,0.0,0.0,0.0,0,0,0,0
35264000,47.3975534,8.5455823,-1.907,0.0,0.0,-9.97,-1.19,0.08,0.0,0.0,0.0,0.0,0,0,0,0
35360000,47.3975447,8.5455808,-1.899,0.0,0.0,-9.93,-1.18,0.08,0.0,0.0,0.0,0.0,0,0,0,0
35464000,47.3975355,8.5455789,-1.891,0.0,0.0,-9.89,-1.18,0.07,0.0,0.0,0.0,0.0,0,0,0,0
35560000,47.3975269,8.5455777,-1.884,0.0,0.0,-9.87,-1.19,0.07,0.0,0.0,0.0,0.0,0,0,0,0
35664000,47.3975178,8.545576,-1.877,0.0,0.0,-9.84,-1.18,0.06,0.0,0.0,0.0,0.0,0,0,0,0
35760000,47.3975093,8.5455742,-1.871,0.0,0.0,-9.81,-1.18,0.05,0.0,0.0,0.0,0.0,0,0,0,0
35864000,47.3975001,8.5455728,-1.865,0.0,0.0,-9.78,-1.17,0.05,0.0,0.0,0.0,0.0,0,0,0,0
35960000,47.3974917,8.5455712,-1.86,0.0,0.0,-9.76,-1.17,0.04,0.0,0.0,0.0,0.0,0,0,0,0
36064000,47.3974826,8.5455696,-1.856,0.0,0.0,-9.74,-1.17,0.03,0.0,0.0,0.0,0.0,0,0,0,0
36160000,47.3974743,8.5455679,-1.852,0.0,0.0,-9.71,-1.16,0.03,0.0,0.0,0.0,0.0,0,0,0,0
36256000,47.3974659,8.5455664,-1.849,0.0,0.0,-9.68,-1.15,0.03,0.0,0.0,0.0,0.0,0,0,0,0
36360000,47.3974568,8.5455649,-1.846,0.0,0.0,-9.65,-1.15,0.03,0.0,0.0,0.0,0.0,0,0,0,0
36464000,47.3974478,8.5455634,-1.843,0.0,0.0,-9.63,-1.14,0.02,0.0,0.0,0.0,0.0,0,0,0,0
36560000,47.3974394,8.545562,-1.84,0.0,0.0,-9.61,-1.13,0.02,0.0,0.0,0.0,0.0,0,0,0,0
36664000,47.3974305,8.5455604,-1.837,0.0,0.0,-9.59,-1.13,0.02,0.0,0.0,0.0,0.0,0,0,0,0
36760000,47.3974222,8.5455591,-1.835,0.0,0.0,-9.58,-1.12,0.02,0.0,0.0,0.0,0.0,0,0,0,0
36864000,47.3974134,8.5455575,-1.832,0.0,0.0,-9.57,-1.12,0.02,0.0,0.0,0.0,0.0,0,0,0,0
36960000,47.3974051,8.545556,-1.83,0.0,0.0,-9.55,-1.11,0.02,0.0,0.0,0.0,0.0,0,0,0,0
37064000,47.397396,8.5455543,-1.827,0.0,0.0,-9.54,-1.1,0.02,0.0,0.0,0.0,0.0,0,0,0,0
37160000,47.397388,8.545553,-1.825,0.0,0.0,-9.52,-1.1,0.02,0.0,0.0,0.0,0.0,0,0,0,0
37264000,47.397379,8.5455515,-1.823,0.0,0.0,-9.51,-1.09,0.01,0.0,0.0,0.0,0.0,0,0,0,0
37360000,47.3973708,8.5455503,-1.821,0.0,0.0,-9.49,-1.08,0.01,0.0,0.0,0.0,0.0,0,0,0,0
37464000,47.3973619,8.5455488,-1.819,0.0,0.0,-9.48,-1.08,0.01,0.0,0.0,0.0,0.0,0,0,0,0
37560000,47.3973538,8.5455474,-1.818,0.0,0.0,-9.47,-1.08,0.02,0.0,0.0,0.0,0.0,0,0,0,0
37664000,47.3973449,8.5455455,-1.815,0.0,0.0,-9.45,-1.07,0.02,0.0,0.0,0.0,0.0,0,0,0,0
37760000,47.3973367,8.5455443,-1.813,0.0,0.0,-9.44,-1.07,0.01,0.0,0.0,0.0,0.0,0,0,0,0
37864000,47.397328,8.5455427,-1.811,0.0,0.0,-9.43,-1.07,0.01,0.0,0.0,0.0,0.0,0,0,0,0
37960000,47.3973196,8.5455415,-1.81,0.0,0.0,-9.43,-1.07,0.01,0.0,0.0,0.0,0.0,0,0,0,0
38064000,47.3973109,8.54554,-1.808,0.0,0.0,-9.44,-1.07,0.01,0.0,0.0,0.0,0.0,0,0,0,0
38160000,47.3973029,8.5455385,-1.806,0.0,0.0,-9.44,-1.07,0.01,0.0,0.0,0.0,0.0,0,0,0,0
38264000,47.3972939,8.5455371,-1.805,0.0,0.0,-9.44,-1.07,0.0,0.0,0.0,0.0,0.0,0,0,0,0
38360000,47.3972857,8.5455357,-1.805,0.0,0.0,-9.44,-1.07,0.0,0.0,0.0,0.0,0.0,0,0,0,0
38464000,47.3972769,8.5455341,-1.806,0.0,0.0,-9.44,-1.07,-0.01,0.0,0.0,0.0,0.0,0,0,0,0
38560000,47.3972688,8.5455328,-1.808,0.0,0.0,-9.44,-1.08,-0.03,0.0,0.0,0.0,0.0,0,0,0,0
38664000,47.3972599,8.5455315,-1.812,0.0,0.0,-9.43,-1.07,-0.04,0.0,0.0,0.0,0.0,0,0,0,0
38760000,47.3972517,8.54553,-1.816,0.0,0.0,-9.42,-1.07,-0.05,0.0,0.0,0.0,0.0,0,0,0,0
38864000,47.3972429,8.5455285,-1.822,0.0,0.0,-9.41,-1.06,-0.06,0.0,0.0,0.0,0.0,0,0,0,0
38960000,47.3972348,8.5455272,-1.828,0.0,0.0,-9.41,-1.06,-0.06,0.0,0.0,0.0,0.0,0,0,0,0
39064000,47.3972259,8.5455258,-1.835,0.0,0.0,-9.41,-1.06,-0.06,0.0,0.0,0.0,0.0,0,0,0,0
39160000,47.3972179,8.5455243,-1.842,0.0,0.0,-9.42,-1.06,-0.06,0.0,0.0,0.0,0.0,0,0,0,0
39264000,47.397209,8.5455231,-1.849,0.0,0.0,-9.43,-1.06,-0.06,0.0,0.0,0.0,0.0,0,0,0,0
39360000,47.397201,8.5455215,-1.856,0.0,0.0,-9.45,-1.07,-0.07,0.0,0.0,0.0,0.0,0,0,0,0
39464000,47.3971921,8.5455199,-1.864,0.0,0.0,-9.45,-1.07,-0.09,0.0,0.0,0.0,0.0,0,0,0,0
39560000,47.3971839,8.5455187,-1.875,0.0,0.0,-9.46,-1.06,-0.18,0.0,0.0,0.0,0.0,0,0,0,0
39664000,47.397175,8.5455171,-1.916,0.0,0.0,-9.49,-1.06,-0.63,0.0,0.0,0.0,0.0,0,0,0,0
39760000,47.3971668,8.5455159,-1.988,0.0,0.0,-9.49,-1.06,-0.81,0.0,0.0,0.0,0.0,0,0,0,0
39864000,47.397158,8.5455146,-2.075,0.0,0.0,-9.46,-1.06,-0.83,0.0,0.0,0.0,0.0,0,0,0,0
39960000,47.3971498,8.5455133,-2.155,0.0,0.0,-9.46,-1.06,-0.83,0.0,0.0,0.0,0.0,0,0,0,0
40064000,47.397141,8.5455118,-2.242,0.0,0.0,-9.47,-1.07,-0.88,0.0,0.0,0.0,0.0,0,0,0,0
40160000,47.3971328,8.5455102,-2.332,0.0,0.0,-9.48,-1.07,-0.96,0.0,0.0,0.0,0.0,0,0,0,0
40264000,47.3971238,8.5455085,-2.433,0.0,0.0,-9.47,-1.07,-0.97,0.0,0.0,0.0,0.0,0,0,0,0
40360000,47.3971157,8.5455075,-2.526,0.0,0.0,-9.47,-1.07,-0.96,0.0,0.0,0.0,0.0,0,0,0,0
40464000,47.3971068,8.5455059,-2.626,0.0,0.0,-9.47,-1.06,-0.95,0.0,0.0,0.0,0.0,0,0,0,0
40560000,47.3970987,8.5455045,-2.717,0.0,0.0,-9.47,-1.06,-0.94,0.0,0.0,0.0,0.0,0,0,0,0
40664000,47.3970899,8.545503,-2.816,0.0,0.0,-9.48,-1.06,-0.94,0.0,0.0,0.0,0.0,0,0,0,0
40760000,47.3970817,8.5455018,-2.902,0.0,0.0,-9.46,-1.06,-0.76,0.0,0.0,0.0,0.0,0,0,0,0
40864000,47.3970729,8.5455002,-2.958,0.0,0.0,-9.44,-1.05,-0.29,0.0,0.0,0.0,0.0,0,0,0,0
40960000,47.3970647,8.5454989,-2.973,0.0,0.0,-9.48,-1.06,-0.05,0.0,0.0,0.0,0.0,0,0,0,0
41064000,47.3970557,8.5454972,-2.976,0.0,0.0,-9.54,-1.07,0.0,0.0,0.0,0.0,0.0,0,0,0,0
41160000,47.3970474,8.5454958,-2.975,0.0,0.0,-9.56,-1.08,0.01,0.0,0.0,0.0,0.0,0,0,0,0
41256000,47.3970392,8.5454945,-2.973,0.0,0.0,-9.56,-1.08,0.03,0.0,0.0,0.0,0.0,0,0,0,0
41360000,47.3970303,8.5454929,-2.969,0.0,0.0,-9.55,-1.08,0.05,0.0,0.0,0.0,0.0,0,0,0,0
41464000,47.3970213,8.5454915,-2.963,0.0,0.0,-9.54,-1.07,0.06,0.0,0.0,0.0,0.0,0,0,0,0
41560000,47.3970132,8.5454902,-2.956,0.0,0.0,-9.53,-1.07,0.07,0.0,0.0,0.0,0.0,0,0,0,0
41664000,47.3970043,8.5454886,-2.947,0.0,0.0,-9.53,-1.07,0.08,0.0,0.0,0.0,0.0,0,0,0,0
41760000,47.3969961,8.5454872,-2.939,0.0,0.0,-9.54,-1.07,0.09,0.0,0.0,0.0,0.0,0,0,0,0
41864000,47.3969871,8.5454859,-2.929,0.0,0.0,-9.55,-1.07,0.09,0.0,0.0,0.0,0.0,0,0,0,0
41960000,47.3969788,8.5454842,-2.919,0.0,0.0,-9.55,-1.07,0.1,0.0,0.0,0.0,0.0,0,0,0,0
42064000,47.3969698,8.5454829,-2.908,0.0,0.0,-9.56,-1.07,0.1,0.0,0.0,0.0,0.0,0,0,0,0
42160000,47.3969615,8.5454815,-2.897,0.0,0.0,-9.58,-1.07,0.1,0.0,0.0,0.0,0.0,0,0,0,0
42264000,47.3969526,8.54548,-2.886,0.0,0.0,-9.59,-1.08,0.11,0.0,0.0,0.0,0.0,0,0,0,0
42360000,47.3969444,8.545479,-2.875,0.0,0.0,-9.61,-1.08,0.11,0.0,0.0,0.0,0.0,0,0,0,0
42464000,47.3969354,8.5454772,-2.864,0.0,0.0,-9.62,-1.08,0.11,0.0,0.0,0.0,0.0,0,0,0,0
42560000,47.3969269,8.5454759,-2.853,0.0,0.0,-9.62,-1.08,0.11,0.0,0.0,0.0,0.0,0,0,0,0
42664000,47.3969179,8.5454744,-2.841,0.0,0.0,-9.63,-1.08,0.11,0.0,0.0,0.0,0.0,0,0,0,0
42760000,47.3969095,8.5454729,-2.83,0.0,0.0,-9.64,-1.08,0.11,0.0,0.0,0.0,0.0,0,0,0,0
42864000,47.3969007,8.5454715,-2.818,0.0,0.0,-9.65,-1.09,0.11,0.0,0.0,0.0,0.0,0,0,0,0
42960000,47.3968923,8.5454702,-2.807,0.0,0.0,-9.66,-1.09,0.11,0.0,0.0,0.0,0.0,0,0,0,0
43056000,47.3968841,8.5454687,-2.797,0.0,0.0,-9.68,-1.1,0.11,0.0,0.0,0.0,0.0,0,0,0,0
43160000,47.396875,8.5454673,-2.785,0.0,0.0,-9.69,-1.1,0.1,0.0,0.0,0.0,0.0,0,0,0,0
43264000,47.3968659,8.5454656,-2.774,0.0,0.0,-9.7,-1.1,0.1,0.0,0.0,0.0,0.0,0,0,0,0
43360000,47.3968575,8.5454643,-2.764,0.0,0.0,-9.71,-1.1,0.1,0.0,0.0,0.0,0.0,0,0,0,0
43464000,47.3968482,8.5454626,-2.753,0.0,0.0,-9.71,-1.1,0.1,0.0,0.0,0.0,0.0,0,0,0,0
43560000,47.3968399,8.5454612,-2.744,0.0,0.0,-9.72,-1.1,0.09,0.0,0.0,0.0,0.0,0,0,0,0
43664000,47.3968309,8.5454597,-2.734,0.0,0.0,-9.73,-1.1,0.09,0.0,0.0,0.0,0.0,0,0,0,0
43760000,47.3968226,8.5454582,-2.724,0.0,0.0,-9.74,-1.11,0.09,0.0,0.0,0.0,0.0,0,0,0,0
43856000,47.396814,8.5454568,-2.715,0.0,0.0,-9.75,-1.12,0.09,0.0,0.0,0.0,0.0,0,0,0,0
43960000,47.3968047,8.5454552,-2.705,0.0,0.0,-9.76,-1.12,0.09,0.0,0.0,0.0,0.0,0,0,0,0
44064000,47.3967958,8.5454538,-2.696,0.0,0.0,-9.75,-1.12,0.08,0.0,0.0,0.0,0.0,0,0,0,0
44160000,47.3967873,8.5454522,-2.688,0.0,0.0,-9.75,-1.11,0.08,0.0,0.0,0.0,0.0,0,0,0,0
44256000,47.3967791,8.545451,-2.681,0.0,0.0,-9.75,-1.11,0.07,0.0,0.0,0.0,0.0,0,0,0,0
44360000,47.3967701,8.5454494,-2.673,0.0,0.0,-9.75,-1.11,0.07,0.0,0.0,0.0,0.0,0,0,0,0
44464000,47.3967607,8.5454481,-2.666,0.0,0.0,-9.74,-1.1,0.06,0.0,0.0,0.0,0.0,0,0,0,0
44560000,47.3967522,8.5454467,-2.659,0.0,0.0,-9.74,-1.1,0.06,0.0,0.0,0.0,0.0,0,0,0,0
44664000,47.3967431,8.5454452,-2.652,0.0,0.0,-9.75,-1.1,0.06,0.0,0.0,0.0,0.0,0,0,0,0
44760000,47.3967347,8.5454437,-2.647,0.0,0.0,-9.76,-1.1,0.05,0.0,0.0,0.0,0.0,0,0,0,0
44864000,47.3967256,8.5454423,-2.641,0.0,0.0,-9.76,-1.1,0.05,0.0,0.0,0.0,0.0,0,0,0,0
44960000,47.3967173,8.5454407,-2.636,0.0,0.0,-9.77,-1.1,0.04,0.0,0.0,0.0,0.0,0,0,0,0
45064000,47.396708,8.5454392,-2.631,0.0,0.0,-9.78,-1.11,0.04,0.0,0.0,0.0,0.0,0,0,0,0
45160000,47.3966995,8.5454377,-2.627,0.0,0.0,-9.79,-1.11,0.04,0.0,0.0,0.0,0.0,0,0,0,0
45264000,47.3966905,8.5454362,-2.622,0.0,0.0,-9.79,-1.11,0.03,0.0,0.0,0.0,0.0,0,0,0,0
45360000,47.396682,8.5454348,-2.619,0.0,0.0,-9.79,-1.11,0.03,0.0,0.0,0.0,0.0,0,0,0,0
45464000,47.3966728,8.5454331,-2.616,0.0,0.0,-9.78,-1.11,0.02,0.0,0.0,0.0,0.0,0,0,0,0
45560000,47.3966644,8.5454318,-2.613,0.0,0.0,-9.78,-1.1,0.02,0.0,0.0,0.0,0.0,0,0,0,0
45664000,47.3966551,8.5454304,-2.611,0.0,0.0,-9.78,-1.1,0.02,0.0,0.0,0.0,0.0,0,0,0,0
45760000,47.3966468,8.5454288,-2.609,0.0,0.0,-9.79,-1.1,0.01,0.0,0.0,0.0,0.0,0,0,0,0
45864000,47.3966376,8.5454274,-2.607,0.0,0.0,-9.8,-1.1,0.01,0.0,0.0,0.0,0.0,0,0,0,0
45960000,47.3966291,8.5454259,-2.605,0.0,0.0,-9.8,-1.11,0.01,0.0,0.0,0.0,0.0,0,0,0,0
46064000,47.39662,8.5454243,-2.603,0.0,0.0,-9.81,-1.11,0.01,0.0,0.0,0.0,0.0,0,0,0,0
46160000,47.3966115,8.5454229,-2.602,0.0,0.0,-9.81,-1.1,0.01,0.0,0.0,0.0,0.0,0,0,0,0
46264000,47.3966022,8.5454214,-2.6,0.0,0.0,-9.81,-1.1,0.01,0.0,0.0,0.0,0.0,0,0,0,0
46360000,47.3965937,8.5454199,-2.599,0.0,0.0,-9.8,-1.1,0.01,0.0,0.0,0.0,0.0,0,0,0,0
46464000,47.3965847,8.5454184,-2.598,0.0,0.0,-9.8,-1.1,0.0,0.0,0.0,0.0,0.0,0,0,0,0
46560000,47.3965763,8.5454169,-2.597,0.0,0.0,-9.8,-1.1,0.0,0.0,0.0,0.0,0.0,0,0,0,0
46664000,47.3965671,8.5454154,-2.597,0.0,0.0,-9.8,-1.1,0.0,0.0,0.0,0.0,0.0,0,0,0,0
46760000,47.3965586,8.545414,-2.596,0.0,0.0,-9.8,-1.1,0.0,0.0,0.0,0.0,0.0,0,0,0,0
46864000,47.3965494,8.5454127,-2.596,0.0,0.0,-9.8,-1.1,0.0,0.0,0.0,0.0,0.0,0,0,0,0
46960000,47.3965408,8.5454112,-2.595,0.0,0.0,-9.79,-1.09,0.0,0.0,0.0,0.0,0.0,0,0,0,0
47056000,47.3965324,8.5454097,-2.595,0.0,0.0,-9.79,-1.09,0.0,0.0,0.0,0.0,0.0,0,0,0,0
47160000,47.3965232,8.5454083,-2.594,0.0,0.0,-9.8,-1.09,0.0,0.0,0.0,0.0,0.0,0,0,0,0
47264000,47.3965141,8.5454066,-2.593,0.0,0.0,-9.79,-1.09,0.0,0.0,0.0,0.0,0.0,0,0,0,0
47360000,47.3965057,8.5454054,-2.594,0.0,0.0,-9.69,-1.08,-0.01,0.0,0.0,0.0,0.0,0,0,0,0
47464000,47.3964967,8.5454038,-2.596,0.0,0.0,-9.46,-1.05,-0.03,0.0,0.0,0.0,0.0,0,0,0,0
47560000,47.3964887,8.5454026,-2.598,0.0,0.0,-9.17,-1.01,0.0,0.0,0.0,0.0,0.0,0,0,0,0
47664000,47.3964801,8.5454012,-2.598,0.0,0.0,-8.94,-0.99,0.0,0.0,0.0,0.0,0.0,0,0,0,0
47760000,47.3964724,8.5453998,-2.599,0.0,0.0,-8.87,-0.98,0.0,0.0,0.0,0.0,0.0,0,0,0,0
47864000,47.3964641,8.5453984,-2.599,0.0,0.0,-8.82,-0.98,0.0,0.0,0.0,0.0,0.0,0,0,0,0
47960000,47.3964566,8.5453972,-2.6,0.0,0.0,-8.69,-0.96,-0.02,0.0,0.0,0.0,0.0,0,0,0,0
48056000,47.3964492,8.5453962,-2.603,0.0,0.0,-8.45,-0.91,-0.03,0.0,0.0,0.0,0.0,0,0,0,0
48160000,47.3964414,8.5453949,-2.606,0.0,0.0,-8.08,-0.85,-0.02,0.0,0.0,0.0,0.0,0,0,0,0
48256000,47.3964347,8.5453939,-2.608,0.0,0.0,-7.67,-0.79,-0.01,0.0,0.0,0.0,0.0,0,0,0,0
48360000,47.3964278,8.5453927,-2.608,0.0,0.0,-7.2,-0.71,0.01,0.0,0.0,0.0,0.0,0,0,0,0
48464000,47.3964212,8.5453915,-2.606,0.0,0.0,-6.75,-0.65,0.02,0.0,0.0,0.0,0.0,0,0,0,0
48560000,47.3964155,8.5453909,-2.604,0.0,0.0,-6.38,-0.6,0.02,0.0,0.0,0.0,0.0,0,0,0,0
48664000,47.3964098,8.54539,-2.602,0.0,0.0,-6.02,-0.56,0.01,0.0,0.0,0.0,0.0,0,0,0,0
48760000,47.3964046,8.5453894,-2.6,0.0,0.0,-5.78,-0.53,0.02,0.0,0.0,0.0,0.0,0,0,0,0
48864000,47.3963994,8.5453888,-2.598,0.0,0.0,-5.65,-0.52,0.0,0.0,0.0,0.0,0.0,0,0,0,0
48960000,47.3963945,8.5453882,-2.598,0.0,0.0,-5.49,-0.51,0.0,0.0,0.0,0.0,0.0,0,0,0,0
49064000,47.3963893,8.5453874,-2.597,0.0,0.0,-5.29,-0.49,0.01,0.0,0.0,0.0,0.0,0,0,0,0
49160000,47.3963848,8.5453867,-2.596,0.0,0.0,-5.2,-0.5,0.0,0.0,0.0,0.0,0.0,0,0,0,0
49264000,47.3963799,8.545386,-2.598,0.0,0.0,-5.29,-0.52,-0.03,0.0,0.0,0.0,0.0,0,0,0,0
49360000,47.3963753,8.5453853,-2.601,0.0,0.0,-5.53,-0.56,-0.03,0.0,0.0,0.0,0.0,0,0,0,0
49464000,47.39637,8.5453845,-2.603,0.0,0.0,-5.91,-0.62,-0.01,0.0,0.0,0.0,0.0,0,0,0,0
49560000,47.3963646,8.5453837,-2.603,0.0,0.0,-6.32,-0.67,0.0,0.0,0.0,0.0,0.0,0,0,0,0
49664000,47.3963584,8.5453827,-2.601,0.0,0.0,-6.81,-0.74,0.01,0.0,0.0,0.0,0.0,0,0,0,0
49760000,47.3963524,8.5453819,-2.599,0.0,0.0,-7.27,-0.8,0.01,0.0,0.0,0.0,0.0,0,0,0,0
49864000,47.3963453,8.5453809,-2.598,0.0,0.0,-7.76,-0.86,0.0,0.0,0.0,0.0,0.0,0,0,0,0
49960000,47.3963385,8.5453795,-2.597,0.0,0.0,-8.23,-0.92,0.0,0.0,0.0,0.0,0.0,0,0,0,0
50064000,47.3963307,8.545378,-2.596,0.0,0.0,-8.7,-0.99,0.03,0.0,0.0,0.0,0.0,0,0,0,0
50160000,47.3963229,8.545377,-2.592,0.0,0.0,-9.06,-1.03,0.04,0.0,0.0,0.0,0.0,0,0,0,0
50264000,47.3963143,8.5453754,-2.588,0.0,0.0,-9.34,-1.07,0.02,0.0,0.0,0.0,0.0,0,0,0,0
50360000,47.3963062,8.545374,-2.587,0.0,0.0,-9.51,-1.09,0.0,0.0,0.0,0.0,0.0,0,0,0,0
50464000,47.3962975,8.5453725,-2.587,0.0,0.0,-9.61,-1.11,-0.01,0.0,0.0,0.0,0.0,0,0,0,0
50560000,47.3962891,8.5453711,-2.589,0.0,0.0,-9.68,-1.11,-0.01,0.0,0.0,0.0,0.0,0,0,0,0
50664000,47.39628,8.5453693,-2.591,0.0,0.0,-9.73,-1.12,-0.01,0.0,0.0,0.0,0.0,0,0,0,0
50760000,47.3962714,8.5453681,-2.592,0.0,0.0,-9.75,-1.12,-0.01,0.0,0.0,0.0,0.0,0,0,0,0
50864000,47.3962624,8.5453664,-2.595,0.0,0.0,-9.69,-1.12,-0.03,0.0,0.0,0.0,0.0,0,0,0,0
50960000,47.396254,8.5453651,-2.599,0.0,0.0,-9.51,-1.09,-0.05,0.0,0.0,0.0,0.0,0,0,0,0
51064000,47.3962452,8.5453636,-2.605,0.0,0.0,-9.19,-1.04,-0.05,0.0,0.0,0.0,0.0,0,0,0,0
51160000,47.3962374,8.5453624,-2.61,0.0,0.0,-8.83,-0.97,-0.05,0.0,0.0,0.0,0.0,0,0,0,0
51264000,47.3962293,8.5453613,-2.615,0.0,0.0,-8.38,-0.89,-0.04,0.0,0.0,0.0,0.0,0,0,0,0
51360000,47.3962223,8.54536,-2.618,0.0,0.0,-7.97,-0.82,-0.01,0.0,0.0,0.0,0.0,0,0,0,0
51464000,47.3962149,8.5453589,-2.62,0.0,0.0,-7.74,-0.78,-0.02,0.0,0.0,0.0,0.0,0,0,0,0
51560000,47.3962084,8.5453579,-2.622,0.0,0.0,-7.68,-0.78,-0.02,0.0,0.0,0.0,0.0,0,0,0,0
51664000,47.3962012,8.545357,-2.626,0.0,0.0,-7.62,-0.78,-0.03,0.0,0.0,0.0,0.0,0,0,0,0
51760000,47.3961947,8.545356,-2.629,0.0,0.0,-7.5,-0.77,-0.04,0.0,0.0,0.0,0.0,0,0,0,0
51864000,47.3961879,8.5453549,-2.634,0.0,0.0,-7.28,-0.75,-0.04,0.0,0.0,0.0,0.0,0,0,0,0
51960000,47.3961816,8.5453537,-2.638,0.0,0.0,-7.03,-0.72,-0.03,0.0,0.0,0.0,0.0,0,0,0,0
52064000,47.3961751,8.5453528,-2.641,0.0,0.0,-6.74,-0.68,-0.03,0.0,0.0,0.0,0.0,0,0,0,0
52160000,47.3961694,8.5453521,-2.644,0.0,0.0,-6.46,-0.65,-0.02,0.0,0.0,0.0,0.0,0,0,0,0
52264000,47.3961635,8.5453513,-2.647,0.0,0.0,-6.14,-0.61,-0.02,0.0,0.0,0.0,0.0,0,0,0,0
52360000,47.3961583,8.5453505,-2.65,0.0,0.0,-5.85,-0.57,-0.02,0.0,0.0,0.0,0.0,0,0,0,0
52464000,47.3961531,8.5453495,-2.652,0.0,0.0,-5.53,-0.53,-0.02,0.0,0.0,0.0,0.0,0,0,0,0
52560000,47.3961483,8.5453488,-2.655,0.0,0.0,-5.23,-0.49,-0.02,0.0,0.0,0.0,0.0,0,0,0,0
52664000,47.3961436,8.5453484,-2.657,0.0,0.0,-4.91,-0.46,-0.02,0.0,0.0,0.0,0.0,0,0,0,0
52760000,47.3961394,8.5453479,-2.659,0.0,0.0,-4.6,-0.42,-0.01,0.0,0.0,0.0,0.0,0,0,0,0
52864000,47.3961353,8.5453472,-2.661,0.0,0.0,-4.27,-0.39,-0.01,0.0,0.0,0.0,0.0,0,0,0,0
52960000,47.3961318,8.5453467,-2.662,0.0,0.0,-3.97,-0.35,0.0,0.0,0.0,0.0,0.0,0,0,0,0
53064000,47.3961282,8.5453462,-2.663,0.0,0.0,-3.63,-0.32,0.0,0.0,0.0,0.0,0.0,0,0,0,0
53160000,47.3961252,8.5453458,-2.663,0.0,0.0,-3.32,-0.28,0.0,0.0,0.0,0.0,0.0,0,0,0,0
53264000,47.3961223,8.5453453,-2.663,0.0,0.0,-2.98,-0.25,0.0,0.0,0.0,0.0,0.0,0,0,0,0
53360000,47.3961198,8.5453448,-2.662,0.0,0.0,-2.66,-0.21,0.0,0.0,0.0,0.0,0.0,0,0,0,0
53464000,47.3961173,8.5453446,-2.661,0.0,0.0,-2.33,-0.18,0.01,0.0,0.0,0.0,0.0,0,0,0,0
53560000,47.3961155,8.5453447,-2.66,0.0,0.0,-2.01,-0.14,0.01,0.0,0.0,0.0,0.0,0,0,0,0
53664000,47.3961137,8.5453444,-2.657,0.0,0.0,-1.68,-0.11,0.02,0.0,0.0,0.0,0.0,0,0,0,0
53760000,47.3961126,8.5453442,-2.655,0.0,0.0,-1.36,-0.08,0.02,0.0,0.0,0.0,0.0,0,0,0,0
53864000,47.3961113,8.545344,-2.651,0.0,0.0,-1.02,-0.04,0.03,0.0,0.0,0.0,0.0,0,0,0,0
53960000,47.3961106,8.5453439,-2.648,0.0,0.0,-0.71,-0.01,0.04,0.0,0.0,0.0,0.0,0,0,0,0
54064000,47.3961102,8.5453441,-2.643,0.0,0.0,-0.37,0.02,0.05,0.0,0.0,0.0,0.0,0,0,0,0
54160000,47.3961099,8.5453442,-2.637,0.0,0.0,-0.07,0.05,0.06,0.0,0.0,0.0,0.0,0,0,0,0
54264000,47.3961099,8.5453442,-2.63,0.0,0.0,0.18,0.07,0.07,0.0,0.0,0.0,0.0,0,0,0,0
54360000,47.3961101,8.5453441,-2.623,0.0,0.0,0.37,0.09,0.06,0.0,0.0,0.0,0.0,0,0,0,0
54464000,47.3961107,8.5453443,-2.616,0.0,0.0,0.51,0.1,0.06,0.0,0.0,0.0,0.0,0,0,0,0
54560000,47.396111,8.5453445,-2.61,0.0,0.0,0.6,0.11,0.06,0.0,0.0,0.0,0.0,0,0,0,0
54664000,47.3961116,8.5453449,-2.604,0.0,0.0,0.67,0.11,0.05,0.0,0.0,0.0,0.0,0,0,0,0
54760000,47.3961121,8.5453452,-2.599,0.0,0.0,0.71,0.11,0.05,0.0,0.0,0.0,0.0,0,0,0,0
54864000,47.396113,8.5453453,-2.597,0.0,0.0,0.73,0.11,-0.02,0.0,0.0,0.0,0.0,0,0,0,0
54960000,47.3961136,8.5453455,-2.601,0.0,0.0,0.74,0.11,-0.05,0.0,0.0,0.0,0.0,0,0,0,0
55064000,47.3961142,8.5453453,-2.613,0.0,0.0,0.72,0.1,-0.27,0.0,0.0,0.0,0.0,0,0,0,0
55160000,47.3961149,8.5453454,-2.661,0.0,0.0,0.7,0.09,-0.73,0.0,0.0,0.0,0.0,0,0,0,0
55264000,47.3961156,8.5453457,-2.759,0.0,0.0,0.66,0.09,-1.18,0.0,0.0,0.0,0.0,0,0,0,0
55360000,47.3961162,8.545346,-2.888,0.0,0.0,0.63,0.08,-1.46,0.0,0.0,0.0,0.0,0,0,0,0
55464000,47.3961168,8.5453461,-3.044,0.0,0.0,0.58,0.07,-1.52,0.0,0.0,0.0,0.0,0,0,0,0
55560000,47.3961171,8.5453461,-3.192,0.0,0.0,0.53,0.07,-1.54,0.0,0.0,0.0,0.0,0,0,0,0
55664000,47.3961177,8.5453459,-3.354,0.0,0.0,0.47,0.05,-1.56,0.0,0.0,0.0,0.0,0,0,0,0
55760000,47.396118,8.5453462,-3.505,0.0,0.0,0.41,0.04,-1.58,0.0,0.0,0.0,0.0,0,0,0,0
55864000,47.3961185,8.5453461,-3.671,0.0,0.0,0.34,0.02,-1.59,0.0,0.0,0.0,0.0,0,0,0,0
55960000,47.3961188,8.5453463,-3.824,0.0,0.0,0.28,0.01,-1.6,0.0,0.0,0.0,0.0,0,0,0,0
56064000,47.3961187,8.5453462,-3.991,0.0,0.0,0.22,0.0,-1.6,0.0,0.0,0.0,0.0,0,0,0,0
56160000,47.3961189,8.5453464,-4.146,0.0,0.0,0.16,0.0,-1.6,0.0,0.0,0.0,0.0,0,0,0,0
56264000,47.3961192,8.5453461,-4.313,0.0,0.0,0.1,-0.01,-1.6,0.0,0.0,0.0,0.0,0,0,0,0
56360000,47.3961192,8.5453462,-4.467,0.0,0.0,0.05,-0.02,-1.6,0.0,0.0,0.0,0.0,0,0,0,0
56464000,47.3961194,8.545346,-4.634,0.0,0.0,0.0,-0.03,-1.59,0.0,0.0,0.0,0.0,0,0,0,0
56560000,47.3961193,8.5453459,-4.787,0.0,0.0,-0.03,-0.04,-1.59,0.0,0.0,0.0,0.0,0,0,0,0
56664000,47.3961193,8.5453461,-4.952,0.0,0.0,-0.08,-0.04,-1.58,0.0,0.0,0.0,0.0,0,0,0,0
56760000,47.3961191,8.5453459,-5.104,0.0,0.0,-0.11,-0.05,-1.58,0.0,0.0,0.0,0.0,0,0,0,0
56864000,47.3961191,8.5453457,-5.27,0.0,0.0,-0.15,-0.05,-1.61,0.0,0.0,0.0,0.0,0,0,0,0
56960000,47.3961188,8.5453458,-5.427,0.0,0.0,-0.18,-0.06,-1.65,0.0,0.0,0.0,0.0,0,0,0,0
57064000,47.3961187,8.5453455,-5.601,0.0,0.0,-0.21,-0.06,-1.69,0.0,0.0,0.0,0.0,0,0,0,0
57160000,47.3961185,8.5453455,-5.766,0.0,0.0,-0.23,-0.06,-1.71,0.0,0.0,0.0,0.0,0,0,0,0
57264000,47.3961183,8.5453455,-5.924,0.0,0.0,-0.24,-0.06,-1.22,0.0,0.0,0.0,0.0,0,0,0,0
57360000,47.3961182,8.5453456,-6.014,0.0,0.0,-0.24,-0.06,-0.61,0.0,0.0,0.0,0.0,0,0,0,0
57464000,47.3961179,8.5453454,-6.047,0.0,0.0,-0.25,-0.05,-0.09,0.0,0.0,0.0,0.0,0,0,0,0
57560000,47.3961175,8.5453454,-6.05,0.0,0.0,-0.27,-0.02,0.02,0.0,0.0,0.0,0.0,0,0,0,0
57664000,47.3961172,8.5453456,-6.046,0.0,0.0,-0.3,0.0,0.04,0.0,0.0,0.0,0.0,0,0,0,0
57760000,47.3961171,8.5453456,-6.04,0.0,0.0,-0.33,0.02,0.06,0.0,0.0,0.0,0.0,0,0,0,0
57864000,47.3961169,8.5453455,-6.032,0.0,0.0,-0.34,0.01,0.08,0.0,0.0,0.0,0.0,0,0,0,0
57960000,47.3961165,8.5453457,-6.024,0.0,0.0,-0.33,0.01,0.09,0.0,0.0,0.0,0.0,0,0,0,0
58064000,47.3961161,8.5453457,-6.014,0.0,0.0,-0.31,0.0,0.09,0.0,0.0,0.0,0.0,0,0,0,0
58160000,47.3961159,8.5453458,-6.005,0.0,0.0,-0.3,0.0,0.07,0.0,0.0,0.0,0.0,0,0,0,0
58264000,47.3961156,8.5453457,-6.017,0.0,0.0,-0.28,0.01,-0.31,0.0,0.0,0.0,0.0,0,0,0,0
58360000,47.3961154,8.5453456,-6.066,0.0,0.0,-0.28,0.03,-0.72,0.0,0.0,0.0,0.0,0,0,0,0
58464000,47.3961151,8.5453457,-6.165,0.0,0.0,-0.28,0.09,-1.19,0.0,0.0,0.0,0.0,0,0,0,0
58560000,47.3961148,8.5453458,-6.291,0.0,0.0,-0.29,0.13,-1.39,0.0,0.0,0.0,0.0,0,0,0,0
58664000,47.3961145,8.545346,-6.439,0.0,0.0,-0.32,0.18,-1.44,0.0,0.0,0.0,0.0,0,0,0,0
58760000,47.3961143,8.5453465,-6.579,0.0,0.0,-0.35,0.22,-1.46,0.0,0.0,0.0,0.0,0,0,0,0
58864000,47.3961139,8.5453465,-6.733,0.0,0.0,-0.38,0.25,-1.47,0.0,0.0,0.0,0.0,0,0,0,0
58960000,47.3961135,8.5453468,-6.867,0.0,0.0,-0.41,0.23,-1.33,0.0,0.0,0.0,0.0,0,0,0,0
59064000,47.3961131,8.5453471,-7.001,0.0,0.0,-0.44,0.18,-1.25,0.0,0.0,0.0,0.0,0,0,0,0
59160000,47.3961128,8.5453473,-7.121,0.0,0.0,-0.47,0.12,-1.24,0.0,0.0,0.0,0.0,0,0,0,0
59264000,47.3961123,8.5453475,-7.25,0.0,0.0,-0.49,0.05,-1.23,0.0,0.0,0.0,0.0,0,0,0,0
59360000,47.3961119,8.5453476,-7.369,0.0,0.0,-0.49,0.0,-1.23,0.0,0.0,0.0,0.0,0,0,0,0
59464000,47.3961114,8.5453475,-7.496,0.0,0.0,-0.49,-0.04,-1.22,0.0,0.0,0.0,0.0,0,0,0,0
59560000,47.3961109,8.5453474,-7.614,0.0,0.0,-0.48,-0.07,-1.22,0.0,0.0,0.0,0.0,0,0,0,0
59664000,47.3961103,8.5453473,-7.736,0.0,0.0,-0.46,-0.1,-1.1,0.0,0.0,0.0,0.0,0,0,0,0
59760000,47.39611,8.5453473,-7.839,0.0,0.0,-0.42,-0.12,-1.03,0.0,0.0,0.0,0.0,0,0,0,0
59864000,47.3961098,8.545347,-7.938,0.0,0.0,-0.38,-0.13,-0.84,0.0,0.0,0.0,0.0,0,0,0,0
59960000,47.3961095,8.545347,-8.011,0.0,0.0,-0.33,-0.14,-0.65,0.0,0.0,0.0,0.0,0,0,0,0
60064000,47.3961092,8.5453467,-8.071,0.0,0.0,-0.27,-0.15,-0.53,0.0,0.0,0.0,0.0,0,0,0,0
60160000,47.396109,8.5453465,-8.121,0.0,0.0,-0.21,-0.16,-0.51,0.0,0.0,0.0,0.0,0,0,0,0
60256000,47.3961088,8.5453464,-8.17,0.0,0.0,-0.15,-0.17,-0.5,0.0,0.0,0.0,0.0,0,0,0,0
60360000,47.3961087,8.5453459,-8.223,0.0,0.0,-0.11,-0.18,-0.5,0.0,0.0,0.0,0.0,0,0,0,0
60456000,47.3961085,8.5453457,-8.271,0.0,0.0,-0.08,-0.19,-0.49,0.0,0.0,0.0,0.0,0,0,0,0
60560000,47.3961084,8.5453453,-8.322,0.0,0.0,-0.06,-0.2,-0.49,0.0,0.0,0.0,0.0,0,0,0,0
60664000,47.3961085,8.545345,-8.372,0.0,0.0,-0.05,-0.2,-0.45,0.0,0.0,0.0,0.0,0,0,0,0
60760000,47.3961083,8.5453447,-8.415,0.0,0.0,-0.04,-0.21,-0.43,0.0,0.0,0.0,0.0,0,0,0,0
60864000,47.3961081,8.5453445,-8.461,0.0,0.0,-0.03,-0.21,-0.43,0.0,0.0,0.0,0.0,0,0,0,0
60960000,47.3961084,8.5453443,-8.503,0.0,0.0,-0.03,-0.2,-0.43,0.0,0.0,0.0,0.0,0,0,0,0
61064000,47.3961082,8.545344,-8.549,0.0,0.0,-0.02,-0.18,-0.43,0.0,0.0,0.0,0.0,0,0,0,0
61160000,47.3961083,8.5453438,-8.591,0.0,0.0,-0.02,-0.16,-0.43,0.0,0.0,0.0,0.0,0,0,0,0
61264000,47.3961084,8.5453434,-8.636,0.0,0.0,-0.01,-0.13,-0.43,0.0,0.0,0.0,0.0,0,0,0,0
61360000,47.3961083,8.5453435,-8.678,0.0,0.0,0.0,-0.1,-0.43,0.0,0.0,0.0,0.0,0,0,0,0
61464000,47.3961083,8.5453432,-8.723,0.0,0.0,0.01,-0.08,-0.42,0.0,0.0,0.0,0.0,0,0,0,0
61560000,47.3961082,8.5453432,-8.764,0.0,0.0,0.03,-0.05,-0.42,0.0,0.0,0.0,0.0,0,0,0,0
61664000,47.3961083,8.5453432,-8.808,0.0,0.0,0.05,-0.03,-0.42,0.0,0.0,0.0,0.0,0,0,0,0
61760000,47.3961084,8.5453432,-8.849,0.0,0.0,0.07,-0.01,-0.42,0.0,0.0,0.0,0.0,0,0,0,0
61864000,47.3961085,8.5453433,-8.894,0.0,0.0,0.1,0.0,-0.42,0.0,0.0,0.0,0.0,0,0,0,0
61960000,47.3961086,8.5453431,-8.935,0.0,0.0,0.12,0.0,-0.42,0.0,0.0,0.0,0.0,0,0,0,0
62064000,47.3961086,8.5453432,-8.979,0.0,0.0,0.15,0.01,-0.42,0.0,0.0,0.0,0.0,0,0,0,0
62160000,47.3961087,8.5453433,-9.02,0.0,0.0,0.17,0.01,-0.42,0.0,0.0,0.0,0.0,0,0,0,0
62264000,47.3961089,8.5453429,-9.065,0.0,0.0,0.18,0.0,-0.42,0.0,0.0,0.0,0.0,0,0,0,0
62360000,47.3961092,8.5453431,-9.106,0.0,0.0,0.2,0.0,-0.42,0.0,0.0,0.0,0.0,0,0,0,0
62464000,47.3961095,8.5453431,-9.151,0.0,0.0,0.21,-0.01,-0.42,0.0,0.0,0.0,0.0,0,0,0,0
62560000,47.3961096,8.545343,-9.192,0.0,0.0,0.21,-0.02,-0.42,0.0,0.0,0.0,0.0,0,0,0,0
62656000,47.3961098,8.5453432,-9.233,0.0,0.0,0.21,-0.03,-0.42,0.0,0.0,0.0,0.0,0,0,0,0
62760000,47.39611,8.545343,-9.278,0.0,0.0,0.21,-0.05,-0.42,0.0,0.0,0.0,0.0,0,0,0,0
62856000,47.3961103,8.5453427,-9.319,0.0,0.0,0.2,-0.06,-0.42,0.0,0.0,0.0,0.0,0,0,0,0
62960000,47.3961104,8.5453428,-9.364,0.0,0.0,0.19,-0.07,-0.42,0.0,0.0,0.0,0.0,0,0,0,0
63056000,47.3961106,8.5453426,-9.405,0.0,0.0,0.18,-0.07,-0.42,0.0,0.0,0.0,0.0,0,0,0,0
63160000,47.3961107,8.5453428,-9.449,0.0,0.0,0.16,-0.07,-0.43,0.0,0.0,0.0,0.0,0,0,0,0
63264000,47.3961108,8.5453428,-9.494,0.0,0.0,0.14,-0.07,-0.43,0.0,0.0,0.0,0.0,0,0,0,0
63360000,47.3961111,8.5453426,-9.536,0.0,0.0,0.11,-0.09,-0.43,0.0,0.0,0.0,0.0,0,0,0,0
63464000,47.3961112,8.5453424,-9.581,0.0,0.0,0.05,-0.13,-0.43,0.0,0.0,0.0,0.0,0,0,0,0
63560000,47.3961112,8.5453421,-9.623,0.0,0.0,0.01,-0.16,-0.43,0.0,0.0,0.0,0.0,0,0,0,0
63664000,47.396111,8.5453419,-9.668,0.0,0.0,0.0,-0.16,-0.43,0.0,0.0,0.0,0.0,0,0,0,0
63760000,47.3961109,8.5453417,-9.71,0.0,0.0,-0.01,-0.13,-0.43,0.0,0.0,0.0,0.0,0,0,0,0
63864000,47.396111,8.5453415,-9.756,0.0,0.0,0.0,-0.07,-0.43,0.0,0.0,0.0,0.0,0,0,0,0
63960000,47.3961109,8.5453413,-9.798,0.0,0.0,0.0,-0.02,-0.43,0.0,0.0,0.0,0.0,0,0,0,0
64064000,47.396111,8.5453413,-9.843,0.0,0.0,0.01,0.03,-0.43,0.0,0.0,0.0,0.0,0,0,0,0
64160000,47.3961109,8.5453415,-9.884,0.0,0.0,0.01,0.07,-0.43,0.0,0.0,0.0,0.0,0,0,0,0
64264000,47.3961109,8.5453415,-9.929,0.0,0.0,0.01,0.11,-0.43,0.0,0.0,0.0,0.0,0,0,0,0
64360000,47.3961109,8.5453417,-9.971,0.0,0.0,0.0,0.13,-0.43,0.0,0.0,0.0,0.0,0,0,0,0
64464000,47.3961112,8.5453421,-10.017,0.0,0.0,0.0,0.15,-0.43,0.0,0.0,0.0,0.0,0,0,0,0
64560000,47.3961111,8.5453422,-10.055,0.0,0.0,-0.01,0.15,-0.27,0.0,0.0,0.0,0.0,0,0,0,0
64664000,47.396111,8.5453426,-10.066,0.0,0.0,-0.02,0.15,0.0,0.0,0.0,0.0,0.0,0,0,0,0
64760000,47.3961111,8.5453428,-10.063,0.0,0.0,-0.03,0.15,0.04,0.0,0.0,0.0,0.0,0,0,0,0
64864000,47.3961111,8.5453428,-10.058,0.0,0.0,-0.04,0.15,0.04,0.0,0.0,0.0,0.0,0,0,0,0
64960000,47.3961111,8.545343,-10.053,0.0,0.0,-0.05,0.14,0.04,0.0,0.0,0.0,0.0,0,0,0,0
65064000,47.3961109,8.5453432,-10.048,0.0,0.0,-0.05,0.14,0.04,0.0,0.0,0.0,0.0,0,0,0,0
65160000,47.396111,8.5453435,-10.044,0.0,0.0,-0.06,0.13,0.04,0.0,0.0,0.0,0.0,0,0,0,0
65264000,47.3961108,8.5453437,-10.039,0.0,0.0,-0.06,0.13,0.04,0.0,0.0,0.0,0.0,0,0,0,0
65360000,47.3961106,8.5453436,-10.035,0.0,0.0,-0.06,0.12,0.03,0.0,0.0,0.0,0.0,0,0,0,0
65464000,47.3961106,8.545344,-10.032,0.0,0.0,-0.07,0.12,0.03,0.0,0.0,0.0,0.0,0,0,0,0
65560000,47.3961105,8.5453442,-10.028,0.0,0.0,-0.07,0.12,0.03,0.0,0.0,0.0,0.0,0,0,0,0
65664000,47.3961103,8.5453445,-10.025,0.0,0.0,-0.07,0.12,0.02,0.0,0.0,0.0,0.0,0,0,0,0
65760000,47.3961103,8.5453446,-10.023,0.0,0.0,-0.06,0.12,0.02,0.0,0.0,0.0,0.0,0,0,0,0
65864000,47.3961102,8.5453448,-10.02,0.0,0.0,-0.06,0.11,0.01,0.0,0.0,0.0,0.0,0,0,0,0
65960000,47.3961102,8.5453448,-10.019,0.0,0.0,-0.06,0.11,0.01,0.0,0.0,0.0,0.0,0,0,0,0
66064000,47.3961103,8.5453448,-10.017,0.0,0.0,-0.05,0.11,0.01,0.0,0.0,0.0,0.0,0,0,0,0
66160000,47.3961103,8.5453449,-10.017,0.0,0.0,-0.04,0.1,0.0,0.0,0.0,0.0,0.0,0,0,0,0
66256000,47.3961102,8.545345,-10.016,0.0,0.0,-0.03,0.1,0.0,0.0,0.0,0.0,0.0,0,0,0,0
66360000,47.39611,8.5453451,-10.017,0.0,0.0,-0.03,0.09,0.0,0.0,0.0,0.0,0.0,0,0,0,0
66464000,47.39611,8.5453452,-10.018,0.0,0.0,-0.02,0.09,-0.01,0.0,0.0,0.0,0.0,0,0,0,0
66560000,47.39611,8.5453455,-10.019,0.0,0.0,-0.01,0.08,-0.01,0.0,0.0,0.0,0.0,0,0,0,0
66664000,47.39611,8.5453457,-10.021,0.0,0.0,0.0,0.08,-0.01,0.0,0.0,0.0,0.0,0,0,0,0
66760000,47.3961101,8.5453459,-10.023,0.0,0.0,0.0,0.07,-0.02,0.0,0.0,0.0,0.0,0,0,0,0
66864000,47.3961103,8.545346,-10.025,0.0,0.0,0.01,0.06,-0.02,0.0,0.0,0.0,0.0,0,0,0,0
66960000,47.3961102,8.5453456,-10.028,0.0,0.0,0.01,0.05,-0.02,0.0,0.0,0.0,0.0,0,0,0,0
67064000,47.3961102,8.5453458,-10.03,0.0,0.0,0.02,0.05,-0.02,0.0,0.0,0.0,0.0,0,0,0,0
67160000,47.3961103,8.545346,-10.033,0.0,0.0,0.03,0.04,-0.02,0.0,0.0,0.0,0.0,0,0,0,0
67264000,47.3961102,8.5453459,-10.036,0.0,0.0,0.04,0.03,-0.02,0.0,0.0,0.0,0.0,0,0,0,0
67360000,47.3961103,8.5453462,-10.039,0.0,0.0,0.04,0.02,-0.02,0.0,0.0,0.0,0.0,0,0,0,0
67464000,47.3961103,8.5453464,-10.042,0.0,0.0,0.05,0.02,-0.03,0.0,0.0,0.0,0.0,0,0,0,0
67560000,47.3961105,8.5453461,-10.045,0.0,0.0,0.06,0.01,-0.03,0.0,0.0,0.0,0.0,0,0,0,0
67656000,47.3961105,8.5453463,-10.048,0.0,0.0,0.06,0.01,-0.03,0.0,0.0,0.0,0.0,0,0,0,0
67760000,47.3961104,8.5453461,-10.052,0.0,0.0,0.06,0.0,-0.03,0.0,0.0,0.0,0.0,0,0,0,0
67864000,47.3961105,8.545346,-10.055,0.0,0.0,0.07,0.0,-0.03,0.0,0.0,0.0,0.0,0,0,0,0
67960000,47.3961106,8.545346,-10.059,0.0,0.0,0.11,0.0,-0.04,0.0,0.0,0.0,0.0,0,0,0,0
68064000,47.3961106,8.5453462,-10.065,0.0,0.0,0.28,-0.05,-0.06,0.0,0.0,0.0,0.0,0,0,0,0
68160000,47.396111,8.5453461,-10.072,0.0,0.0,0.55,-0.13,-0.07,0.0,0.0,0.0,0.0,0,0,0,0
68256000,47.3961117,8.5453459,-10.078,0.0,0.0,0.91,-0.25,-0.05,0.0,0.0,0.0,0.0,0,0,0,0
68360000,47.3961127,8.5453454,-10.084,0.0,0.0,1.35,-0.41,-0.03,0.0,0.0,0.0,0.0,0,0,0,0
68464000,47.3961142,8.5453449,-10.084,0.0,0.0,1.76,-0.55,0.02,0.0,0.0,0.0,0.0,0,0,0,0
68560000,47.3961158,8.5453441,-10.082,0.0,0.0,2.0,-0.63,0.0,0.0,0.0,0.0,0.0,0,0,0,0
68664000,47.3961179,8.5453431,-10.084,0.0,0.0,2.03,-0.64,-0.04,0.0,0.0,0.0,0.0,0,0,0,0
68760000,47.3961196,8.5453422,-10.089,0.0,0.0,1.91,-0.59,-0.04,0.0,0.0,0.0,0.0,0,0,0,0
68864000,47.3961212,8.5453413,-10.093,0.0,0.0,1.69,-0.51,-0.02,0.0,0.0,0.0,0.0,0,0,0,0
68960000,47.3961226,8.545341,-10.095,0.0,0.0,1.45,-0.43,-0.01,0.0,0.0,0.0,0.0,0,0,0,0
69064000,47.3961238,8.5453404,-10.096,0.0,0.0,1.17,-0.33,-0.01,0.0,0.0,0.0,0.0,0,0,0,0
69160000,47.3961246,8.54534,-10.097,0.0,0.0,0.91,-0.25,0.0,0.0,0.0,0.0,0.0,0,0,0,0
69264000,47.3961253,8.5453396,-10.098,0.0,0.0,0.65,-0.16,0.0,0.0,0.0,0.0,0.0,0,0,0,0
69360000,47.396126,8.5453395,-10.097,0.0,0.0,0.45,-0.09,0.0,0.0,0.0,0.0,0.0,0,0,0,0
69456000,47.3961264,8.5453396,-10.097,0.0,0.0,0.3,-0.04,0.0,0.0,0.0,0.0,0.0,0,0,0,0
69560000,47.3961265,8.5453395,-10.097,0.0,0.0,0.18,0.0,0.0,0.0,0.0,0.0,0.0,0,0,0,0
69664000,47.3961266,8.5453394,-10.097,0.0,0.0,0.1,0.01,0.0,0.0,0.0,0.0,0.0,0,0,0,0
69760000,47.3961267,8.5453396,-10.098,0.0,0.0,0.04,0.03,0.0,0.0,0.0,0.0,0.0,0,0,0,0
69864000,47.3961267,8.5453396,-10.098,0.0,0.0,0.0,0.04,0.0,0.0,0.0,0.0,0.0,0,0,0,0
69960000,47.3961266,8.5453394,-10.098,0.0,0.0,-0.03,0.05,0.0,0.0,0.0,0.0,0.0,0,0,0,0
70064000,47.3961266,8.5453394,-10.098,0.0,0.0,-0.06,0.05,0.0,0.0,0.0,0.0,0.0,0,0,0,0
70160000,47.3961266,8.5453395,-10.098,0.0,0.0,-0.08,0.05,0.0,0.0,0.0,0.0,0.0,0,0,0,0
70264000,47.3961265,8.5453396,-10.098,0.0,0.0,-0.1,0.06,0.0,0.0,0.0,0.0,0.0,0,0,0,0
70360000,47.3961263,8.5453399,-10.098,0.0,0.0,-0.12,0.06,0.0,0.0,0.0,0.0,0.0,0,0,0,0
70464000,47.3961263,8.54534,-10.099,0.0,0.0,-0.13,0.06,0.0,0.0,0.0,0.0,0.0,0,0,0,0
70560000,47.3961261,8.5453399,-10.099,0.0,0.0,-0.14,0.06,0.0,0.0,0.0,0.0,0.0,0,0,0,0
70656000,47.3961259,8.5453401,-10.099,0.0,0.0,-0.14,0.05,0.0,0.0,0.0,0.0,0.0,0,0,0,0
70760000,47.3961258,8.5453402,-10.1,0.0,0.0,-0.15,0.05,0.0,0.0,0.0,0.0,0.0,0,0,0,0
70864000,47.3961258,8.5453401,-10.101,0.0,0.0,-0.15,0.05,-0.01,0.0,0.0,0.0,0.0,0,0,0,0
70960000,47.3961255,8.5453401,-10.102,0.0,0.0,-0.15,0.05,-0.01,0.0,0.0,0.0,0.0,0,0,0,0
71064000,47.3961255,8.5453405,-10.103,0.0,0.0,-0.15,0.05,-0.01,0.0,0.0,0.0,0.0,0,0,0,0
71160000,47.3961254,8.5453404,-10.105,0.0,0.0,-0.14,0.04,-0.01,0.0,0.0,0.0,0.0,0,0,0,0
71264000,47.3961254,8.5453407,-10.107,0.0,0.0,-0.14,0.04,-0.01,0.0,0.0,0.0,0.0,0,0,0,0
71360000,47.3961252,8.5453408,-10.108,0.0,0.0,-0.13,0.03,-0.01,0.0,0.0,0.0,0.0,0,0,0,0
71464000,47.3961249,8.5453407,-10.11,0.0,0.0,-0.13,0.03,-0.01,0.0,0.0,0.0,0.0,0,0,0,0
71560000,47.396125,8.5453406,-10.112,0.0,0.0,-0.12,0.03,-0.01,0.0,0.0,0.0,0.0,0,0,0,0
71664000,47.3961249,8.5453406,-10.113,0.0,0.0,-0.12,0.03,-0.01,0.0,0.0,0.0,0.0,0,0,0,0
71760000,47.3961247,8.5453406,-10.115,0.0,0.0,-0.11,0.02,-0.01,0.0,0.0,0.0,0.0,0,0,0,0
71864000,47.3961246,8.5453407,-10.117,0.0,0.0,-0.11,0.02,-0.01,0.0,0.0,0.0,0.0,0,0,0,0
71960000,47.3961245,8.5453406,-10.118,0.0,0.0,-0.1,0.02,-0.01,0.0,0.0,0.0,0.0,0,0,0,0
72064000,47.3961244,8.5453408,-10.12,0.0,0.0,-0.09,0.01,-0.01,0.0,0.0,0.0,0.0,0,0,0,0
72160000,47.3961243,8.5453408,-10.122,0.0,0.0,-0.09,0.01,-0.01,0.0,0.0,0.0,0.0,0,0,0,0
72264000,47.3961243,8.5453408,-10.124,0.0,0.0,-0.09,0.0,-0.01,0.0,0.0,0.0,0.0,0,0,0,0
72360000,47.396124,8.5453408,-10.126,0.0,0.0,-0.08,0.0,-0.01,0.0,0.0,0.0,0.0,0,0,0,0
72464000,47.396124,8.5453409,-10.127,0.0,0.0,-0.08,0.0,-0.01,0.0,0.0,0.0,0.0,0,0,0,0
72560000,47.396124,8.5453409,-10.129,0.0,0.0,-0.07,0.0,-0.01,0.0,0.0,0.0,0.0,0,0,0,0
72664000,47.3961239,8.5453411,-10.13,0.0,0.0,-0.07,0.0,-0.01,0.0,0.0,0.0,0.0,0,0,0,0
72760000,47.3961237,8.545341,-10.131,0.0,0.0,-0.07,0.0,-0.01,0.0,0.0,0.0,0.0,0,0,0,0
72856000,47.3961237,8.545341,-10.132,0.0,0.0,-0.06,0.0,-0.01,0.0,0.0,0.0,0.0,0,0,0,0
72960000,47.3961236,8.5453408,-10.133,0.0,0.0,-0.06,0.0,-0.01,0.0,0.0,0.0,0.0,0,0,0,0
73064000,47.3961237,8.5453409,-10.135,0.0,0.0,-0.05,-0.01,-0.01,0.0,0.0,0.0,0.0,0,0,0,0
73160000,47.3961238,8.5453411,-10.136,0.0,0.0,-0.05,-0.01,0.0,0.0,0.0,0.0,0.0,0,0,0,0
73264000,47.3961236,8.5453409,-10.136,0.0,0.0,-0.04,-0.01,0.0,0.0,0.0,0.0,0.0,0,0,0,0
73360000,47.3961236,8.5453408,-10.137,0.0,0.0,-0.04,-0.01,0.0,0.0,0.0,0.0,0.0,0,0,0,0
73464000,47.3961236,8.545341,-10.137,0.0,0.0,-0.03,-0.02,0.0,0.0,0.0,0.0,0.0,0,0,0,0
73560000,47.3961235,8.5453408,-10.137,0.0,0.0,-0.03,-0.02,0.0,0.0,0.0,0.0,0.0,0,0,0,0
73664000,47.3961233,8.5453406,-10.137,0.0,0.0,-0.02,-0.02,0.0,0.0,0.0,0.0,0.0,0,0,0,0
73760000,47.3961233,8.5453406,-10.138,0.0,0.0,-0.02,-0.02,0.0,0.0,0.0,0.0,0.0,0,0,0,0
73856000,47.3961235,8.5453408,-10.137,0.0,0.0,-0.02,-0.03,0.0,0.0,0.0,0.0,0.0,0,0,0,0
73960000,47.3961234,8.5453406,-10.137,0.0,0.0,-0.01,-0.03,0.0,0.0,0.0,0.0,0.0,0,0,0,0
74064000,47.3961234,8.5453404,-10.136,0.0,0.0,-0.01,-0.03,0.0,0.0,0.0,0.0,0.0,0,0,0,0
74160000,47.3961233,8.5453404,-10.135,0.0,0.0,-0.01,-0.03,0.01,0.0,0.0,0.0,0.0,0,0,0,0
74264000,47.3961234,8.5453404,-10.134,0.0,0.0,-0.01,-0.04,0.01,0.0,0.0,0.0,0.0,0,0,0,0
74360000,47.3961234,8.5453405,-10.133,0.0,0.0,0.0,-0.04,0.01,0.0,0.0,0.0,0.0,0,0,0,0
74464000,47.3961233,8.5453404,-10.131,0.0,0.0,0.0,-0.04,0.01,0.0,0.0,0.0,0.0,0,0,0,0
74560000,47.3961233,8.5453404,-10.129,0.0,0.0,0.0,-0.04,0.01,0.0,0.0,0.0,0.0,0,0,0,0
74664000,47.3961233,8.5453404,-10.128,0.0,0.0,0.0,-0.04,0.01,0.0,0.0,0.0,0.0,0,0,0,0
