timestamp,x,y,z,yaw,yawspeed,vx,vy,vz,acc_x,acc_y,acc_z,jerk_x,jerk_y,jerk_z,thrust[0],thrust[1],thrust[2]
30204000,nan,nan,nan,0.00641296,0.0,nan,nan,nan,0.0,0.0,0.0,0.0,0.0,0.0,0.0,0.0,0.0
30320000,nan,nan,nan,0.00650014,0.0,nan,nan,nan,0.0,0.0,0.0,0.0,0.0,0.0,0.0,0.0,0.0
30420000,nan,nan,nan,0.00648575,0.0,nan,nan,nan,0.0,0.0,0.0,0.0,0.0,0.0,0.0,0.0,0.0
30516000,nan,nan,nan,0.00668844,0.0,nan,nan,nan,0.0,0.0,0.0,0.0,0.0,0.0,0.0,0.0,0.0
30612000,nan,nan,nan,0.00651281,0.0,nan,nan,nan,0.0,0.0,0.0,0.0,0.0,0.0,0.0,0.0,0.0
30708000,nan,nan,nan,0.00634713,0.0,nan,nan,nan,0.0,0.0,0.0,0.0,0.0,0.0,0.0,0.0,0.0
30824000,nan,nan,nan,0.00631531,0.0,nan,nan,nan,0.0,0.0,0.0,0.0,0.0,0.0,0.0,0.0,0.0
30924000,nan,nan,nan,0.00586931,0.0,nan,nan,nan,0.0,0.0,0.0,0.0,0.0,0.0,0.0,0.0,0.0
31020000,nan,nan,nan,0.0058756,0.0,nan,nan,nan,0.0,0.0,0.0,0.0,0.0,0.0,0.0,0.0,0.0
31116000,nan,nan,nan,0.00580866,0.0,nan,nan,nan,0.0,0.0,0.0,0.0,0.0,0.0,0.0,0.0,0.0
31212000,nan,nan,nan,0.00588281,0.0,nan,nan,nan,0.0,0.0,0.0,0.0,0.0,0.0,0.0,0.0,0.0
31308000,nan,nan,nan,0.00566027,0.0,nan,nan,nan,0.0,0.0,0.0,0.0,0.0,0.0,0.0,0.0,0.0
31404000,nan,nan,nan,0.00580644,0.0,nan,nan,nan,0.0,0.0,0.0,0.0,0.0,0.0,0.0,0.0,0.0
31520000,nan,nan,nan,0.00557736,0.0,nan,nan,nan,0.0,0.0,0.0,0.0,0.0,0.0,0.0,0.0,0.0
31620000,nan,nan,nan,0.00540154,0.0,nan,nan,nan,0.0,0.0,0.0,0.0,0.0,0.0,0.0,0.0,0.0
31716000,nan,nan,nan,0.00529495,0.0,nan,nan,nan,0.0,0.0,0.0,0.0,0.0,0.0,0.0,0.0,0.0
31812000,nan,nan,nan,0.00511049,0.0,nan,nan,nan,0.0,0.0,0.0,0.0,0.0,0.0,0.0,0.0,0.0
31908000,nan,nan,nan,0.00530774,0.0,nan,nan,nan,0.0,0.0,0.0,0.0,0.0,0.0,0.0,0.0,0.0
32024000,nan,nan,nan,0.00539484,0.0,-9.99985,-0.05471,-0.0514,0.0,0.0,0.0,0.0,0.0,0.0,-0.112475,-0.000740874,-0.529166
32120000,nan,nan,nan,0.00559539,0.0,-9.99985,-0.05471,-0.1744,0.0,0.0,0.0,0.0,0.0,0.0,-0.116435,-0.000762799,-0.547796
32220000,nan,nan,nan,0.00540639,0.0,-9.99985,-0.05471,-0.3276,0.0,0.0,0.0,0.0,0.0,0.0,-0.119012,-0.000784601,-0.559922
32316000,nan,nan,nan,0.00524754,0.0,-9.99985,-0.05471,-0.5316,0.0,0.0,0.0,0.0,0.0,0.0,-0.12648,-0.000803821,-0.595054
32412000,nan,nan,nan,0.00515727,0.0,-9.99985,-0.05471,-0.7884,0.0,0.0,0.0,0.0,0.0,0.0,-0.132264,-0.000875172,-0.622267
32508000,nan,nan,nan,0.00498927,0.0,-9.99985,-0.05471,-1.07,0.0,0.0,0.0,0.0,0.0,0.0,-0.135375,-0.000915324,-0.636903
32624000,nan,nan,nan,0.00547102,-0.0,-9.99985,-0.05471,-1.17333,0.0,0.0,0.0,0.0,0.0,0.0,-0.466906,-0.0030825,-0.466916
32720000,nan,nan,nan,0.00547102,-0.0,-9.99985,-0.05471,-1.17333,0.0,0.0,0.0,0.0,0.0,0.0,-0.391252,-0.00270743,-0.391262
32820000,nan,nan,nan,0.00547102,-0.0,-9.99985,-0.05471,-1.17333,0.0,0.0,0.0,0.0,0.0,0.0,-0.43713,-0.0031359,-0.437142
32916000,nan,nan,nan,0.00547102,-0.0,-9.99985,-0.05471,-0.933334,0.0,0.0,0.0,0.0,0.0,0.0,-0.324096,-0.00243621,-0.324105
33012000,nan,nan,nan,0.00547102,0.0,-9.99985,-0.05471,-0.393334,0.0,0.0,0.0,0.0,0.0,0.0,-0.185907,-0.00138431,-0.185912
33108000,nan,nan,nan,0.00547102,0.0,-9.99985,-0.05471,-0.286667,0.0,0.0,0.0,0.0,0.0,0.0,-0.364037,-0.00263389,-0.364047
33224000,nan,nan,-0.818672,0.00547102,0.0,-9.99985,-0.05471,0.00772673,0.0,0.0,0.0,0.0,0.0,0.0,-0.327217,-0.0026497,-0.327228
33320000,nan,nan,-0.818672,0.00547102,0.0,-9.99985,-0.05471,0.0271094,0.0,0.0,0.0,0.0,0.0,0.0,-0.449983,-0.00396917,-0.450001
33420000,nan,nan,nan,0.00547102,0.0,-9.99985,-0.05471,0.115555,0.0,0.0,0.0,0.0,0.0,0.0,-0.436692,-0.00406919,-0.436711
33516000,nan,nan,nan,0.00547102,0.0,-9.99985,-0.05471,0.151111,0.0,0.0,0.0,0.0,0.0,0.0,-0.339055,-0.003032,-0.473799
33612000,nan,nan,nan,0.00547102,0.0,-9.99985,-0.05471,0.0111111,0.0,0.0,0.0,0.0,0.0,0.0,-0.224304,-0.00185663,-0.611135
33708000,nan,nan,nan,0.005926,0.0969627,-9.99982,-0.0592596,-0.48,0.0,0.0,0.0,0.0,0.0,0.0,-0.130702,-0.00312834,-0.835789
33824000,nan,nan,nan,0.00852285,0.15514,-9.99964,-0.0852275,-1.5,0.0,0.0,0.0,0.0,0.0,0.0,-0.0374437,-0.00637301,-0.980203
33920000,nan,nan,nan,0.0148514,0.217197,-9.9989,-0.148508,-1.5,0.0,0.0,0.0,0.0,0.0,0.0,-0.0555196,-0.0171567,-0.590204
34020000,nan,nan,nan,0.0259203,0.217197,-9.99664,-0.259174,-1.5,0.0,0.0,0.0,0.0,0.0,0.0,-0.0911774,-0.0342368,-0.501785
34116000,nan,nan,nan,0.0390473,0.217197,-9.99238,-0.390374,-1.5,0.0,0.0,0.0,0.0,0.0,0.0,-0.093722,-0.0504628,-0.500199
34212000,nan,nan,nan,0.0548008,0.15514,-9.98499,-0.547734,-1.5,0.0,0.0,0.0,0.0,0.0,0.0,-0.0805709,-0.0648664,-0.507263
34308000,nan,nan,nan,0.0725553,0.15514,-9.97369,-0.724916,-1.5,0.0,0.0,0.0,0.0,0.0,0.0,-0.0626135,-0.076546,-0.513816
34424000,nan,nan,nan,0.0944866,0.15514,-9.95539,-0.943461,-1.5,0.0,0.0,0.0,0.0,0.0,0.0,-0.0497014,-0.0894837,-0.515853
34520000,nan,nan,nan,0.10808,-0.0,-9.94165,-1.07869,-1.02,0.0,0.0,0.0,0.0,0.0,0.0,-0.0426591,-0.0866635,-0.237704
34620000,nan,nan,-1.86294,0.10808,0.0,-9.94165,-1.07869,-0.656484,0.0,0.0,0.0,0.0,0.0,0.0,-0.0582329,-0.0808317,-0.379597
34716000,nan,nan,-1.86294,0.10808,0.0,-9.94165,-1.07869,0.125529,0.0,0.0,0.0,0.0,0.0,0.0,-0.0459339,-0.0443087,-0.168943
34812000,nan,nan,nan,0.10808,0.0,-9.94165,-1.07869,0.0288889,0.0,0.0,0.0,0.0,0.0,0.0,-0.0240623,-0.00114954,-0.488777
34908000,nan,nan,nan,0.10808,0.0,-9.94165,-1.07869,0.0288889,0.0,0.0,0.0,0.0,0.0,0.0,-0.00575894,0.0323689,-0.511538
35024000,nan,nan,nan,0.10808,0.0,-9.94165,-1.07869,0.0466666,0.0,0.0,0.0,0.0,0.0,0.0,-0.0174122,0.0204123,-0.492802
35120000,nan,nan,nan,0.10808,0.0,-9.94165,-1.07869,0.0466666,0.0,0.0,0.0,0.0,0.0,0.0,-0.0275686,0.00472025,-0.492201
35220000,nan,nan,nan,0.10808,0.0,-9.94165,-1.07869,0.0466666,0.0,0.0,0.0,0.0,0.0,0.0,-0.035938,-0.0062615,-0.492398
35316000,nan,nan,nan,0.10808,0.0,-9.94165,-1.07869,0.0466666,0.0,0.0,0.0,0.0,0.0,0.0,-0.0388589,-0.00831953,-0.492238
35412000,nan,nan,nan,0.10808,0.0,-9.94165,-1.07869,0.0466666,0.0,0.0,0.0,0.0,0.0,0.0,-0.0397589,-0.00474687,-0.492698
35508000,nan,nan,nan,0.10808,0.0,-9.94165,-1.07869,0.0466666,0.0,0.0,0.0,0.0,0.0,0.0,-0.0388087,-0.00224937,-0.493754
35624000,nan,nan,nan,0.10808,0.0,-9.94165,-1.07869,0.0466666,0.0,0.0,0.0,0.0,0.0,0.0,-0.0388222,-0.000735402,-0.493729
35720000,nan,nan,nan,0.10808,0.0,-9.94165,-1.07869,0.0466666,0.0,0.0,0.0,0.0,0.0,0.0,-0.0385591,-2.20491e-06,-0.493452
35820000,nan,nan,nan,0.10808,0.0,-9.94165,-1.07869,0.0466666,0.0,0.0,0.0,0.0,0.0,0.0,-0.0380465,0.00127755,-0.494552
35916000,nan,nan,nan,0.10808,0.0,-9.94165,-1.07869,0.0466666,0.0,0.0,0.0,0.0,0.0,0.0,-0.036301,0.00223214,-0.493646
36012000,nan,nan,nan,0.10808,0.0,-9.94165,-1.07869,0.0466666,0.0,0.0,0.0,0.0,0.0,0.0,-0.0343037,0.00365712,-0.493575
36108000,nan,nan,nan,0.10808,0.0,-9.94165,-1.07869,0.0466666,0.0,0.0,0.0,0.0,0.0,0.0,-0.0339793,0.00436463,-0.492697
36224000,nan,nan,nan,0.10808,0.0,-9.94165,-1.07869,0.0466666,0.0,0.0,0.0,0.0,0.0,0.0,-0.0369635,0.00410226,-0.491922
36320000,nan,nan,nan,0.10808,0.0,-9.94165,-1.07869,0.0466666,0.0,0.0,0.0,0.0,0.0,0.0,-0.0402474,0.00411234,-0.49147
36420000,nan,nan,nan,0.10808,0.0,-9.94165,-1.07869,0.0466666,0.0,0.0,0.0,0.0,0.0,0.0,-0.0412384,0.00559824,-0.491154
36516000,nan,nan,nan,0.10808,0.0,-9.94165,-1.07869,0.0466666,0.0,0.0,0.0,0.0,0.0,0.0,-0.0432095,0.00484785,-0.489882
36612000,nan,nan,nan,0.10808,0.0,-9.94165,-1.07869,0.0466666,0.0,0.0,0.0,0.0,0.0,0.0,-0.0445523,0.00450578,-0.491049
36708000,nan,nan,nan,0.10808,0.0,-9.94165,-1.07869,0.0466666,0.0,0.0,0.0,0.0,0.0,0.0,-0.0432795,0.00562322,-0.491511
36824000,nan,nan,nan,0.10808,0.0,-9.94165,-1.07869,0.0466666,0.0,0.0,0.0,0.0,0.0,0.0,-0.0431101,0.00503915,-0.491338
36920000,nan,nan,nan,0.10808,0.0,-9.94165,-1.07869,0.0466666,0.0,0.0,0.0,0.0,0.0,0.0,-0.0432747,0.00462681,-0.491217
37020000,nan,nan,nan,0.10808,0.0,-9.94165,-1.07869,0.0466666,0.0,0.0,0.0,0.0,0.0,0.0,-0.0432936,0.00370801,-0.49163
37116000,nan,nan,nan,0.10808,0.0,-9.94165,-1.07869,0.0466666,0.0,0.0,0.0,0.0,0.0,0.0,-0.0417266,0.00374591,-0.491055
37212000,nan,nan,nan,0.10808,0.0,-9.94165,-1.07869,0.0466666,0.0,0.0,0.0,0.0,0.0,0.0,-0.0429069,0.00395791,-0.490887
37308000,nan,nan,nan,0.10808,0.0,-9.94165,-1.07869,0.0466666,0.0,0.0,0.0,0.0,0.0,0.0,-0.0440538,0.00277268,-0.490634
37424000,nan,nan,nan,0.10808,0.0,-9.94165,-1.07869,0.0466666,0.0,0.0,0.0,0.0,0.0,0.0,-0.0442144,0.00212705,-0.490306
37520000,nan,nan,nan,0.10808,0.0,-9.94165,-1.07869,0.0466666,0.0,0.0,0.0,0.0,0.0,0.0,-0.0445593,0.00280817,-0.490401
37620000,nan,nan,nan,0.10808,0.0,-9.94165,-1.07869,0.0466666,0.0,0.0,0.0,0.0,0.0,0.0,-0.0477936,0.00199664,-0.490133
37716000,nan,nan,nan,0.10808,0.0,-9.94165,-1.07869,0.0466666,0.0,0.0,0.0,0.0,0.0,0.0,-0.0502036,0.00126777,-0.490503
37812000,nan,nan,nan,0.10808,0.0,-9.94165,-1.07869,0.0466666,0.0,0.0,0.0,0.0,0.0,0.0,-0.0520902,0.000305067,-0.490632
37908000,nan,nan,nan,0.10808,0.0,-9.94165,-1.07869,0.0466666,0.0,0.0,0.0,0.0,0.0,0.0,-0.0520685,0.000300749,-0.492001
38024000,nan,nan,nan,0.10808,0.0,-9.94165,-1.07869,0.0466666,0.0,0.0,0.0,0.0,0.0,0.0,-0.0509087,0.00168118,-0.491131
38120000,nan,nan,nan,0.10808,0.0,-9.94165,-1.07869,0.0466666,0.0,0.0,0.0,0.0,0.0,0.0,-0.049592,0.00216275,-0.49091
38220000,nan,nan,nan,0.10808,0.0,-9.94165,-1.07869,0.0466666,0.0,0.0,0.0,0.0,0.0,0.0,-0.0501179,0.00136253,-0.495252
38316000,nan,nan,nan,0.10808,0.0,-9.94165,-1.07869,0.0466666,0.0,0.0,0.0,0.0,0.0,0.0,-0.0496713,0.000813117,-0.498566
38412000,nan,nan,nan,0.10808,0.0,-9.94165,-1.07869,0.0466666,0.0,0.0,0.0,0.0,0.0,0.0,-0.0470684,0.00146809,-0.497901
38508000,nan,nan,nan,0.10808,0.0,-9.94165,-1.07869,0.0466666,0.0,0.0,0.0,0.0,0.0,0.0,-0.0465023,0.00164739,-0.498272
38624000,nan,nan,nan,0.10808,0.0,-9.94165,-1.07869,0.0466666,0.0,0.0,0.0,0.0,0.0,0.0,-0.0470768,0.00155589,-0.495837
38720000,nan,nan,nan,0.10808,0.0,-9.94165,-1.07869,0.0466666,0.0,0.0,0.0,0.0,0.0,0.0,-0.0491304,0.000660697,-0.495313
38820000,nan,nan,nan,0.10808,0.0,-9.94165,-1.07869,0.0466666,0.0,0.0,0.0,0.0,0.0,0.0,-0.0525655,-0.000818568,-0.494381
38916000,nan,nan,nan,0.10808,0.0,-9.94165,-1.07869,0.0466666,0.0,0.0,0.0,0.0,0.0,0.0,-0.0551811,-0.00238548,-0.492518
39012000,nan,nan,nan,0.10808,0.0,-9.94165,-1.07869,0.0466666,0.0,0.0,0.0,0.0,0.0,0.0,-0.0565546,-0.00340801,-0.491467
39108000,nan,nan,nan,0.10808,0.0,-9.94165,-1.07869,0.0466666,0.0,0.0,0.0,0.0,0.0,0.0,-0.0556964,-0.00319095,-0.491685
39224000,nan,nan,nan,0.10808,0.0,-9.94165,-1.07869,0.0466666,0.0,0.0,0.0,0.0,0.0,0.0,-0.0526653,-0.00345731,-0.490361
39320000,nan,nan,nan,0.10808,0.0,-9.94165,-1.07869,0.0288889,0.0,0.0,0.0,0.0,0.0,0.0,-0.0503056,-0.00315657,-0.498889
39420000,nan,nan,-1.65093,0.10808,-0.0,-9.94165,-1.07869,0.000267267,0.0,0.0,0.0,0.0,0.0,0.0,-0.0509094,-0.00271799,-0.509704
39516000,nan,nan,nan,0.10808,-0.0,-9.94165,-1.07869,-0.186667,0.0,0.0,0.0,0.0,0.0,0.0,-0.0522233,-0.00363748,-0.604438
39612000,nan,nan,nan,0.10808,-0.0,-9.94165,-1.07869,-0.706667,0.0,0.0,0.0,0.0,0.0,0.0,-0.0439732,-0.00421323,-0.730629
39708000,nan,nan,nan,0.10808,-0.0,-9.94165,-1.07869,-0.76,0.0,0.0,0.0,0.0,0.0,0.0,-0.0445659,-0.00441634,-0.547533
39824000,nan,nan,nan,0.10808,-0.0,-9.94165,-1.07869,-0.76,0.0,0.0,0.0,0.0,0.0,0.0,-0.0536909,-0.00507636,-0.495493
39920000,nan,nan,nan,0.10808,-0.0,-9.94165,-1.07869,-0.76,0.0,0.0,0.0,0.0,0.0,0.0,-0.053881,-0.00394701,-0.493932
40020000,nan,nan,nan,0.10808,-0.0,-9.94165,-1.07869,-0.913334,0.0,0.0,0.0,0.0,0.0,0.0,-0.0505601,-0.00231881,-0.586099
40116000,nan,nan,nan,0.10808,-0.0,-9.94165,-1.07869,-0.913334,0.0,0.0,0.0,0.0,0.0,0.0,-0.0484595,-0.00332274,-0.516559
40212000,nan,nan,nan,0.10808,-0.0,-9.94165,-1.07869,-0.913334,0.0,0.0,0.0,0.0,0.0,0.0,-0.0523507,-0.00392189,-0.494787
40308000,nan,nan,nan,0.10808,-0.0,-9.94165,-1.07869,-0.913334,0.0,0.0,0.0,0.0,0.0,0.0,-0.0559963,-0.00439211,-0.492611
40424000,nan,nan,nan,0.10808,-0.0,-9.94165,-1.07869,-0.913334,0.0,0.0,0.0,0.0,0.0,0.0,-0.0570666,-0.00484816,-0.492497
40520000,nan,nan,nan,0.10808,-0.0,-9.94165,-1.07869,-0.913334,0.0,0.0,0.0,0.0,0.0,0.0,-0.0573285,-0.00511324,-0.493155
40620000,nan,nan,nan,0.10808,-0.0,-9.94165,-1.07869,-0.913334,0.0,0.0,0.0,0.0,0.0,0.0,-0.0575869,-0.00516162,-0.493573
40716000,nan,nan,nan,0.10808,-0.0,-9.94165,-1.07869,-0.52,0.0,0.0,0.0,0.0,0.0,0.0,-0.0600104,-0.00702989,-0.277445
40812000,nan,nan,-2.71594,0.10808,0.0,-9.94165,-1.07869,-0.0419602,0.0,0.0,0.0,0.0,0.0,0.0,-0.0704145,-0.00847093,-0.232489
40908000,nan,nan,-2.71594,0.10808,0.0,-9.94165,-1.07869,0.0399036,0.0,0.0,0.0,0.0,0.0,0.0,-0.0644114,-0.00676517,-0.414664
41024000,nan,nan,-2.71594,0.10808,0.0,-9.94165,-1.07869,0.0548213,0.0,0.0,0.0,0.0,0.0,0.0,-0.0416703,-0.00363885,-0.481528
41120000,nan,nan,-2.71594,0.10808,0.0,-9.94165,-1.07869,0.0660706,0.0,0.0,0.0,0.0,0.0,0.0,-0.0391464,-0.003748,-0.484337
41220000,nan,nan,-2.71594,0.10808,0.0,-9.94165,-1.07869,0.0775611,0.0,0.0,0.0,0.0,0.0,0.0,-0.0441583,-0.00465788,-0.4822
41316000,nan,nan,-2.71594,0.10808,0.0,-9.94165,-1.07869,0.0860665,0.0,0.0,0.0,0.0,0.0,0.0,-0.0482946,-0.0043137,-0.481568
41412000,nan,nan,-2.71594,0.10808,0.0,-9.94165,-1.07869,0.0923798,0.0,0.0,0.0,0.0,0.0,0.0,-0.0530359,-0.00525626,-0.483267
41508000,nan,nan,-2.71594,0.10808,0.0,-9.94165,-1.07869,0.096832,0.0,0.0,0.0,0.0,0.0,0.0,-0.0561506,-0.00582977,-0.483539
41604000,nan,nan,-2.71594,0.10808,0.0,-9.94165,-1.07869,0.0988734,0.0,0.0,0.0,0.0,0.0,0.0,-0.0569139,-0.00529031,-0.485598
41720000,nan,nan,-2.71594,0.10808,0.0,-9.94165,-1.07869,0.0983112,0.0,0.0,0.0,0.0,0.0,0.0,-0.057218,-0.00558711,-0.488534
41820000,nan,nan,-2.71594,0.10808,0.0,-9.94165,-1.07869,0.0972316,0.0,0.0,0.0,0.0,0.0,0.0,-0.0583394,-0.00578141,-0.487787
41916000,nan,nan,-2.71594,0.10808,0.0,-9.94165,-1.07869,0.0954788,0.0,0.0,0.0,0.0,0.0,0.0,-0.0589645,-0.00656846,-0.488167
42012000,nan,nan,-2.71594,0.10808,0.0,-9.94165,-1.07869,0.0939357,0.0,0.0,0.0,0.0,0.0,0.0,-0.0597353,-0.00768691,-0.489246
42108000,nan,nan,-2.71594,0.10808,0.0,-9.94165,-1.07869,0.0917509,0.0,0.0,0.0,0.0,0.0,0.0,-0.0583081,-0.00612943,-0.490369
42224000,nan,nan,-2.71594,0.10808,0.0,-9.94165,-1.07869,0.0880804,0.0,0.0,0.0,0.0,0.0,0.0,-0.0558498,-0.00513568,-0.48995
42320000,nan,nan,-2.71594,0.10808,0.0,-9.94165,-1.07869,0.0847466,0.0,0.0,0.0,0.0,0.0,0.0,-0.0536477,-0.00376402,-0.490136
42420000,nan,nan,-2.71594,0.10808,0.0,-9.94165,-1.07869,0.0817814,0.0,0.0,0.0,0.0,0.0,0.0,-0.0534095,-0.00433059,-0.490404
42516000,nan,nan,-2.71594,0.10808,0.0,-9.94165,-1.07869,0.0794492,0.0,0.0,0.0,0.0,0.0,0.0,-0.0539098,-0.00462425,-0.490246
42612000,nan,nan,-2.71594,0.10808,0.0,-9.94165,-1.07869,0.0764222,0.0,0.0,0.0,0.0,0.0,0.0,-0.0552423,-0.00513759,-0.490709
42708000,nan,nan,-2.71594,0.10808,0.0,-9.94165,-1.07869,0.0727997,0.0,0.0,0.0,0.0,0.0,0.0,-0.0549043,-0.00477189,-0.490103
42824000,nan,nan,-2.71594,0.10808,0.0,-9.94165,-1.07869,0.0680993,0.0,0.0,0.0,0.0,0.0,0.0,-0.0549414,-0.00427276,-0.490069
42920000,nan,nan,-2.71594,0.10808,0.0,-9.94165,-1.07869,0.0636876,0.0,0.0,0.0,0.0,0.0,0.0,-0.0536889,-0.00290859,-0.491485
43020000,nan,nan,-2.71594,0.10808,0.0,-9.94165,-1.07869,0.0575962,0.0,0.0,0.0,0.0,0.0,0.0,-0.0529833,-0.00246274,-0.493296
43116000,nan,nan,-2.71594,0.10808,0.0,-9.94165,-1.07869,0.0524554,0.0,0.0,0.0,0.0,0.0,0.0,-0.052508,-0.00246099,-0.492123
43212000,nan,nan,-2.71594,0.10808,0.0,-9.94165,-1.07869,0.0477355,0.0,0.0,0.0,0.0,0.0,0.0,-0.0522396,-0.00269043,-0.492032
43308000,nan,nan,-2.71594,0.10808,0.0,-9.94165,-1.07869,0.0434282,0.0,0.0,0.0,0.0,0.0,0.0,-0.0525978,-0.00347294,-0.491327
43404000,nan,nan,-2.71594,0.10808,0.0,-9.94165,-1.07869,0.0392506,0.0,0.0,0.0,0.0,0.0,0.0,-0.0536512,-0.00451168,-0.491584
43520000,nan,nan,-2.71594,0.10808,0.0,-9.94165,-1.07869,0.0349576,0.0,0.0,0.0,0.0,0.0,0.0,-0.0534507,-0.00455012,-0.491767
43620000,nan,nan,-2.71594,0.10808,0.0,-9.94165,-1.07869,0.0310838,0.0,0.0,0.0,0.0,0.0,0.0,-0.0523433,-0.00332119,-0.491397
43716000,nan,nan,-2.71594,0.10808,0.0,-9.94165,-1.07869,0.0274441,0.0,0.0,0.0,0.0,0.0,0.0,-0.0502201,-0.00269037,-0.492021
43812000,nan,nan,-2.71594,0.10808,0.0,-9.94165,-1.07869,0.0229714,0.0,0.0,0.0,0.0,0.0,0.0,-0.0477963,-0.00135384,-0.492068
43908000,nan,nan,-2.71594,0.10808,0.0,-9.94165,-1.07869,0.0180478,0.0,0.0,0.0,0.0,0.0,0.0,-0.0448306,-0.000570371,-0.49299
44024000,nan,nan,-2.71594,0.10808,0.0,-9.94165,-1.07869,0.0127261,0.0,0.0,0.0,0.0,0.0,0.0,-0.0476987,-0.0025713,-0.493115
44120000,nan,nan,-2.71594,0.10808,0.0,-9.94165,-1.07869,0.00853872,0.0,0.0,0.0,0.0,0.0,0.0,-0.0515944,-0.00437841,-0.492853
44220000,nan,nan,-2.71594,0.10808,0.0,-9.94165,-1.07869,0.00496507,0.0,0.0,0.0,0.0,0.0,0.0,-0.0534055,-0.00454727,-0.492411
44316000,nan,nan,-2.71594,0.10808,0.0,-9.94165,-1.07869,0.000235558,0.0,0.0,0.0,0.0,0.0,0.0,-0.0553842,-0.00500566,-0.493029
44412000,nan,nan,-2.71594,0.10808,0.0,-9.94165,-1.07869,-0.00385976,0.0,0.0,0.0,0.0,0.0,0.0,-0.0573898,-0.00604698,-0.491816
44508000,nan,nan,-2.71594,0.10808,0.0,-9.94165,-1.07869,-0.00906205,0.0,0.0,0.0,0.0,0.0,0.0,-0.0579334,-0.00734725,-0.493024
44604000,nan,nan,-2.71594,0.10808,0.0,-9.94165,-1.07869,-0.0136819,0.0,0.0,0.0,0.0,0.0,0.0,-0.0582094,-0.00678969,-0.492818
44720000,nan,nan,-2.71594,0.10808,0.0,-9.94165,-1.07869,-0.0188553,0.0,0.0,0.0,0.0,0.0,0.0,-0.0574776,-0.00615892,-0.492909
44820000,nan,nan,-2.71594,0.10808,0.0,-9.94165,-1.07869,-0.023783,0.0,0.0,0.0,0.0,0.0,0.0,-0.0560853,-0.00644265,-0.493544
44916000,nan,nan,-2.71594,0.10808,0.0,-9.94165,-1.07869,-0.0284898,0.0,0.0,0.0,0.0,0.0,0.0,-0.0545218,-0.00584819,-0.494384
45012000,nan,nan,-2.71594,0.10808,0.0,-9.94165,-1.07869,-0.0326786,0.0,0.0,0.0,0.0,0.0,0.0,-0.0528587,-0.0052522,-0.493219
45108000,nan,nan,-2.71594,0.10808,0.0,-9.94165,-1.07869,-0.036237,0.0,0.0,0.0,0.0,0.0,0.0,-0.052103,-0.00533549,-0.492821
45204000,nan,nan,-2.71594,0.10808,0.0,-9.94165,-1.07869,-0.0392566,0.0,0.0,0.0,0.0,0.0,0.0,-0.0514725,-0.00504041,-0.492468
45324000,nan,nan,-2.71594,0.10808,0.0,-9.94165,-1.07869,-0.0436606,0.0,0.0,0.0,0.0,0.0,0.0,-0.0531858,-0.00534786,-0.493138
45420000,nan,nan,-2.71594,0.10808,0.0,-9.94165,-1.07869,-0.0470979,0.0,0.0,0.0,0.0,0.0,0.0,-0.0554394,-0.00681553,-0.493549
45516000,nan,nan,-2.71594,0.10808,0.0,-9.94165,-1.07869,-0.0502427,0.0,0.0,0.0,0.0,0.0,0.0,-0.0582551,-0.00781898,-0.493189
45612000,nan,nan,-2.71594,0.10808,0.0,-9.94165,-1.07869,-0.052351,0.0,0.0,0.0,0.0,0.0,0.0,-0.0590302,-0.00729564,-0.492532
45724000,nan,nan,-2.71594,0.10808,0.0,-9.94165,-1.07869,-0.0536084,0.0,0.0,0.0,0.0,0.0,0.0,-0.0583777,-0.00716369,-0.491495
45820000,nan,nan,-2.71594,0.10808,0.0,-9.94165,-1.07869,-0.0544286,0.0,0.0,0.0,0.0,0.0,0.0,-0.0582486,-0.0068933,-0.492362
45920000,nan,nan,-2.71594,0.10808,0.0,-9.94165,-1.07869,-0.0546451,0.0,0.0,0.0,0.0,0.0,0.0,-0.0569598,-0.00668778,-0.491542
46016000,nan,nan,-2.71594,0.10808,0.0,-9.94165,-1.07869,-0.054961,0.0,0.0,0.0,0.0,0.0,0.0,-0.0565115,-0.00729335,-0.492487
46112000,nan,nan,-2.71594,0.10808,0.0,-9.94165,-1.07869,-0.0563037,0.0,0.0,0.0,0.0,0.0,0.0,-0.0561948,-0.00695418,-0.492752
46208000,nan,nan,-2.71594,0.10808,0.0,-9.94165,-1.07869,-0.057405,0.0,0.0,0.0,0.0,0.0,0.0,-0.0566177,-0.00775078,-0.491674
46324000,nan,nan,-2.71594,0.10808,0.0,-9.94165,-1.07869,-0.0580714,0.0,0.0,0.0,0.0,0.0,0.0,-0.0571502,-0.00910803,-0.491895
46420000,nan,nan,-2.71594,0.10808,0.0,-9.94165,-1.07869,-0.058903,0.0,0.0,0.0,0.0,0.0,0.0,-0.0554951,-0.00853974,-0.492522
46520000,nan,nan,-2.71594,0.10808,0.0,-9.94165,-1.07869,-0.0598557,0.0,0.0,0.0,0.0,0.0,0.0,-0.0545354,-0.00780613,-0.493118
46616000,nan,nan,-2.71594,0.10808,0.0,-9.94165,-1.07869,-0.0596535,0.0,0.0,0.0,0.0,0.0,0.0,-0.0553696,-0.00770463,-0.49169
46712000,nan,nan,-2.71594,0.10808,0.0,-9.94165,-1.07869,-0.0600863,0.0,0.0,0.0,0.0,0.0,0.0,-0.0572978,-0.00790062,-0.49196
46808000,nan,nan,-2.71594,0.10808,0.0,-9.94165,-1.07869,-0.0601401,0.0,0.0,0.0,0.0,0.0,0.0,-0.0584909,-0.00801682,-0.490795
46924000,nan,nan,-2.71594,0.10808,0.0,-9.94165,-1.07869,-0.0594938,0.0,0.0,0.0,0.0,0.0,0.0,-0.059047,-0.0084927,-0.490728
47020000,nan,nan,-2.71594,0.10808,0.0,-9.94165,-1.07869,-0.058737,0.0,0.0,0.0,0.0,0.0,0.0,-0.0604746,-0.0087565,-0.490962
47120000,nan,nan,-2.71594,0.10808,0.0,-9.94165,-1.07869,-0.0585041,0.0,0.0,0.0,0.0,0.0,0.0,-0.0608094,-0.00851927,-0.491629
47216000,nan,nan,-2.71594,0.10808,0.0,-9.46445,-1.02692,-0.0589108,0.0,0.0,0.0,0.0,0.0,0.0,0.0354821,0.00236292,-0.493662
47312000,nan,nan,-2.71594,0.10808,0.0,-8.98725,-0.97514,-0.0597754,0.0,0.0,0.0,0.0,0.0,0.0,0.111975,0.0111347,-0.489914
47408000,nan,nan,-2.71594,0.10808,0.0,-8.51005,-0.923362,-0.058543,0.0,0.0,0.0,0.0,0.0,0.0,0.158148,0.0163931,-0.476781
47524000,nan,nan,-2.71594,0.10808,0.0,-8.84807,-0.960038,-0.0550776,0.0,0.0,0.0,0.0,0.0,0.0,0.0152391,0.000508759,-0.479737
47620000,nan,nan,-2.71594,0.10808,0.0,-9.069,-0.984009,-0.0550313,0.0,0.0,0.0,0.0,0.0,0.0,-0.0742977,-0.0083003,-0.492952
47720000,nan,nan,-2.71594,0.10808,0.0,-8.8304,-0.958121,-0.0540793,0.0,0.0,0.0,0.0,0.0,0.0,-0.0295869,-0.00354479,-0.484881
47816000,nan,nan,-2.71594,0.10808,0.0,-8.35679,-0.881511,-0.0526385,0.0,0.0,0.0,0.0,0.0,0.0,0.0718414,0.0126403,-0.489124
47912000,nan,nan,-2.71594,0.10808,0.0,-7.88342,-0.802072,-0.0514312,0.0,0.0,0.0,0.0,0.0,0.0,0.14338,0.0245752,-0.480752
48008000,nan,nan,-2.71594,0.10808,0.0,-7.40878,-0.730549,-0.0496366,0.0,0.0,0.0,0.0,0.0,0.0,0.182309,0.0301412,-0.468202
48124000,nan,nan,-2.71594,0.10808,0.0,-6.83304,-0.66082,-0.0459001,0.0,0.0,0.0,0.0,0.0,0.0,0.213816,0.0310789,-0.464605
48220000,nan,nan,-2.71594,0.10808,0.0,-6.39543,-0.615134,-0.0432737,0.0,0.0,0.0,0.0,0.0,0.0,0.216003,0.0287136,-0.469834
48320000,nan,nan,-2.71594,0.10808,0.0,-6.09701,-0.584375,-0.0419302,0.0,0.0,0.0,0.0,0.0,0.0,0.173329,0.0204135,-0.483661
48416000,nan,nan,-2.71594,0.10808,0.0,-5.81053,-0.5548,-0.0430751,0.0,0.0,0.0,0.0,0.0,0.0,0.152376,0.016546,-0.495288
48512000,nan,nan,-2.71594,0.10808,0.0,-5.52405,-0.525224,-0.0445971,0.0,0.0,0.0,0.0,0.0,0.0,0.143209,0.0145599,-0.497324
48608000,nan,nan,-2.71594,0.10808,0.0,-5.14201,-0.486455,-0.0461092,0.0,0.0,0.0,0.0,0.0,0.0,0.162531,0.0158262,-0.494161
48724000,nan,nan,-2.71594,0.10808,0.0,-5.72475,-0.559034,-0.0469806,0.0,0.0,0.0,0.0,0.0,0.0,0.000764482,-0.00244438,-0.498272
48820000,nan,nan,-2.71594,0.10808,0.0,-5.24663,-0.516647,-0.048454,0.0,0.0,0.0,0.0,0.0,0.0,0.0902222,0.00600743,-0.49432
48920000,nan,nan,-2.71594,0.10808,0.0,-4.98632,-0.527896,-0.048785,0.0,0.0,0.0,0.0,0.0,0.0,0.120309,0.00225671,-0.479744
49016000,nan,nan,-2.71594,0.10808,0.0,-5.46306,-0.583661,-0.047626,0.0,0.0,0.0,0.0,0.0,0.0,-0.0154542,-0.0103553,-0.485543
49112000,nan,nan,-2.71594,0.10808,0.0,-5.94011,-0.636808,-0.0476787,0.0,0.0,0.0,0.0,0.0,0.0,-0.129217,-0.020275,-0.488115
49208000,nan,nan,-2.71594,0.10808,0.0,-6.4172,-0.689605,-0.0469522,0.0,0.0,0.0,0.0,0.0,0.0,-0.19885,-0.025295,-0.468933
49304000,nan,nan,-2.71594,0.10808,0.0,-6.89429,-0.742309,-0.04322,0.0,0.0,0.0,0.0,0.0,0.0,-0.232474,-0.0268339,-0.454559
49420000,nan,nan,-2.71594,0.10808,0.0,-7.47079,-0.805947,-0.0390778,0.0,0.0,0.0,0.0,0.0,0.0,-0.258713,-0.0291387,-0.461063
49520000,nan,nan,-2.71594,0.10808,0.0,-7.96777,-0.860807,-0.0384817,0.0,0.0,0.0,0.0,0.0,0.0,-0.254711,-0.0285795,-0.47507
49616000,nan,nan,-2.71594,0.10808,0.0,-8.44488,-0.913472,-0.0405054,0.0,0.0,0.0,0.0,0.0,0.0,-0.259277,-0.0282243,-0.486156
49712000,nan,nan,-2.71594,0.10808,0.0,-8.92198,-0.966138,-0.0445366,0.0,0.0,0.0,0.0,0.0,0.0,-0.265958,-0.02937,-0.492927
49808000,nan,nan,-2.71594,0.10808,0.0,-9.39909,-1.0188,-0.0482042,0.0,0.0,0.0,0.0,0.0,0.0,-0.275093,-0.0309693,-0.492972
49924000,nan,nan,-2.71594,0.10808,0.0,-9.94165,-1.07869,-0.0522695,0.0,0.0,0.0,0.0,0.0,0.0,-0.291116,-0.0320908,-0.491361
50020000,nan,nan,-2.71594,0.10808,0.0,-9.94165,-1.07869,-0.0567839,0.0,0.0,0.0,0.0,0.0,0.0,-0.20801,-0.0221163,-0.500948
50120000,nan,nan,-2.71594,0.10808,0.0,-9.94165,-1.07869,-0.0637763,0.0,0.0,0.0,0.0,0.0,0.0,-0.132354,-0.0129689,-0.522316
50216000,nan,nan,-2.71594,0.10808,0.0,-9.94165,-1.07869,-0.0704193,0.0,0.0,0.0,0.0,0.0,0.0,-0.0949906,-0.00928211,-0.520334
50312000,nan,nan,-2.71594,0.10808,0.0,-9.94165,-1.07869,-0.0751667,0.0,0.0,0.0,0.0,0.0,0.0,-0.0767266,-0.00665078,-0.511828
50408000,nan,nan,-2.71594,0.10808,0.0,-9.94165,-1.07869,-0.0781248,0.0,0.0,0.0,0.0,0.0,0.0,-0.0712775,-0.00682676,-0.502232
50504000,nan,nan,-2.71594,0.10808,0.0,-9.94165,-1.07869,-0.0780308,0.0,0.0,0.0,0.0,0.0,0.0,-0.0697776,-0.00671116,-0.495426
50620000,nan,nan,-2.71594,0.10808,0.0,-9.94165,-1.07869,-0.0761611,0.0,0.0,0.0,0.0,0.0,0.0,-0.0694873,-0.00614922,-0.492573
50720000,nan,nan,-2.71594,0.10808,0.0,-9.46445,-1.02692,-0.0746889,0.0,0.0,0.0,0.0,0.0,0.0,0.0259442,0.00408714,-0.494006
50816000,nan,nan,-2.71594,0.10808,0.0,-8.98889,-0.962474,-0.0734015,0.0,0.0,0.0,0.0,0.0,0.0,0.103759,0.0156815,-0.49074
50912000,nan,nan,-2.71594,0.10808,0.0,-8.51675,-0.87597,-0.0705247,0.0,0.0,0.0,0.0,0.0,0.0,0.150303,0.0273805,-0.477848
51008000,nan,nan,-2.71594,0.10808,0.0,-8.04267,-0.800851,-0.0658846,0.0,0.0,0.0,0.0,0.0,0.0,0.175581,0.0327455,-0.46941
51124000,nan,nan,-2.71594,0.10808,0.0,-7.46923,-0.714065,-0.060823,0.0,0.0,0.0,0.0,0.0,0.0,0.20221,0.0356399,-0.471174
51220000,nan,nan,-2.71594,0.10808,0.0,-6.99324,-0.652127,-0.0575454,0.0,0.0,0.0,0.0,0.0,0.0,0.210953,0.0331608,-0.475981
51320000,nan,nan,-2.71594,0.10808,0.0,-7.98748,-0.819001,-0.0557883,0.0,0.0,0.0,0.0,0.0,0.0,-0.0918937,-0.0172123,-0.485251
51416000,nan,nan,-2.71594,0.10808,0.0,-7.70098,-0.789625,-0.0566165,0.0,0.0,0.0,0.0,0.0,0.0,-0.0666861,-0.0160228,-0.495813
51512000,nan,nan,-2.71594,0.10808,0.0,-7.41448,-0.760249,-0.0566132,0.0,0.0,0.0,0.0,0.0,0.0,0.0057694,-0.00615468,-0.4901
51608000,nan,nan,-2.71594,0.10808,0.0,-7.12799,-0.730873,-0.055815,0.0,0.0,0.0,0.0,0.0,0.0,0.0672055,0.0038693,-0.489627
51704000,nan,nan,-2.71594,0.10808,0.0,-6.84149,-0.701497,-0.0544646,0.0,0.0,0.0,0.0,0.0,0.0,0.103084,0.00993316,-0.484753
51820000,nan,nan,-2.71594,0.10808,0.0,-6.4953,-0.666,-0.0524628,0.0,0.0,0.0,0.0,0.0,0.0,0.126075,0.0124172,-0.480136
51920000,nan,nan,-2.71594,0.10808,0.0,-6.19686,-0.6354,-0.0497,0.0,0.0,0.0,0.0,0.0,0.0,0.125138,0.012378,-0.480803
52016000,nan,nan,-2.71594,0.10808,0.0,-5.91036,-0.606023,-0.0475843,0.0,0.0,0.0,0.0,0.0,0.0,0.126758,0.012191,-0.483778
52112000,nan,nan,-2.71594,0.10808,0.0,-5.62387,-0.576647,-0.0464592,0.0,0.0,0.0,0.0,0.0,0.0,0.129725,0.0120559,-0.48619
52208000,nan,nan,-2.71594,0.10808,0.0,-5.33737,-0.547271,-0.0452247,0.0,0.0,0.0,0.0,0.0,0.0,0.132274,0.0115745,-0.487238
52304000,nan,nan,-2.71594,0.10808,0.0,-5.05087,-0.517894,-0.0437074,0.0,0.0,0.0,0.0,0.0,0.0,0.135603,0.0121083,-0.486092
52420000,nan,nan,-2.71594,0.10808,0.0,-4.70468,-0.482398,-0.0419543,0.0,0.0,0.0,0.0,0.0,0.0,0.147714,0.0124916,-0.486055
52520000,nan,nan,-2.71594,0.10808,0.0,-4.40624,-0.451798,-0.0406229,0.0,0.0,0.0,0.0,0.0,0.0,0.141671,0.0108679,-0.486113
52616000,nan,nan,-2.71594,0.10808,0.0,-4.11975,-0.422421,-0.0392318,0.0,0.0,0.0,0.0,0.0,0.0,0.145174,0.0110645,-0.48619
52712000,nan,nan,-2.71594,0.10808,0.0,-3.83325,-0.393045,-0.0381968,0.0,0.0,0.0,0.0,0.0,0.0,0.149081,0.0109907,-0.485186
52808000,nan,nan,-2.71594,0.10808,0.0,-3.54675,-0.363669,-0.0366402,0.0,0.0,0.0,0.0,0.0,0.0,0.151471,0.0118133,-0.485182
52904000,nan,nan,-2.71594,0.10808,0.0,-3.26025,-0.334293,-0.0346227,0.0,0.0,0.0,0.0,0.0,0.0,0.154279,0.0114027,-0.485043
53020000,nan,nan,-2.71594,0.10808,0.0,-2.91407,-0.298796,-0.0328808,0.0,0.0,0.0,0.0,0.0,0.0,0.163698,0.013258,-0.485683
53120000,nan,nan,-2.71594,0.10808,0.0,-2.61563,-0.268196,-0.0319278,0.0,0.0,0.0,0.0,0.0,0.0,0.15699,0.0121339,-0.486042
53216000,nan,nan,-2.71594,0.10808,0.0,-2.32913,-0.23882,-0.0306611,0.0,0.0,0.0,0.0,0.0,0.0,0.158554,0.0117254,-0.48523
53312000,nan,nan,-2.71594,0.10808,0.0,-2.04263,-0.209443,-0.0295491,0.0,0.0,0.0,0.0,0.0,0.0,0.159791,0.0124602,-0.485701
53408000,nan,nan,-2.71594,0.10808,0.0,-1.75614,-0.180067,-0.0281439,0.0,0.0,0.0,0.0,0.0,0.0,0.161019,0.012977,-0.485775
53524000,nan,nan,-2.71594,0.10808,0.0,-1.40995,-0.144571,-0.0261495,0.0,0.0,0.0,0.0,0.0,0.0,0.170571,0.0139954,-0.485249
53620000,nan,nan,-2.71594,0.10808,0.0,-1.12345,-0.115194,-0.0251198,0.0,0.0,0.0,0.0,0.0,0.0,0.171926,0.0143919,-0.485069
53720000,nan,nan,-2.71594,0.10808,0.0,-0.825019,-0.084594,-0.0240941,0.0,0.0,0.0,0.0,0.0,0.0,0.16488,0.0140697,-0.485713
53816000,nan,nan,-2.71594,0.10808,0.0,-0.538521,-0.0552177,-0.0225184,0.0,0.0,0.0,0.0,0.0,0.0,0.164775,0.0137918,-0.485036
53912000,nan,nan,-2.71594,0.10808,0.0,-0.252023,-0.0258414,-0.021734,0.0,0.0,0.0,0.0,0.0,0.0,0.165153,0.0141142,-0.486108
54008000,nan,nan,-2.71594,0.10808,0.0,0.0,0.0,-0.0210018,0.0,0.0,0.0,0.0,0.0,0.0,0.158728,0.0144338,-0.486728
54124000,-181.203,-18.8061,-2.71594,0.10808,0.0,0.0506714,0.00278473,-0.0208099,0.0,0.0,0.0,0.0,0.0,0.0,0.11074,0.00762717,-0.494363
54220000,-181.203,-18.8061,-2.71594,0.10808,0.0,0.0984741,0.00446014,-0.022222,0.0,0.0,0.0,0.0,0.0,0.0,0.0775276,0.00387999,-0.497562
54320000,-181.203,-18.8061,-2.71594,0.10808,0.0,0.129517,0.00406647,-0.0246899,0.0,0.0,0.0,0.0,0.0,0.0,0.0493175,0.00129608,-0.497751
54416000,-181.203,-18.8061,-2.71594,0.10808,0.0,0.144019,0.00246887,-0.0267534,0.0,0.0,0.0,0.0,0.0,0.0,0.0342932,-0.000821703,-0.49558
54512000,-181.203,-18.8061,-2.71594,0.10808,0.0,0.147412,-6.2561e-05,-0.0287371,0.0,0.0,0.0,0.0,0.0,0.0,0.0233526,-0.00176357,-0.493903
54608000,-181.203,-18.8061,-2.71594,0.10808,0.0,0.14187,-0.0035202,-0.0317779,0.0,0.0,0.0,0.0,0.0,0.0,0.0150377,-0.00305197,-0.492602
54724000,-181.203,-18.8061,-2.71594,0.10808,-0.0,0.125867,-0.00823822,-0.0357535,0.0,0.0,0.0,0.0,0.0,0.0,0.00698164,-0.00312752,-0.492991
54820000,-181.203,-18.8061,nan,0.10808,-0.0,0.104529,-0.012735,-0.133334,0.0,0.0,0.0,0.0,0.0,0.0,-0.000155628,-0.00486618,-0.536585
54920000,-181.203,-18.8061,nan,0.10808,-0.0,0.0753296,-0.0180954,-0.133334,0.0,0.0,0.0,0.0,0.0,0.0,-0.00738404,-0.00575198,-0.497509
55016000,-181.203,-18.8061,nan,0.10808,-0.0,0.0437134,-0.0239136,-0.446667,0.0,0.0,0.0,0.0,0.0,0.0,-0.0119677,-0.0053545,-0.672789
55112000,-181.203,-18.8061,nan,0.10808,-0.0,0.00932617,-0.0301788,-0.9,0.0,0.0,0.0,0.0,0.0,0.0,-0.0151572,-0.00478821,-0.716682
55208000,-181.203,-18.8061,nan,0.10808,-0.0,-0.0276123,-0.0365768,-1.28,0.0,0.0,0.0,0.0,0.0,0.0,-0.0187048,-0.00558377,-0.705075
55324000,-181.203,-18.8061,nan,0.10808,-0.0,-0.0724121,-0.0440857,-1.5,0.0,0.0,0.0,0.0,0.0,0.0,-0.0229449,-0.00723383,-0.575277
55420000,-181.203,-18.8061,nan,0.10808,-0.0,-0.112573,-0.0505798,-1.5,0.0,0.0,0.0,0.0,0.0,0.0,-0.0277484,-0.00866104,-0.509774
55520000,-181.203,-18.8061,nan,0.10808,-0.0,-0.156042,-0.0574844,-1.5,0.0,0.0,0.0,0.0,0.0,0.0,-0.0292201,-0.00932091,-0.502243
55616000,-181.203,-18.8061,nan,0.10808,-0.0,-0.195227,-0.0637268,-1.5,0.0,0.0,0.0,0.0,0.0,0.0,-0.02912,-0.00924292,-0.501255
55712000,-181.203,-18.8061,nan,0.10808,-0.0,-0.231921,-0.0695023,-1.5,0.0,0.0,0.0,0.0,0.0,0.0,-0.027949,-0.00742166,-0.500077
55808000,-181.203,-18.8061,nan,0.10808,-0.0,-0.266321,-0.074733,-1.5,0.0,0.0,0.0,0.0,0.0,0.0,-0.026928,-0.00663688,-0.497695
55924000,-181.203,-18.8061,nan,0.10808,-0.0,-0.302173,-0.079892,-1.5,0.0,0.0,0.0,0.0,0.0,0.0,-0.0250268,-0.00643738,-0.495526
56020000,-181.203,-18.8061,nan,0.10808,-0.0,-0.329932,-0.0833527,-1.5,0.0,0.0,0.0,0.0,0.0,0.0,-0.0236123,-0.00623933,-0.494343
56120000,-181.203,-18.8061,nan,0.10808,-0.0,-0.356104,-0.0862213,-1.5,0.0,0.0,0.0,0.0,0.0,0.0,-0.0209281,-0.00618911,-0.491825
56216000,-181.203,-18.8061,nan,0.10808,-0.0,-0.377539,-0.0882248,-1.5,0.0,0.0,0.0,0.0,0.0,0.0,-0.0194519,-0.00544702,-0.491508
56312000,-181.203,-18.8061,nan,0.10808,-0.0,-0.39552,-0.0894318,-1.5,0.0,0.0,0.0,0.0,0.0,0.0,-0.0179336,-0.00421577,-0.490175
56408000,-181.203,-18.8061,nan,0.10808,-0.0,-0.410437,-0.0901306,-1.5,0.0,0.0,0.0,0.0,0.0,0.0,-0.0154996,-0.00365722,-0.48964
56524000,-181.203,-18.8061,nan,0.10808,-0.0,-0.42345,-0.0903397,-1.5,0.0,0.0,0.0,0.0,0.0,0.0,-0.0134885,-0.00349675,-0.489247
56620000,-181.203,-18.8061,nan,0.10808,-0.0,-0.431873,-0.0902039,-1.5,0.0,0.0,0.0,0.0,0.0,0.0,-0.0118703,-0.00415192,-0.489667
56720000,-181.203,-18.8061,nan,0.10808,-0.0,-0.437524,-0.089502,-1.50674,0.0,0.0,0.0,0.0,0.0,0.0,-0.00846568,-0.0030567,-0.493964
56816000,-181.203,-18.8061,nan,0.10808,-0.0,-0.440454,-0.0881348,-1.55201,0.0,0.0,0.0,0.0,0.0,0.0,-0.00612929,-0.00240434,-0.509522
56912000,-181.203,-18.8061,nan,0.10808,-0.0,-0.440771,-0.0858963,-1.59819,0.0,0.0,0.0,0.0,0.0,0.0,-0.00515601,-0.00150315,-0.513286
57008000,-181.203,-18.8061,nan,0.10808,-0.0,-0.439319,-0.0832886,-1.64538,0.0,0.0,0.0,0.0,0.0,0.0,-0.00336563,-0.000865146,-0.515391
57104000,-181.203,-18.8061,nan,0.107852,0.33743,-0.435742,-0.0804169,-1.64,0.0,0.0,0.0,0.0,0.0,0.0,-0.00163072,-0.000840763,-0.48339
57220000,-181.203,-18.8061,nan,0.117427,1.245,-0.429614,-0.076889,-0.92,0.0,0.0,0.0,0.0,0.0,0.0,-0.000151113,-0.00146869,-0.164507
57320000,-181.203,-18.8061,nan,0.157166,2.21463,-0.421826,-0.0739212,-0.34,0.0,0.0,0.0,0.0,0.0,0.0,0.00164843,-0.00330768,-0.173524
57416000,-181.203,-18.8061,-5.98161,0.227841,3.49066,-0.413269,-0.0714523,0.0121527,0.0,0.0,0.0,0.0,0.0,0.0,0.00400016,-0.00418298,-0.308262
57512000,-181.203,-18.8061,-5.98161,0.349455,3.49066,-0.402942,-0.0693207,0.0275044,0.0,0.0,0.0,0.0,0.0,0.0,0.00737761,-0.00819085,-0.456928
57608000,-181.203,-18.8061,-5.98161,0.538868,3.49066,-0.39082,-0.0686371,0.0360823,0.0,0.0,0.0,0.0,0.0,0.0,0.0144215,-0.0163087,-0.478926
57724000,-181.203,-18.8061,-5.98161,0.822194,3.49066,-0.373669,-0.0703537,0.0459199,0.0,0.0,0.0,0.0,0.0,0.0,0.0220075,-0.0184372,-0.480776
57820000,-181.203,-18.8061,-5.98161,1.10206,3.49066,-0.357373,-0.0721954,0.0510607,0.0,0.0,0.0,0.0,0.0,0.0,0.0224882,-0.0144524,-0.48251
57920000,-181.203,-18.8061,-5.98161,1.4311,3.49066,-0.339197,-0.0726913,0.0512285,0.0,0.0,0.0,0.0,0.0,0.0,0.0192997,-0.00892226,-0.486694
58016000,-181.203,-18.8061,-5.98161,1.75086,3.49066,-0.323267,-0.0720017,0.0495019,0.0,0.0,0.0,0.0,0.0,0.0,0.0136342,-0.00593199,-0.489765
58112000,-181.203,-18.8061,-5.98161,2.08117,3.49066,-0.308655,-0.0704758,0.0465741,0.0,0.0,0.0,0.0,0.0,0.0,0.00855029,-0.00478014,-0.491721
58208000,-181.203,-18.8061,nan,2.41708,2.69944,-0.295764,-0.0684601,-0.5,0.0,0.0,0.0,0.0,0.0,0.0,0.00290648,-0.00345359,-0.705846
58324000,-181.203,-18.8061,nan,2.78776,0.15514,-0.283313,-0.0666183,-1.22,0.0,0.0,0.0,0.0,0.0,0.0,-0.00333975,-0.00817775,-0.871346
58420000,-181.203,-18.8061,nan,3.05002,-0.457664,-0.274548,-0.0675262,-1.59333,0.0,0.0,0.0,0.0,0.0,0.0,-0.00818164,-0.0205058,-0.845895
58520000,-181.203,-18.8061,nan,-3.01532,-1.97416,-0.266126,-0.0730026,-1.69333,0.0,0.0,0.0,0.0,0.0,0.0,-0.0104426,-0.0341395,-0.708055
58616000,-181.203,-18.8061,nan,-2.89962,-2.57921,-0.258325,-0.0820892,-1.64,0.0,0.0,0.0,0.0,0.0,0.0,-0.00976532,-0.0458121,-0.62977
58712000,-181.203,-18.8061,nan,-2.88355,-2.94379,-0.249719,-0.0943436,-1.48667,0.0,0.0,0.0,0.0,0.0,0.0,-0.00678354,-0.0571049,-0.541825
58808000,-181.203,-18.8061,nan,-2.96491,-3.12608,-0.239343,-0.109528,-1.38,0.0,0.0,0.0,0.0,0.0,0.0,-0.00245035,-0.0668276,-0.462255
58904000,-181.203,-18.8061,nan,-3.12537,-3.4286,-0.226917,-0.126132,-1.22667,0.0,0.0,0.0,0.0,0.0,0.0,0.00138275,-0.0653268,-0.427453
59020000,-181.203,-18.8061,nan,2.8884,-3.49066,-0.209778,-0.143526,-1.17333,0.0,0.0,0.0,0.0,0.0,0.0,0.00671892,-0.0537652,-0.470178
59120000,-181.203,-18.8061,nan,2.5821,-3.49066,-0.191162,-0.155098,-1.17333,0.0,0.0,0.0,0.0,0.0,0.0,0.0130787,-0.0387721,-0.487022
59216000,-181.203,-18.8061,nan,2.26656,-3.49066,-0.171082,-0.161118,-1.17333,0.0,0.0,0.0,0.0,0.0,0.0,0.0184952,-0.0260355,-0.488257
59312000,-181.203,-18.8061,nan,1.92922,-3.49066,-0.148621,-0.162852,-1.17333,0.0,0.0,0.0,0.0,0.0,0.0,0.0233285,-0.015095,-0.487993
59408000,-181.203,-18.8061,nan,1.57778,-3.49066,-0.123975,-0.161185,-1.17333,0.0,0.0,0.0,0.0,0.0,0.0,0.0278309,-0.00598831,-0.488304
59504000,-181.203,-18.8061,nan,1.21795,-3.49066,-0.0983521,-0.156573,-1.17333,0.0,0.0,0.0,0.0,0.0,0.0,0.0309195,0.00195037,-0.488651
59620000,-181.203,-18.8061,nan,0.79235,-3.49066,-0.0677002,-0.148985,-1.02,0.0,0.0,0.0,0.0,0.0,0.0,0.0351369,0.00690517,-0.425417
59720000,-181.203,-18.8061,nan,0.392695,-3.49066,-0.0388672,-0.140833,-0.966667,0.0,0.0,0.0,0.0,0.0,0.0,0.034927,0.00993565,-0.452136
59816000,-181.203,-18.8061,nan,0.0218266,-3.49066,-0.0123657,-0.13331,-0.76,0.0,0.0,0.0,0.0,0.0,0.0,0.0362483,0.0112839,-0.397036
59912000,-181.203,-18.8061,nan,-0.350072,-3.49066,0.0134644,-0.125781,-0.546667,0.0,0.0,0.0,0.0,0.0,0.0,0.0342381,0.0115849,-0.374428
60008000,-181.203,-18.8061,nan,-0.720223,-3.06402,0.0386719,-0.118658,-0.5,0.0,0.0,0.0,0.0,0.0,0.0,0.0305137,0.0103932,-0.451716
60124000,-181.203,-18.8061,nan,-1.13747,-3.00585,0.0647705,-0.110791,-0.5,0.0,0.0,0.0,0.0,0.0,0.0,0.0230506,0.0096631,-0.485949
60220000,-181.203,-18.8061,nan,-1.48106,-3.00585,0.0837646,-0.104453,-0.5,0.0,0.0,0.0,0.0,0.0,0.0,0.017078,0.00900941,-0.487812
60320000,-181.203,-18.8061,nan,-1.84262,-3.00585,0.100085,-0.0975784,-0.5,0.0,0.0,0.0,0.0,0.0,0.0,0.0108918,0.00986077,-0.489387
60416000,-181.203,-18.8061,nan,-2.16859,-3.00585,0.11261,-0.0909943,-0.5,0.0,0.0,0.0,0.0,0.0,0.0,0.00741208,0.0103149,-0.489458
60512000,-181.203,-18.8061,nan,-2.48927,-3.00585,0.122791,-0.0840469,-0.5,0.0,0.0,0.0,0.0,0.0,0.0,0.00635678,0.0107188,-0.488768
60608000,-181.203,-18.8061,nan,-2.80492,-2.64127,0.131616,-0.0765671,-0.446667,0.0,0.0,0.0,0.0,0.0,0.0,0.00595752,0.0119992,-0.461116
60704000,-181.203,-18.8061,nan,-3.10802,-2.64127,0.138965,-0.0680771,-0.446667,0.0,0.0,0.0,0.0,0.0,0.0,0.00540187,0.0149461,-0.485719
60824000,-181.203,-18.8061,nan,2.81258,-2.57921,0.146802,-0.0557373,-0.446667,0.0,0.0,0.0,0.0,0.0,0.0,0.00417626,0.0186632,-0.490421
60920000,-181.203,-18.8061,nan,2.5328,-2.57921,0.15199,-0.044664,-0.446667,0.0,0.0,0.0,0.0,0.0,0.0,0.00511936,0.0208427,-0.490639
61016000,-181.203,-18.8061,nan,2.26032,-2.57921,0.156897,-0.0328171,-0.446667,0.0,0.0,0.0,0.0,0.0,0.0,0.00632135,0.0209756,-0.488861
61112000,-181.203,-18.8061,nan,1.99275,-2.57921,0.161401,-0.0208496,-0.446667,0.0,0.0,0.0,0.0,0.0,0.0,0.00708711,0.0207912,-0.48853
61208000,-181.203,-18.8061,nan,1.72885,-2.57921,0.166211,-0.00917206,-0.446667,0.0,0.0,0.0,0.0,0.0,0.0,0.00801167,0.0199473,-0.489327
61324000,-181.203,-18.8061,nan,1.42489,-2.57921,0.170996,0.00345612,-0.446667,0.0,0.0,0.0,0.0,0.0,0.0,0.00867804,0.0189992,-0.489004
61420000,-181.203,-18.8061,nan,1.16695,-2.57921,0.175037,0.0132675,-0.446667,0.0,0.0,0.0,0.0,0.0,0.0,0.00972859,0.0175953,-0.489339
61520000,-181.203,-18.8061,nan,0.889666,-2.57921,0.178967,0.0224701,-0.446667,0.0,0.0,0.0,0.0,0.0,0.0,0.010623,0.0152604,-0.490258
61616000,-181.203,-18.8061,nan,0.634975,-2.57921,0.182263,0.0298706,-0.446667,0.0,0.0,0.0,0.0,0.0,0.0,0.0106116,0.0142608,-0.490264
61712000,-181.203,-18.8061,nan,0.38203,-2.57921,0.184778,0.035997,-0.446667,0.0,0.0,0.0,0.0,0.0,0.0,0.0118516,0.0118522,-0.489444
61808000,-181.203,-18.8061,nan,0.129682,-2.57921,0.187195,0.0407318,-0.446667,0.0,0.0,0.0,0.0,0.0,0.0,0.0114965,0.00916066,-0.490406
61924000,-181.203,-18.8061,nan,-0.163782,-2.57921,0.188867,0.0445816,-0.446667,0.0,0.0,0.0,0.0,0.0,0.0,0.0111183,0.00702833,-0.490921
62020000,-181.203,-18.8061,nan,-0.425108,-2.57921,0.189429,0.046286,-0.446667,0.0,0.0,0.0,0.0,0.0,0.0,0.00949225,0.00518387,-0.491167
62120000,-181.203,-18.8061,nan,-0.685991,-2.57921,0.188611,0.0464462,-0.446667,0.0,0.0,0.0,0.0,0.0,0.0,0.00886751,0.00177059,-0.490572
62216000,-181.203,-18.8061,nan,-0.936222,-2.57921,0.186914,0.0450912,-0.446667,0.0,0.0,0.0,0.0,0.0,0.0,0.00730463,-0.000380784,-0.490529
62312000,-181.203,-18.8061,nan,-1.18626,-2.57921,0.183545,0.0428253,-0.446667,0.0,0.0,0.0,0.0,0.0,0.0,0.00515584,-0.00222314,-0.490719
62408000,-181.203,-18.8061,nan,-1.43509,-2.57921,0.179028,0.0400345,-0.446667,0.0,0.0,0.0,0.0,0.0,0.0,0.00289202,-0.00343921,-0.490411
62524000,-181.203,-18.8061,nan,-1.72523,-2.57921,0.171863,0.0363846,-0.446667,0.0,0.0,0.0,0.0,0.0,0.0,0.000619369,-0.00432054,-0.490088
62620000,-181.203,-18.8061,nan,-1.97335,-2.57921,0.164661,0.0338776,-0.446667,0.0,0.0,0.0,0.0,0.0,0.0,-0.000771211,-0.0041008,-0.490565
62720000,-181.203,-18.8061,nan,-2.24156,-2.57921,0.155334,0.0318939,-0.446667,0.0,0.0,0.0,0.0,0.0,0.0,-0.00272238,-0.00327484,-0.490184
62816000,-181.203,-18.8061,nan,-2.48838,-2.57921,0.145496,0.0308701,-0.446667,0.0,0.0,0.0,0.0,0.0,0.0,-0.00502376,-0.00252413,-0.490593
62912000,-181.203,-18.8061,nan,-2.73515,-2.57921,0.13446,0.0307526,-0.446667,0.0,0.0,0.0,0.0,0.0,0.0,-0.00731109,-0.00114795,-0.490899
63008000,-181.203,-18.8061,nan,-2.9826,-2.57921,0.122681,0.0315384,-0.446667,0.0,0.0,0.0,0.0,0.0,0.0,-0.00862599,0.000762345,-0.491363
63104000,-181.203,-18.8061,nan,3.05382,-2.57921,0.110547,0.0331696,-0.446667,0.0,0.0,0.0,0.0,0.0,0.0,-0.00907627,0.00160606,-0.491459
63220000,-181.203,-18.8061,nan,2.80677,0.0,0.0965088,0.0365021,-0.446667,0.0,0.0,0.0,0.0,0.0,0.0,-0.009298,0.0040172,-0.49086
63320000,-181.203,-18.8061,nan,2.80677,0.0,0.0841309,0.0412064,-0.446667,0.0,0.0,0.0,0.0,0.0,0.0,-0.00559616,0.0127889,-0.490646
63416000,-181.203,-18.8061,nan,2.80677,0.0,0.0750366,0.048761,-0.446667,0.0,0.0,0.0,0.0,0.0,0.0,0.00408875,0.028062,-0.491823
63512000,-181.203,-18.8061,nan,2.80677,0.0,0.0691895,0.0598434,-0.446667,0.0,0.0,0.0,0.0,0.0,0.0,0.0112099,0.0379649,-0.490926
63608000,-181.203,-18.8061,nan,2.80677,0.0,0.066272,0.0728806,-0.446667,0.0,0.0,0.0,0.0,0.0,0.0,0.0144638,0.0411488,-0.489338
63724000,-181.203,-18.8061,nan,2.80677,0.0,0.0639771,0.087645,-0.446667,0.0,0.0,0.0,0.0,0.0,0.0,0.0121501,0.037065,-0.48804
63820000,-181.203,-18.8061,nan,2.80677,0.0,0.0615112,0.0979279,-0.446667,0.0,0.0,0.0,0.0,0.0,0.0,0.00695237,0.0296579,-0.488908
63920000,-181.203,-18.8061,nan,2.80677,0.0,0.0575195,0.105737,-0.446667,0.0,0.0,0.0,0.0,0.0,0.0,0.00128398,0.0201774,-0.489832
64016000,-181.203,-18.8061,nan,2.80677,0.0,0.0529297,0.109705,-0.446667,0.0,0.0,0.0,0.0,0.0,0.0,-0.00345392,0.0114706,-0.491642
64112000,-181.203,-18.8061,nan,2.80677,0.0,0.0478638,0.110574,-0.446667,0.0,0.0,0.0,0.0,0.0,0.0,-0.0055937,0.00484835,-0.491803
64208000,-181.203,-18.8061,nan,2.80677,0.0,0.0430542,0.109163,-0.446667,0.0,0.0,0.0,0.0,0.0,0.0,-0.00662833,-5.92796e-05,-0.491214
64324000,-181.203,-18.8061,nan,2.80677,0.0,0.0378052,0.105351,-0.446667,0.0,0.0,0.0,0.0,0.0,0.0,-0.00754049,-0.00362107,-0.490797
64420000,-181.203,-18.8061,nan,2.80677,0.0,0.034082,0.100832,-0.446667,0.0,0.0,0.0,0.0,0.0,0.0,-0.00711118,-0.00582845,-0.490533
64520000,-181.203,-18.8061,nan,2.80677,-0.0,0.0310547,0.0951553,-0.186667,0.0,0.0,0.0,0.0,0.0,0.0,-0.00617037,-0.00601688,-0.345212
64616000,-181.203,-18.8061,-10.0838,2.80677,-0.0,0.0296265,0.0896011,0.0174837,0.0,0.0,0.0,0.0,0.0,0.0,-0.0057247,-0.00519019,-0.413845
64712000,-181.203,-18.8061,-10.0838,2.80677,-0.0,0.0289795,0.0841064,0.0182571,0.0,0.0,0.0,0.0,0.0,0.0,-0.00327082,-0.00457175,-0.480616
64808000,-181.203,-18.8061,-10.0838,2.80677,-0.0,0.0290039,0.0786453,0.014636,0.0,0.0,0.0,0.0,0.0,0.0,-0.00203248,-0.0035807,-0.491035
64924000,-181.203,-18.8061,-10.0838,2.80677,-0.0,0.0293823,0.072197,0.0128174,0.0,0.0,0.0,0.0,0.0,0.0,-0.00192907,-0.00239196,-0.490675
65020000,-181.203,-18.8061,-10.0838,2.80677,-0.0,0.0303955,0.0665344,0.0117378,0.0,0.0,0.0,0.0,0.0,0.0,-0.00131152,-0.00207307,-0.490563
65120000,-181.203,-18.8061,-10.0838,2.80677,0.0,0.031604,0.0602798,0.00896931,0.0,0.0,0.0,0.0,0.0,0.0,-0.000859182,-0.00044768,-0.491088
65216000,-181.203,-18.8061,-10.0838,2.80677,0.0,0.0329834,0.0546143,0.00588131,0.0,0.0,0.0,0.0,0.0,0.0,-0.000518456,-0.000168609,-0.491677
65312000,-181.203,-18.8061,-10.0838,2.80677,0.0,0.0346436,0.0490921,0.00252724,0.0,0.0,0.0,0.0,0.0,0.0,-0.000377386,0.000351195,-0.491897
65408000,-181.203,-18.8061,-10.0838,2.80677,0.0,0.036853,0.0435745,-0.000529289,0.0,0.0,0.0,0.0,0.0,0.0,0.000562542,-0.000422959,-0.492587
65524000,-181.203,-18.8061,-10.0838,2.80677,0.0,0.0396362,0.0369461,-0.00407887,0.0,0.0,0.0,0.0,0.0,0.0,0.000515114,-0.000671046,-0.492324
65620000,-181.203,-18.8061,-10.0838,2.80677,0.0,0.0426025,0.030983,-0.00693226,0.0,0.0,0.0,0.0,0.0,0.0,0.00187733,-0.00119609,-0.492232
65720000,-181.203,-18.8061,-10.0838,2.80677,0.0,0.0463623,0.0243713,-0.0104961,0.0,0.0,0.0,0.0,0.0,0.0,0.00194619,-0.00170265,-0.492096
65816000,-181.203,-18.8061,-10.0838,2.80677,0.0,0.0505737,0.0179352,-0.014185,0.0,0.0,0.0,0.0,0.0,0.0,0.00283496,-0.00230625,-0.492683
65912000,-181.203,-18.8061,-10.0838,2.80677,0.0,0.0552856,0.0113449,-0.0175991,0.0,0.0,0.0,0.0,0.0,0.0,0.00353659,-0.00270798,-0.492644
66008000,-181.203,-18.8061,-10.0838,2.80677,0.0,0.0605835,0.00461426,-0.0216274,0.0,0.0,0.0,0.0,0.0,0.0,0.00328802,-0.0023572,-0.492743
66104000,-181.203,-18.8061,-10.0838,2.80677,0.0,0.065625,-0.00209503,-0.024766,0.0,0.0,0.0,0.0,0.0,0.0,0.00332671,-0.00303022,-0.493326
66220000,-181.203,-18.8061,-10.0838,2.80677,0.0,0.0714111,-0.00987091,-0.0286894,0.0,0.0,0.0,0.0,0.0,0.0,0.00356747,-0.00319467,-0.492948
66320000,-181.203,-18.8061,-10.0838,2.80677,0.0,0.0763062,-0.0166412,-0.0320911,0.0,0.0,0.0,0.0,0.0,0.0,0.00359095,-0.00392457,-0.493406
66416000,-181.203,-18.8061,-10.0838,2.80677,0.0,0.0804688,-0.0226425,-0.0341167,0.0,0.0,0.0,0.0,0.0,0.0,0.00315676,-0.00422748,-0.492451
66512000,-181.203,-18.8061,-10.0838,2.80677,0.0,0.0836914,-0.028154,-0.0350466,0.0,0.0,0.0,0.0,0.0,0.0,0.00310851,-0.00406814,-0.491608
66608000,-181.203,-18.8061,-10.0838,2.80677,0.0,0.0864014,-0.033223,-0.0371399,0.0,0.0,0.0,0.0,0.0,0.0,0.00265832,-0.00464795,-0.492687
66724000,-181.203,-18.8061,-10.0838,2.80677,0.0,0.0890869,-0.0386566,-0.0393362,0.0,0.0,0.0,0.0,0.0,0.0,0.00276201,-0.00426463,-0.492332
66820000,-181.203,-18.8061,-10.0838,2.80677,0.0,0.0914795,-0.0430115,-0.0405388,0.0,0.0,0.0,0.0,0.0,0.0,0.00279905,-0.00393371,-0.491755
66920000,-181.203,-18.8061,-10.0838,2.80677,0.0,0.0934937,-0.0474304,-0.0407543,0.0,0.0,0.0,0.0,0.0,0.0,0.00269866,-0.00308405,-0.49063
67016000,-181.203,-18.8061,-10.0838,2.80677,0.0,0.0950806,-0.0515228,-0.0403605,0.0,0.0,0.0,0.0,0.0,0.0,0.00269345,-0.00366277,-0.49066
67112000,-181.203,-18.8061,-10.0838,2.80677,0.0,0.0960083,-0.0556915,-0.0396357,0.0,0.0,0.0,0.0,0.0,0.0,0.00234876,-0.00303242,-0.489957
67208000,-181.203,-18.8061,-10.0838,2.80677,0.0,0.0966187,-0.0600037,-0.0394621,0.0,0.0,0.0,0.0,0.0,0.0,0.00189353,-0.00410114,-0.491021
67324000,-181.203,-18.8061,-10.0838,2.80677,0.0,0.0965454,-0.0643814,-0.0394497,0.0,0.0,0.0,0.0,0.0,0.0,0.00151666,-0.00315719,-0.491786
67420000,-181.203,-18.8061,-10.0838,2.80677,0.0,0.0960938,-0.0671555,-0.039896,0.0,0.0,0.0,0.0,0.0,0.0,0.000588125,-0.00218876,-0.491563
67520000,-181.203,-18.8061,-10.0838,2.80677,0.0,0.0946655,-0.0694153,-0.0397234,0.0,0.0,0.0,0.0,0.0,0.0,-0.000629126,-0.00203407,-0.490518
67616000,-181.203,-18.8061,-10.0838,2.80677,0.0,0.0931152,-0.0711594,-0.0382595,0.0,0.0,0.0,0.0,0.0,0.0,-0.000332114,-0.00240323,-0.489944
67712000,-181.203,-18.8061,-10.0838,2.80677,0.0,0.0911743,-0.0727142,-0.036809,0.0,0.0,0.0,0.0,0.0,0.0,-0.00103427,-0.00165936,-0.489831
67808000,nan,nan,-10.0838,2.80677,0.0,0.245562,-0.0854364,-0.0354805,0.0,0.0,0.0,0.0,0.0,0.0,0.0310309,-0.00409727,-0.48995
67924000,nan,nan,-10.0838,2.80677,0.0,0.793354,-0.276025,-0.0332441,0.0,0.0,0.0,0.0,0.0,0.0,0.133495,-0.0410747,-0.484251
68020000,nan,nan,-10.0838,2.80677,0.0,1.2467,-0.433754,-0.0299864,0.0,0.0,0.0,0.0,0.0,0.0,0.190143,-0.0643571,-0.469969
68120000,nan,nan,-10.0838,2.80677,0.0,1.71893,-0.598055,-0.0252085,0.0,0.0,0.0,0.0,0.0,0.0,0.216123,-0.0745239,-0.461084
68216000,nan,nan,-10.0838,2.80677,0.0,2.17228,-0.755784,-0.0217991,0.0,0.0,0.0,0.0,0.0,0.0,0.228844,-0.0798434,-0.465014
68312000,nan,nan,-10.0838,2.80677,0.0,2.58785,-0.900369,-0.0194616,0.0,0.0,0.0,0.0,0.0,0.0,0.225157,-0.0798721,-0.473243
68408000,nan,nan,-10.0838,2.80677,0.0,2.1345,-0.74264,-0.0193748,0.0,0.0,0.0,0.0,0.0,0.0,0.0569054,-0.0202185,-0.502408
68524000,nan,nan,-10.0838,2.80677,0.0,1.64284,-0.553538,-0.0231495,0.0,0.0,0.0,0.0,0.0,0.0,-0.0859477,0.0331805,-0.517641
68620000,nan,nan,-10.0838,2.80677,0.0,1.36991,-0.461579,-0.0226717,0.0,0.0,0.0,0.0,0.0,0.0,-0.128126,0.0472743,-0.486573
68720000,nan,nan,-10.0838,2.80677,0.0,1.08562,-0.365788,-0.0179186,0.0,0.0,0.0,0.0,0.0,0.0,-0.136003,0.0481241,-0.470691
68816000,nan,nan,-10.0838,2.80677,0.0,0.812694,-0.273829,-0.0130186,0.0,0.0,0.0,0.0,0.0,0.0,-0.135759,0.0463579,-0.474137
68912000,nan,nan,-10.0838,2.80677,0.0,0.539769,-0.18187,-0.00967216,0.0,0.0,0.0,0.0,0.0,0.0,-0.136023,0.0451607,-0.482056
69008000,nan,nan,-10.0838,2.80677,0.0,0.266845,-0.089911,-0.00776958,0.0,0.0,0.0,0.0,0.0,0.0,-0.136197,0.046,-0.486455
69124000,nan,nan,-10.0838,2.80677,0.0,0.0,0.0,-0.00635052,0.0,0.0,0.0,0.0,0.0,0.0,-0.134465,0.0449519,-0.489173
69220000,-179.953,-19.1101,-10.0838,2.80677,0.0,-0.0130127,0.0032608,-0.00584126,0.0,0.0,0.0,0.0,0.0,0.0,-0.0888678,0.0296136,-0.493961
69320000,-179.953,-19.1101,-10.0838,2.80677,0.0,-0.060498,0.01427,-0.00581264,0.0,0.0,0.0,0.0,0.0,0.0,-0.0548754,0.0177551,-0.498043
69416000,-179.953,-19.1101,-10.0838,2.80677,0.0,-0.0937134,0.0207108,-0.00596333,0.0,0.0,0.0,0.0,0.0,0.0,-0.0393331,0.0117299,-0.496342
69512000,-179.953,-19.1101,-10.0838,2.80677,0.0,-0.119226,0.0246429,-0.00546265,0.0,0.0,0.0,0.0,0.0,0.0,-0.0302045,0.00736173,-0.49322
69608000,-179.953,-19.1101,-10.0838,2.80677,0.0,-0.139404,0.0269913,-0.0041647,0.0,0.0,0.0,0.0,0.0,0.0,-0.0243102,0.00583949,-0.491277
69724000,-179.953,-19.1101,-10.0838,2.80677,0.0,-0.157861,0.0281754,-0.00203609,0.0,0.0,0.0,0.0,0.0,0.0,-0.0210581,0.00406291,-0.489548
69820000,-179.953,-19.1101,-10.0838,2.80677,0.0,-0.170288,0.0281174,-0.0004282,0.0,0.0,0.0,0.0,0.0,0.0,-0.0183186,0.00297677,-0.489061
69920000,-179.953,-19.1101,-10.0838,2.80677,0.0,-0.180408,0.0274078,0.000323296,0.0,0.0,0.0,0.0,0.0,0.0,-0.014605,0.00180407,-0.490161
70016000,-179.953,-19.1101,-10.0838,2.80677,0.0,-0.187146,0.0264297,0.000375748,0.0,0.0,0.0,0.0,0.0,0.0,-0.0111514,0.0016397,-0.491416
70112000,-179.953,-19.1101,-10.0838,2.80677,0.0,-0.191333,0.0250015,-0.000188828,0.0,0.0,0.0,0.0,0.0,0.0,-0.00880004,0.00122679,-0.49127
70208000,-179.953,-19.1101,-10.0838,2.80677,0.0,-0.193384,0.022995,0.000226974,0.0,0.0,0.0,0.0,0.0,0.0,-0.00727767,0.000784184,-0.49095
70304000,-179.953,-19.1101,-10.0838,2.80677,0.0,-0.193542,0.0209351,0.001297,0.0,0.0,0.0,0.0,0.0,0.0,-0.00685186,0.000970309,-0.489336
70420000,-179.953,-19.1101,-10.0838,2.80677,0.0,-0.191907,0.0187622,0.00107288,0.0,0.0,0.0,0.0,0.0,0.0,-0.00550571,0.0010251,-0.490542
70520000,-179.953,-19.1101,-10.0838,2.80677,0.0,-0.188672,0.0169708,-0.00104809,0.0,0.0,0.0,0.0,0.0,0.0,-0.00324109,0.000547625,-0.491204
70616000,-179.953,-19.1101,-10.0838,2.80677,0.0,-0.18446,0.0152405,-0.00256634,0.0,0.0,0.0,0.0,0.0,0.0,-0.00251987,0.000506308,-0.492223
70712000,-179.953,-19.1101,-10.0838,2.80677,0.0,-0.179224,0.0133148,-0.00359058,0.0,0.0,0.0,0.0,0.0,0.0,-0.00105626,0.000634634,-0.491647
70808000,-179.953,-19.1101,-10.0838,2.80677,0.0,-0.173315,0.0109848,-0.00376415,0.0,0.0,0.0,0.0,0.0,0.0,-0.000685553,0.000566479,-0.490693
70924000,-179.953,-19.1101,-10.0838,2.80677,0.0,-0.165759,0.00796509,-0.00397301,0.0,0.0,0.0,0.0,0.0,0.0,-0.000123472,-0.000465458,-0.490732
71024000,-179.953,-19.1101,-10.0838,2.80677,0.0,-0.157996,0.00495911,-0.00512314,0.0,0.0,0.0,0.0,0.0,0.0,0.000332021,-0.000582909,-0.491378
71120000,-179.953,-19.1101,-10.0838,2.80677,0.0,-0.150476,0.00206451,-0.00608158,0.0,0.0,0.0,0.0,0.0,0.0,0.000624722,-0.000805131,-0.491448
71216000,-179.953,-19.1101,-10.0838,2.80677,0.0,-0.143018,-0.000741577,-0.00650406,0.0,0.0,0.0,0.0,0.0,0.0,0.00073082,-0.000483206,-0.490792
71312000,-179.953,-19.1101,-10.0838,2.80677,0.0,-0.135657,-0.0031723,-0.00672436,0.0,0.0,0.0,0.0,0.0,0.0,0.000847487,5.30243e-05,-0.49031
71408000,-179.953,-19.1101,-10.0838,2.80677,0.0,-0.128564,-0.00562744,-0.0068264,0.0,0.0,0.0,0.0,0.0,0.0,0.000837421,0.000222757,-0.489678
71524000,-179.953,-19.1101,-10.0838,2.80677,0.0,-0.120642,-0.008255,-0.00628471,0.0,0.0,0.0,0.0,0.0,0.0,0.000994167,-0.000113724,-0.490346
71620000,-179.953,-19.1101,-10.0838,2.80677,0.0,-0.114172,-0.0106323,-0.00601578,0.0,0.0,0.0,0.0,0.0,0.0,0.00134962,-0.000224565,-0.490164
71720000,-179.953,-19.1101,-10.0838,2.80677,0.0,-0.107263,-0.0133438,-0.00600243,0.0,0.0,0.0,0.0,0.0,0.0,0.00113315,-0.000835712,-0.489829
71816000,-179.953,-19.1101,-10.0838,2.80677,0.0,-0.101074,-0.0158859,-0.00589371,0.0,0.0,0.0,0.0,0.0,0.0,0.000740441,-0.000950043,-0.490673
71912000,-179.953,-19.1101,-10.0838,2.80677,0.0,-0.0954346,-0.0181473,-0.00633144,0.0,0.0,0.0,0.0,0.0,0.0,0.000873073,-0.000689507,-0.490735
72008000,-179.953,-19.1101,-10.0838,2.80677,0.0,-0.0901733,-0.019902,-0.0061245,0.0,0.0,0.0,0.0,0.0,0.0,0.000521385,-2.94313e-05,-0.49045
72124000,-179.953,-19.1101,-10.0838,2.80677,0.0,-0.0844238,-0.0212738,-0.00484943,0.0,0.0,0.0,0.0,0.0,0.0,0.000473686,0.000598708,-0.489292
72220000,-179.953,-19.1101,-10.0838,2.80677,0.0,-0.0794556,-0.0222107,-0.00425434,0.0,0.0,0.0,0.0,0.0,0.0,0.000907466,0.000612733,-0.490251
72320000,-179.953,-19.1101,-10.0838,2.80677,0.0,-0.0741455,-0.0228989,-0.00343609,0.0,0.0,0.0,0.0,0.0,0.0,0.000135869,0.000774074,-0.489154
72416000,-179.953,-19.1101,-10.0838,2.80677,0.0,-0.0692505,-0.023497,-0.00285816,0.0,0.0,0.0,0.0,0.0,0.0,0.00059255,0.00102037,-0.489879
72512000,-179.953,-19.1101,-10.0838,2.80677,0.0,-0.0643677,-0.0238602,-0.00239563,0.0,0.0,0.0,0.0,0.0,0.0,0.000872337,0.00111038,-0.489533
72608000,-179.953,-19.1101,-10.0838,2.80677,0.0,-0.0595459,-0.0242538,-0.00129509,0.0,0.0,0.0,0.0,0.0,0.0,0.00141552,0.00113411,-0.489953
72724000,-179.953,-19.1101,-10.0838,2.80677,0.0,-0.0539673,-0.0246033,-0.000404358,0.0,0.0,0.0,0.0,0.0,0.0,0.000994932,0.00200172,-0.490434
72820000,-179.953,-19.1101,-10.0838,2.80677,0.0,-0.049353,-0.0248032,-0.000529289,0.0,0.0,0.0,0.0,0.0,0.0,0.00137228,0.00142944,-0.491309
72920000,-179.953,-19.1101,-10.0838,2.80677,0.0,-0.0446411,-0.0250488,0.000480652,0.0,0.0,0.0,0.0,0.0,0.0,0.00103767,0.00175139,-0.489857
73016000,-179.953,-19.1101,-10.0838,2.80677,0.0,-0.0405029,-0.0255234,0.00159931,0.0,0.0,0.0,0.0,0.0,0.0,0.00117854,0.00165434,-0.489805
73112000,-179.953,-19.1101,-10.0838,2.80677,0.0,-0.0363892,-0.0262451,0.00278473,0.0,0.0,0.0,0.0,0.0,0.0,0.000729113,0.000811208,-0.488838
73208000,-179.953,-19.1101,-10.0838,2.80677,0.0,-0.0323975,-0.0272141,0.00445843,0.0,0.0,0.0,0.0,0.0,0.0,0.00159691,0.000549171,-0.489119
73304000,-179.953,-19.1101,-10.0838,2.80677,0.0,-0.0285034,-0.0280899,0.00571442,0.0,0.0,0.0,0.0,0.0,0.0,0.00172747,0.000682933,-0.489015
73420000,-179.953,-19.1101,-10.0838,2.80677,0.0,-0.0242798,-0.0289108,0.00686169,0.0,0.0,0.0,0.0,0.0,0.0,0.000895781,0.000836972,-0.48984
73520000,-179.953,-19.1101,-10.0838,2.80677,0.0,-0.0210327,-0.02957,0.00772953,0.0,0.0,0.0,0.0,0.0,0.0,0.000676855,0.000732344,-0.49035
73616000,-179.953,-19.1101,-10.0838,2.80677,0.0,-0.0187378,-0.0300827,0.00906372,0.0,0.0,0.0,0.0,0.0,0.0,0.000100069,0.000361282,-0.489592
73712000,-179.953,-19.1101,-10.0838,2.80677,0.0,-0.0168701,-0.0303726,0.010149,0.0,0.0,0.0,0.0,0.0,0.0,-0.000128824,0.000209865,-0.490166
73808000,-179.953,-19.1101,-10.0838,2.80677,0.0,-0.0150513,-0.0306671,0.0116749,0.0,0.0,0.0,0.0,0.0,0.0,-3.33576e-05,0.0007597,-0.488681
73924000,-179.953,-19.1101,-10.0838,2.80677,0.0,-0.0131714,-0.0305634,0.0133314,0.0,0.0,0.0,0.0,0.0,0.0,-0.000699052,0.00117622,-0.488762
74020000,-179.953,-19.1101,-10.0838,2.80677,0.0,-0.0114868,-0.0297989,0.0151167,0.0,0.0,0.0,0.0,0.0,0.0,-0.000234452,0.00174188,-0.488742
74120000,-179.953,-19.1101,-10.0838,2.80677,0.0,-0.00977783,-0.0283737,0.0169706,0.0,0.0,0.0,0.0,0.0,0.0,-0.000690396,0.00198624,-0.487985
74216000,-179.953,-19.1101,-10.0838,2.80677,0.0,-0.00848389,-0.0270248,0.018219,0.0,0.0,0.0,0.0,0.0,0.0,-0.000890744,0.00249334,-0.489181
74312000,-179.953,-19.1101,-10.0838,2.80677,0.0,-0.00734863,-0.025473,0.018733,0.0,0.0,0.0,0.0,0.0,0.0,-0.000881511,0.00230583,-0.489841
74408000,-179.953,-19.1101,-10.0838,2.80677,0.0,-0.0064209,-0.0236771,0.0181093,0.0,0.0,0.0,0.0,0.0,0.0,-0.00132472,0.00251797,-0.49081
74524000,-179.953,-19.1101,-10.0838,2.80677,0.0,-0.00540771,-0.0212708,0.0167809,0.0,0.0,0.0,0.0,0.0,0.0,-0.000758693,0.00270617,-0.491356
74620000,-179.953,-19.1101,-10.0838,2.80677,0.0,-0.00452881,-0.0191803,0.015542,0.0,0.0,0.0,0.0,0.0,0.0,-0.000699805,0.00299238,-0.491466
74720000,-179.953,-19.1101,-10.0838,2.80677,0.0,-0.00377197,-0.0170654,0.0149736,0.0,0.0,0.0,0.0,0.0,0.0,-0.000858782,0.00280773,-0.490387
74816000,-179.953,-19.1101,-10.0838,2.80677,0.0,-0.00305176,-0.0152283,0.0142918,0.0,0.0,0.0,0.0,0.0,0.0,-0.000613133,0.00269482,-0.490848
74912000,-179.953,-19.1101,-10.0838,2.80677,0.0,-0.00245361,-0.0136292,0.0133257,0.0,0.0,0.0,0.0,0.0,0.0,-0.000507782,0.00289342,-0.490786
75008000,-179.953,-19.1101,-10.0838,2.80677,0.0,-0.00197754,-0.0120377,0.0122299,0.0,0.0,0.0,0.0,0.0,0.0,-0.0010207,0.00332701,-0.490239
75124000,-179.953,-19.1101,-10.0838,2.80677,0.0,-0.00157471,-0.0101212,0.0109158,0.0,0.0,0.0,0.0,0.0,0.0,-0.000914542,0.00296526,-0.490572
75220000,-179.953,-19.1101,-10.0838,2.80677,0.0,-0.00119629,-0.00842133,0.0104132,0.0,0.0,0.0,0.0,0.0,0.0,-0.00110334,0.00381683,-0.490149
75320000,-179.953,-19.1101,-10.0838,2.80677,0.0,-0.000915527,-0.00657959,0.0102043,0.0,0.0,0.0,0.0,0.0,0.0,-0.00112582,0.003102,-0.489875
75416000,-179.953,-19.1101,-10.0838,2.80677,0.0,-0.000756836,-0.00494843,0.00797462,0.0,0.0,0.0,0.0,0.0,0.0,-0.00123544,0.00381349,-0.491684
75512000,-179.953,-19.1101,-10.0838,2.80677,0.0,-0.000878906,-0.00320435,0.00547409,0.0,0.0,0.0,0.0,0.0,0.0,-0.0011527,0.00412587,-0.491412
75608000,-179.953,-19.1101,-10.0838,2.80677,0.0,-0.00135498,-0.0015625,0.00356674,0.0,0.0,0.0,0.0,0.0,0.0,-0.00174058,0.00287866,-0.491659
75724000,-179.953,-19.1101,-10.0838,2.80677,0.0,-0.0024292,8.08716e-05,0.00248528,0.0,0.0,0.0,0.0,0.0,0.0,-0.00182298,0.00273958,-0.490507
75820000,-179.953,-19.1101,-10.0838,2.80677,0.0,-0.00310059,0.00149078,0.00226879,0.0,0.0,0.0,0.0,0.0,0.0,-0.00182879,0.00273,-0.490233
75920000,-179.953,-19.1101,-10.0838,2.80677,0.0,-0.00334473,0.00302734,0.0028286,0.0,0.0,0.0,0.0,0.0,0.0,-0.00140995,0.0034022,-0.489632
76016000,-179.953,-19.1101,-10.0838,2.80677,0.0,-0.00322266,0.00455017,0.00430489,0.0,0.0,0.0,0.0,0.0,0.0,-0.0014259,0.00391534,-0.489442
76112000,-179.953,-19.1101,-10.0838,2.80677,0.0,-0.00284424,0.0063736,0.00489998,0.0,0.0,0.0,0.0,0.0,0.0,-0.00139594,0.00428752,-0.490468
76208000,-179.953,-19.1101,-10.0838,2.80677,0.0,-0.00212402,0.00856628,0.00516796,0.0,0.0,0.0,0.0,0.0,0.0,-0.00101499,0.00479068,-0.48964
76324000,-179.953,-19.1101,-10.0838,2.80677,0.0,-0.00112305,0.011235,0.00514889,0.0,0.0,0.0,0.0,0.0,0.0,-0.000142927,0.00471041,-0.489815
76420000,-179.953,-19.1101,-10.0838,2.80677,0.0,-0.000219727,0.0135773,0.00488663,0.0,0.0,0.0,0.0,0.0,0.0,-0.000675221,0.00437424,-0.489992
76520000,-179.953,-19.1101,-10.0838,2.80677,0.0,0.000634766,0.0158157,0.00541115,0.0,0.0,0.0,0.0,0.0,0.0,-0.000567991,0.00436155,-0.490158
76616000,-179.953,-19.1101,-10.0838,2.80677,0.0,0.00123291,0.0172897,0.00570488,0.0,0.0,0.0,0.0,0.0,0.0,-0.00124084,0.00440497,-0.490524
76712000,-179.953,-19.1101,-10.0838,2.80677,0.0,0.00123291,0.0185028,0.00576973,0.0,0.0,0.0,0.0,0.0,0.0,-0.0016453,0.00395679,-0.490316
76808000,-179.953,-19.1101,-10.0838,2.80677,0.0,0.00113525,0.0195343,0.00566959,0.0,0.0,0.0,0.0,0.0,0.0,-0.00174962,0.00368103,-0.490069
76924000,-179.953,-19.1101,-10.0838,2.80677,0.0,0.00113525,0.0207169,0.00486469,0.0,0.0,0.0,0.0,0.0,0.0,-0.00197109,0.00309917,-0.49004
77020000,-179.953,-19.1101,-10.0838,2.80677,0.0,0.00100098,0.0216476,0.0038271,0.0,0.0,0.0,0.0,0.0,0.0,-0.00175143,0.00321775,-0.490276
77120000,-179.953,-19.1101,-10.0838,2.80677,0.0,0.0010498,0.0224106,0.00229931,0.0,0.0,0.0,0.0,0.0,0.0,-0.00154558,0.00309196,-0.490996
77216000,-179.953,-19.1101,-10.0838,2.80677,0.0,0.00117188,0.0226776,0.00125694,0.0,0.0,0.0,0.0,0.0,0.0,-0.00130613,0.0027454,-0.491622
77312000,-179.953,-19.1101,-10.0838,2.80677,0.0,0.00129395,0.0225739,0.000121117,0.0,0.0,0.0,0.0,0.0,0.0,-0.00138868,0.00206021,-0.49176
77408000,-179.953,-19.1101,-10.0838,2.80677,-0.0,0.00150146,0.0224991,-0.00108242,0.0,0.0,0.0,0.0,0.0,0.0,-0.00102849,0.00251708,-0.491615
77524000,-179.953,-19.1101,-10.0838,2.80677,-0.0,0.00172119,0.0228928,-0.00257587,0.0,0.0,0.0,0.0,0.0,0.0,-0.00193153,0.00216615,-0.49114
77620000,-179.953,-19.1101,-10.0838,2.80712,0.15514,0.00183105,0.023494,-0.0024929,0.0,0.0,0.0,0.0,0.0,0.0,-0.00167299,0.00292221,-0.490845
