timestamp,rollspeed,pitchspeed,yawspeed,rollspeed_integ,pitchspeed_integ,yawspeed_integ,additional_integ1
1860000,0.00220711,-0.0070843,0.00265661,0.0,0.0,0.0,1.08449e-19
1892000,-0.00201319,-0.00434642,0.00946046,0.0,0.0,0.0,1.08449e-19
1928000,-0.00348087,0.0138989,0.00822114,0.0,0.0,0.0,1.08449e-19
1960000,0.0033962,-0.00814543,-0.00677494,0.0,0.0,0.0,1.08449e-19
1988000,0.00674235,-0.016118,0.00830315,0.0,0.0,0.0,1.08449e-19
2020000,0.00384289,0.0120252,-0.0129985,0.0,0.0,0.0,1.08449e-19
2056000,0.0059735,-0.00353426,-0.00767779,0.0,0.0,0.0,1.08449e-19
2084000,0.0253124,-0.0135836,0.0118454,0.0,0.0,0.0,1.08449e-19
2116000,-0.00408601,0.00258563,-0.00862678,0.0,0.0,0.0,1.08449e-19
2148000,-0.0187173,-0.00256317,0.000754995,0.0,0.0,0.0,1.08449e-19
2180000,-0.0167884,-0.00748903,-0.0182689,0.0,0.0,0.0,1.08449e-19
2212000,-0.00818733,0.00559886,0.00498296,0.0,0.0,0.0,1.08449e-19
2244000,0.00983886,-0.00643494,-0.0209481,0.0,0.0,0.0,1.08449e-19
2280000,-0.00739171,-0.00276435,-0.00549529,0.0,0.0,0.0,1.08449e-19
2308000,-0.00243726,-0.00451573,0.0189958,0.0,0.0,0.0,1.08449e-19
2340000,0.00280875,-0.0100766,-0.00155356,0.0,0.0,0.0,1.08449e-19
2372000,-0.00153685,-0.0151558,0.00799252,0.0,0.0,0.0,1.08449e-19
2408000,0.00649419,-0.0089147,-0.00464905,0.0,0.0,0.0,1.08449e-19
2440000,0.0125258,-0.00473632,-0.00674739,0.0,0.0,0.0,1.08449e-19
2472000,0.00633194,-0.0298949,-0.00809051,0.0,0.0,0.0,1.08449e-19
2504000,0.00829172,-0.00621095,0.00407682,0.0,0.0,0.0,1.08449e-19
2532000,0.0126292,0.0174214,0.00766984,0.0,0.0,0.0,1.08449e-19
2568000,-0.0260718,0.00352551,0.00778001,0.0,0.0,0.0,1.08449e-19
2596000,0.00155273,-0.00811008,0.00555538,0.0,0.0,0.0,1.08449e-19
2628000,-0.00751871,0.00367902,-0.00614758,0.0,0.0,0.0,1.08449e-19
2664000,-0.00482774,-0.00499698,0.00257765,0.0,0.0,0.0,1.08449e-19
2692000,0.0144327,-0.0031979,0.0111607,0.0,0.0,0.0,1.08449e-19
2724000,0.00368509,-0.00149988,-0.0135728,0.0,0.0,0.0,1.08449e-19
2760000,-0.0035546,0.0230056,-0.0116351,0.0,0.0,0.0,1.08449e-19
2788000,0.00957956,-0.00442748,0.00310686,0.0,0.0,0.0,1.08449e-19
2820000,0.000233649,0.0166246,-0.00924524,0.0,0.0,0.0,1.08449e-19
2852000,0.000698099,0.00718664,0.0104303,0.0,0.0,0.0,1.08449e-19
2884000,0.00766127,-0.00706457,0.00221973,0.0,0.0,0.0,1.08449e-19
2916000,0.00810742,0.00949773,-0.00136763,0.0,0.0,0.0,1.08449e-19
2952000,-0.00368178,0.000823103,-0.00446618,0.0,0.0,0.0,1.08449e-19
2984000,0.00449597,-0.0151161,0.00223237,0.0,0.0,0.0,1.08449e-19
3016000,0.00366869,0.0123061,-0.0130897,0.0,0.0,0.0,1.08449e-19
3048000,-0.0120239,0.0140213,0.00167019,0.0,0.0,0.0,1.08449e-19
3080000,0.00206679,-0.00236081,-0.00426129,0.0,0.0,0.0,1.08449e-19
3112000,-0.00753256,0.0169715,0.000839976,0.0,0.0,0.0,1.08449e-19
3140000,-0.0145596,-0.0164131,0.000660725,0.0,0.0,0.0,1.08449e-19
3176000,0.000374718,0.0126788,-0.00673631,0.0,0.0,0.0,1.08449e-19
3208000,-0.0041721,-0.000385095,0.00468505,0.0,0.0,0.0,1.08449e-19
3240000,-0.00148496,-0.00413197,0.00569352,0.0,0.0,0.0,1.08449e-19
3268000,-0.0112112,0.0124727,-0.00252372,0.0,0.0,0.0,1.08449e-19
3300000,-0.00476506,0.00677111,-0.00497773,0.0,0.0,0.0,1.08449e-19
3332000,0.0251495,0.00168924,-0.0039333,0.0,0.0,0.0,1.08449e-19
3364000,-0.00989306,0.00710617,0.00480348,0.0,0.0,0.0,1.08449e-19
3400000,0.0133042,0.00192176,0.00828043,0.0,0.0,0.0,1.08449e-19
3428000,0.0100059,0.00151285,0.0167456,0.0,0.0,0.0,1.08449e-19
3460000,0.00757885,0.008491,-0.00550962,0.0,0.0,0.0,1.08449e-19
3492000,0.00945525,0.00408543,0.00396791,0.0,0.0,0.0,1.08449e-19
3524000,0.00332953,-0.00600502,-0.0057407,0.0,0.0,0.0,1.08449e-19
3560000,0.00900664,-0.0141009,-0.000240734,0.0,0.0,0.0,1.08449e-19
3588000,0.00248234,0.00776874,-0.000107458,0.0,0.0,0.0,1.08449e-19
3624000,0.00294735,-0.0153465,0.00664314,0.0,0.0,0.0,1.08449e-19
3656000,-0.00614408,0.0145784,0.00269874,0.0,0.0,0.0,1.08449e-19
3684000,0.0183719,0.0116333,0.00765739,0.0,0.0,0.0,1.08449e-19
3716000,0.000650531,0.0103647,-0.00912811,0.0,0.0,0.0,1.08449e-19
3748000,-0.00944609,-0.00304874,0.00753153,0.0,0.0,0.0,1.08449e-19
3780000,0.00487773,-0.00423504,-0.00148424,0.0,0.0,0.0,1.08449e-19
3812000,0.00180417,0.00544533,-0.0203647,0.0,0.0,0.0,1.08449e-19
3844000,-0.00367361,0.000652295,-0.00654714,0.0,0.0,0.0,1.08449e-19
3880000,0.00508757,0.00992408,0.00568892,0.0,0.0,0.0,1.08449e-19
3908000,-0.00363837,0.0134455,0.00432229,0.0,0.0,0.0,1.08449e-19
3944000,0.00705722,0.0094288,0.00486919,0.0,0.0,0.0,1.08449e-19
3972000,0.000982777,0.00753195,-3.40053e-05,0.0,0.0,0.0,1.08449e-19
4008000,0.0349924,0.00767015,-0.00373076,0.0,0.0,0.0,1.08449e-19
4036000,0.021063,0.0214912,0.00550603,0.0,0.0,0.0,1.08449e-19
4068000,0.00721575,0.000449074,0.0143412,0.0,0.0,0.0,1.08449e-19
4100000,-0.00164921,0.0142272,-0.0140499,0.0,0.0,0.0,1.08449e-19
4132000,0.0110913,-0.00158105,-0.00574805,0.0,0.0,0.0,1.08449e-19
4164000,0.00179763,0.00607218,-0.0144804,0.0,0.0,0.0,1.08449e-19
4196000,0.00165075,0.0184258,0.00514902,0.0,0.0,0.0,1.08449e-19
4232000,0.000342528,0.00229385,-0.000643985,0.0,0.0,0.0,1.08449e-19
4260000,-0.000497309,0.0139365,-0.0215492,0.0,0.0,0.0,1.08449e-19
4296000,-0.0071884,0.00275845,-0.00497052,0.0,0.0,0.0,1.08449e-19
4324000,-0.00217302,0.0149902,0.00107607,0.0,0.0,0.0,1.08449e-19
4360000,0.0131545,0.0144914,-0.00327522,0.0,0.0,0.0,1.08449e-19
4388000,-0.0120017,-0.0042797,0.000996191,0.0,0.0,0.0,1.08449e-19
4420000,-0.000472097,0.00248471,0.00389545,0.0,0.0,0.0,1.08449e-19
4452000,0.000233628,0.00302864,-0.0127496,0.0,0.0,0.0,1.08449e-19
4484000,0.00142271,0.00238988,0.00497387,0.0,0.0,0.0,1.08449e-19
4520000,0.0045349,0.00737976,-0.0120986,0.0,0.0,0.0,1.08449e-19
4552000,0.00648483,0.00854411,0.00519635,0.0,0.0,0.0,1.08449e-19
4584000,0.0102237,-0.00444962,0.000806046,0.0,0.0,0.0,1.08449e-19
4616000,0.0170223,-0.0034536,0.0140873,0.0,0.0,0.0,1.08449e-19
4644000,-0.00144731,0.00257001,-0.00206858,0.0,0.0,0.0,1.08449e-19
4676000,0.00706917,-0.000850238,-0.00477031,0.0,0.0,0.0,1.08449e-19
4708000,-0.0084393,0.00527949,0.00864493,0.0,0.0,0.0,1.08449e-19
4744000,0.0046838,0.0182313,0.0083614,0.0,0.0,0.0,1.08449e-19
4772000,0.0143736,0.014325,0.0101512,0.0,0.0,0.0,1.08449e-19
4804000,-0.0237185,-0.00170312,-0.00661997,0.0,0.0,0.0,1.08449e-19
4836000,0.0122467,-0.0122611,0.0113109,0.0,0.0,0.0,1.08449e-19
4868000,0.00741893,0.00442373,0.00431761,0.0,0.0,0.0,1.08449e-19
4904000,0.0109769,-0.0038773,0.00212247,0.0,0.0,0.0,1.08449e-19
4936000,0.00065303,-0.0140921,-0.000546421,0.0,0.0,0.0,1.08449e-19
4968000,-0.0100245,-0.00763177,-0.0116421,0.0,0.0,0.0,1.08449e-19
4996000,-0.00477973,-0.000764199,0.00576293,0.0,0.0,0.0,1.08449e-19
5028000,-0.000390729,0.00812715,0.00669774,0.0,0.0,0.0,1.08449e-19
5060000,-0.00136872,-0.0130611,-0.0111005,0.0,0.0,0.0,1.08449e-19
5092000,0.00181524,0.0060941,0.010348,0.0,0.0,0.0,1.08449e-19
5124000,0.00593265,0.0172324,0.00767001,0.0,0.0,0.0,1.08449e-19
5156000,-0.0171847,-0.00247229,0.0026404,0.0,0.0,0.0,1.08449e-19
5188000,-0.0111939,-0.0148548,-0.0126999,0.0,0.0,0.0,1.08449e-19
5220000,0.00519174,-0.00365833,-0.0166139,0.0,0.0,0.0,1.08449e-19
5252000,-0.00366791,0.00777114,-0.00727119,0.0,0.0,0.0,1.08449e-19
5284000,-0.0122446,-0.00173295,-0.003281,0.0,0.0,0.0,1.08449e-19
5316000,0.00817997,0.00652464,0.00468226,0.0,0.0,0.0,1.08449e-19
5348000,-0.0171738,-0.00123046,-0.00700538,0.0,0.0,0.0,1.08449e-19
5380000,0.0056319,0.0131871,0.00632768,0.0,0.0,0.0,1.08449e-19
5412000,-0.00234188,0.0104781,0.0109342,0.0,0.0,0.0,1.08449e-19
5444000,0.000316788,-0.0137245,-0.00208693,0.0,0.0,0.0,1.08449e-19
5476000,0.0108836,0.00245279,-0.00672531,0.0,0.0,0.0,1.08449e-19
5508000,0.00383746,0.000700658,-0.000603966,0.0,0.0,0.0,1.08449e-19
5540000,-0.00576329,0.0119344,-0.000600625,0.0,0.0,0.0,1.08449e-19
5576000,0.0100494,0.000671247,0.00275471,0.0,0.0,0.0,1.08449e-19
5604000,-0.00455785,0.00572679,0.00285335,0.0,0.0,0.0,1.08449e-19
5636000,-0.0103939,-0.0139736,6.73282e-05,0.0,0.0,0.0,1.08449e-19
5672000,-0.00420849,-0.0097667,0.00794441,0.0,0.0,0.0,1.08449e-19
5704000,-0.00269337,0.00194678,0.0136521,0.0,0.0,0.0,1.08449e-19
5736000,-0.00131239,-0.0122222,0.00961378,0.0,0.0,0.0,1.08449e-19
5768000,0.000960221,0.0142866,-0.0184992,0.0,0.0,0.0,1.08449e-19
5796000,0.00647622,0.0111204,-0.0150866,0.0,0.0,0.0,1.08449e-19
5828000,0.00479033,0.00834297,-0.00605335,0.0,0.0,0.0,1.08449e-19
5864000,0.00467667,-0.00220013,0.00397912,0.0,0.0,0.0,1.08449e-19
5892000,0.0113301,-0.00798662,0.0010321,0.0,0.0,0.0,1.08449e-19
5928000,-0.00145385,-0.00949931,0.00094045,0.0,0.0,0.0,1.08449e-19
5956000,0.00251471,-0.00235672,0.00885261,0.0,0.0,0.0,1.08449e-19
5992000,0.00663034,0.0148151,-0.0182107,0.0,0.0,0.0,1.08449e-19
6020000,0.00980803,-0.00716793,-0.0136947,0.0,0.0,0.0,1.08449e-19
6056000,0.00708041,0.00109402,-0.000866747,0.0,0.0,0.0,1.08449e-19
6084000,-0.0110209,0.000652038,-0.00517976,0.0,0.0,0.0,1.08449e-19
6120000,0.00167753,0.0155178,-0.000689212,0.0,0.0,0.0,1.08449e-19
6148000,0.00231901,-0.000515185,-0.0164472,0.0,0.0,0.0,1.08449e-19
6180000,0.008511,3.4173e-05,0.00167634,0.0,0.0,0.0,1.08449e-19
6212000,0.0205303,-0.0114091,-0.0147268,0.0,0.0,0.0,1.08449e-19
6244000,-0.0110638,-0.0149083,0.00725092,0.0,0.0,0.0,1.08449e-19
6276000,-0.00436914,-0.0161399,-0.00667198,0.0,0.0,0.0,1.08449e-19
6308000,-0.00453019,-0.00637077,0.0168937,0.0,0.0,0.0,1.08449e-19
6340000,-0.00751777,-0.00075655,0.00976436,0.0,0.0,0.0,1.08449e-19
6372000,0.00528604,-0.0115753,-0.0137926,0.0,0.0,0.0,1.08449e-19
6404000,0.00344173,0.0111675,-0.0115141,0.0,0.0,0.0,1.08449e-19
6440000,0.0195432,-0.00365685,0.00963558,0.0,0.0,0.0,1.08449e-19
6472000,-0.0126663,0.00317868,-0.00704405,0.0,0.0,0.0,1.08449e-19
6504000,-0.00379391,-0.0163923,0.00136775,0.0,0.0,0.0,1.08449e-19
6532000,-0.00183525,0.00557315,0.00309618,0.0,0.0,0.0,1.08449e-19
6564000,0.00995849,0.0185334,0.0082681,0.0,0.0,0.0,1.08449e-19
6596000,0.014647,-0.00151585,-0.0111874,0.0,0.0,0.0,1.08449e-19
6628000,0.0120633,0.00309864,-0.00510785,0.0,0.0,0.0,1.08449e-19
6664000,-0.00486048,-0.0106081,-0.0101135,0.0,0.0,0.0,1.08449e-19
6692000,-0.00485591,-0.00513526,0.01244,0.0,0.0,0.0,1.08449e-19
6724000,-0.00848212,-0.00484956,-0.0031632,0.0,0.0,0.0,1.08449e-19
6760000,-0.00247777,0.00313485,0.00502579,0.0,0.0,0.0,1.08449e-19
6788000,0.00237418,0.00907925,0.00053009,0.0,0.0,0.0,1.08449e-19
6824000,-0.00138165,0.00513583,-0.00960449,0.0,0.0,0.0,1.08449e-19
6852000,-0.00975543,0.00493365,-0.0114066,0.0,0.0,0.0,1.08449e-19
6888000,0.0011456,0.00618694,-0.00143207,0.0,0.0,0.0,1.08449e-19
6916000,-0.0127042,-0.00336978,-0.00268007,0.0,0.0,0.0,1.08449e-19
6948000,-0.00536104,0.00264162,0.0111554,0.0,0.0,0.0,1.08449e-19
6980000,0.00160034,-0.0169608,0.0182212,0.0,0.0,0.0,1.08449e-19
7012000,0.00599762,-0.0106265,0.00109262,0.0,0.0,0.0,1.08449e-19
7044000,0.00580983,0.00471977,0.00318885,0.0,0.0,0.0,1.08449e-19
7076000,-0.00437776,0.000330124,0.00370677,0.0,0.0,0.0,1.08449e-19
7108000,0.0217504,-0.00578268,-0.0117629,0.0,0.0,0.0,1.08449e-19
7140000,-0.00225434,-0.00123864,0.015369,0.0,0.0,0.0,1.08449e-19
7172000,0.000636739,-0.0082434,0.00994092,0.0,0.0,0.0,1.08449e-19
7204000,0.0106554,0.00952616,-0.00357452,0.0,0.0,0.0,1.08449e-19
7240000,-0.0102248,-0.0246504,0.00163474,0.0,0.0,0.0,1.08449e-19
7268000,0.000412486,0.0212372,0.0183335,0.0,0.0,0.0,1.08449e-19
7300000,-0.00136869,-0.00555359,-0.00500332,0.0,0.0,0.0,1.08449e-19
7332000,0.0216999,-0.00324614,-0.00209301,0.0,0.0,0.0,1.08449e-19
7364000,-0.0233011,-0.00279573,-0.00119405,0.0,0.0,0.0,1.08449e-19
7396000,0.000878163,0.00151759,0.00676817,0.0,0.0,0.0,1.08449e-19
7428000,0.0217637,-0.0176457,-0.00181008,0.0,0.0,0.0,1.08449e-19
7464000,0.0100485,0.0114874,0.0121364,0.0,0.0,0.0,1.08449e-19
7492000,0.00515747,0.00869535,-0.00431743,0.0,0.0,0.0,1.08449e-19
7524000,-0.00299191,-0.0104269,0.0132374,0.0,0.0,0.0,1.08449e-19
7556000,0.0112327,0.0024309,-0.0033381,0.0,0.0,0.0,1.08449e-19
7588000,-0.00768921,0.0161923,0.00508911,0.0,0.0,0.0,1.08449e-19
7624000,0.00953316,0.00323614,-0.00731651,0.0,0.0,0.0,1.08449e-19
7652000,-0.00471004,0.00297695,-0.000666781,0.0,0.0,0.0,1.08449e-19
7688000,0.0101476,0.0282021,-0.00836289,0.0,0.0,0.0,1.08449e-19
7716000,0.000240822,-0.00964045,0.00860107,0.0,0.0,0.0,1.08449e-19
7752000,-0.00212524,-0.0149572,0.0086174,0.0,0.0,0.0,1.08449e-19
7784000,0.00274232,-0.00278151,-0.00161173,0.0,0.0,0.0,1.08449e-19
7812000,0.00310682,0.0150808,0.0175419,0.0,0.0,0.0,1.08449e-19
7844000,0.00207804,0.0268117,0.0125994,0.0,0.0,0.0,1.08449e-19
7880000,-0.0136891,-0.00874431,0.00691654,0.0,0.0,0.0,1.08449e-19
7912000,-0.00182001,0.0153544,-0.00394518,0.0,0.0,0.0,1.08449e-19
7940000,-0.00555727,0.0199744,-0.00329163,0.0,0.0,0.0,1.08449e-19
7972000,0.0045659,0.00714334,0.00131521,0.0,0.0,0.0,1.08449e-19
8008000,0.0144222,0.0153985,0.00739798,0.0,0.0,0.0,1.08449e-19
8036000,-0.00165764,-0.00633385,-0.00635829,0.0,0.0,0.0,1.08449e-19
8068000,0.00153063,0.00608252,-0.0163707,0.0,0.0,0.0,1.08449e-19
8100000,0.0070236,-0.00692388,0.000162184,0.0,0.0,0.0,1.08449e-19
8132000,-0.000355402,0.00924786,-0.0157337,0.0,0.0,0.0,1.08449e-19
8164000,0.0123855,-0.0142142,-0.000266009,0.0,0.0,0.0,1.08449e-19
8200000,-0.0017064,0.00106942,0.00654647,0.0,0.0,0.0,1.08449e-19
8232000,0.00153274,0.0021022,-0.00599995,0.0,0.0,0.0,1.08449e-19
8264000,-0.000272537,0.00127088,-0.000124297,0.0,0.0,0.0,1.08449e-19
8292000,-0.00940949,-0.0105636,0.00795641,0.0,0.0,0.0,1.08449e-19
8324000,-0.00528328,0.0075535,0.0049494,0.0,0.0,0.0,1.08449e-19
8360000,-0.00506277,0.00291522,-0.0185713,0.0,0.0,0.0,1.08449e-19
8388000,0.000401643,0.0158271,0.0146017,0.0,0.0,0.0,1.08449e-19
8420000,-0.000148311,-0.00379384,-0.00163621,0.0,0.0,0.0,1.08449e-19
8452000,-0.0129829,-0.000726611,-0.00615758,0.0,0.0,0.0,1.08449e-19
8488000,-0.0128903,-0.0161315,-0.0104232,0.0,0.0,0.0,1.08449e-19
8516000,0.00512177,-0.00769307,-0.0160172,0.0,0.0,0.0,1.08449e-19
8548000,-0.0184046,0.00260294,-0.00697059,0.0,0.0,0.0,1.08449e-19
8584000,-0.00108147,-0.0057155,-0.0207261,0.0,0.0,0.0,1.08449e-19
8612000,0.00154276,0.0170753,0.0177742,0.0,0.0,0.0,1.08449e-19
8648000,-0.00983529,0.00293801,-0.00478206,0.0,0.0,0.0,1.08449e-19
8676000,0.011069,0.0201766,-0.00114112,0.0,0.0,0.0,1.08449e-19
8708000,0.0114544,-0.00978271,0.00718847,0.0,0.0,0.0,1.08449e-19
8744000,0.00154564,-0.000382136,-0.0164274,0.0,0.0,0.0,1.08449e-19
8776000,0.0093917,-0.0171268,0.00868068,0.0,0.0,0.0,1.08449e-19
8808000,-0.00468745,0.00593365,0.00469833,0.0,0.0,0.0,1.08449e-19
8836000,-0.000310782,0.0200463,-0.0130697,0.0,0.0,0.0,1.08449e-19
8872000,-0.00231445,-0.0047848,-0.00542466,0.0,0.0,0.0,1.08449e-19
8900000,-0.00287474,0.00544371,0.000885925,0.0,0.0,0.0,1.08449e-19
8936000,-0.00879307,0.015832,-0.000765648,0.0,0.0,0.0,1.08449e-19
8964000,0.00070671,-0.012929,0.00201496,0.0,0.0,0.0,1.08449e-19
9000000,0.0148321,0.0171147,0.0059347,0.0,0.0,0.0,1.08449e-19
9032000,0.000782876,0.00761743,-0.0061092,0.0,0.0,0.0,1.08449e-19
9060000,0.00843066,0.00243333,0.0106095,0.0,0.0,0.0,1.08449e-19
9096000,-0.0030392,0.0105319,-0.00252111,0.0,0.0,0.0,1.08449e-19
9124000,0.00465072,-0.00667891,-0.00148214,0.0,0.0,0.0,1.08449e-19
9160000,0.0114051,-0.00459022,0.00239016,0.0,0.0,0.0,1.08449e-19
9188000,-0.00772391,0.0159292,0.00423177,0.0,0.0,0.0,1.08449e-19
9220000,0.00913492,0.00793186,0.00947348,0.0,0.0,0.0,1.08449e-19
9256000,0.00780012,-0.00888728,0.0189609,0.0,0.0,0.0,1.08449e-19
9284000,-0.00411782,0.000569991,0.00252781,0.0,0.0,0.0,1.08449e-19
9316000,-0.0111572,-0.0124451,-0.00335702,0.0,0.0,0.0,1.08449e-19
9348000,-0.0168468,0.00974994,-0.00929196,0.0,0.0,0.0,1.08449e-19
9380000,0.0117256,-0.00499146,-0.0173301,0.0,0.0,0.0,1.08449e-19
9412000,0.00749543,0.00420883,-0.0027963,0.0,0.0,0.0,1.08449e-19
9444000,-0.0191815,-0.0018553,0.00987128,0.0,0.0,0.0,1.08449e-19
9480000,0.00430796,-0.0020398,0.014658,0.0,0.0,0.0,1.08449e-19
9512000,-0.0115055,0.00541393,-0.002981,0.0,0.0,0.0,1.08449e-19
9544000,0.00945949,0.00825171,0.0182074,0.0,0.0,0.0,1.08449e-19
9572000,-0.0191479,0.00862753,-0.00584359,0.0,0.0,0.0,1.08449e-19
9608000,0.00710555,0.0129648,0.00466544,0.0,0.0,0.0,1.08449e-19
9636000,0.0186944,0.00305232,0.00850643,0.0,0.0,0.0,1.08449e-19
9668000,0.00579714,0.00113096,-0.00264647,0.0,0.0,0.0,1.08449e-19
9700000,-0.00691527,-0.00210186,-0.0120999,0.0,0.0,0.0,1.08449e-19
9732000,0.00168027,0.000598227,0.0104633,0.0,0.0,0.0,1.08449e-19
9764000,0.0168392,-0.012148,0.00624994,0.0,0.0,0.0,1.08449e-19
9800000,-0.0001048,0.00554611,0.0050235,0.0,0.0,0.0,1.08449e-19
9828000,0.00704342,-0.002622,0.0113686,0.0,0.0,0.0,1.08449e-19
9864000,0.00776267,0.00431035,0.0153111,0.0,0.0,0.0,1.08449e-19
9892000,-0.0109365,0.00717637,0.00695115,0.0,0.0,0.0,1.08449e-19
9928000,0.0121664,-0.00795584,-0.00729213,0.0,0.0,0.0,1.08449e-19
9960000,0.00359646,-0.00913673,0.0116906,0.0,0.0,0.0,1.08449e-19
9988000,0.00592522,0.00566089,0.00417191,0.0,0.0,0.0,1.08449e-19
10020000,-0.000355342,0.0123488,-0.0187193,0.0,0.0,0.0,1.08449e-19
10056000,0.00371017,0.0120342,0.00897477,0.0,0.0,0.0,1.08449e-19
10084000,0.0137529,0.0161113,-0.00298639,0.0,0.0,0.0,1.08449e-19
10120000,-0.00698973,-0.00334571,-0.00518723,0.0,0.0,0.0,1.08449e-19
10148000,0.00351683,0.00973317,0.0127522,0.0,0.0,0.0,1.08449e-19
10180000,-0.02179,0.00593972,-0.0149252,0.0,0.0,0.0,1.08449e-19
10212000,0.00946751,0.00251034,0.00782096,0.0,0.0,0.0,1.08449e-19
10244000,0.00539996,0.0121093,-0.0153676,0.0,0.0,0.0,1.08449e-19
10276000,0.0152937,-0.0031931,0.0108216,0.0,0.0,0.0,1.08449e-19
10308000,0.0183056,0.00445961,0.00878442,0.0,0.0,0.0,1.08449e-19
10344000,0.00117604,0.00106202,-0.0110478,0.0,0.0,0.0,1.08449e-19
10372000,-0.00394278,-0.012536,-0.000982794,0.0,0.0,0.0,1.08449e-19
10408000,-0.00753004,-0.00497746,-0.00576871,0.0,0.0,0.0,1.08449e-19
10440000,0.000467617,0.0206333,-0.00242475,0.0,0.0,0.0,1.08449e-19
10472000,0.00440171,0.0150676,0.00374891,0.0,0.0,0.0,1.08449e-19
10504000,0.00332855,0.00113939,0.0138983,0.0,0.0,0.0,1.08449e-19
10532000,0.00112305,-0.0131119,0.000258547,0.0,0.0,0.0,1.08449e-19
10564000,0.000127265,-0.0113115,-0.00993842,0.0,0.0,0.0,1.08449e-19
10596000,-0.0109719,0.000742151,-0.00250251,0.0,0.0,0.0,1.08449e-19
10632000,-0.0118275,-0.00273173,0.00244032,0.0,0.0,0.0,1.08449e-19
10664000,0.00548241,-0.000926296,0.00108106,0.0,0.0,0.0,1.08449e-19
10692000,0.00074791,-0.0139246,-0.0119953,0.0,0.0,0.0,1.08449e-19
10728000,-0.00238864,0.0126677,-0.00594132,0.0,0.0,0.0,1.08449e-19
10756000,0.00164949,0.0158856,0.0213468,0.0,0.0,0.0,1.08449e-19
10788000,-0.0179498,-0.00159363,0.000348999,0.0,0.0,0.0,1.08449e-19
10820000,0.0130531,0.0183233,0.00106951,0.0,0.0,0.0,1.08449e-19
10856000,0.0086826,-0.00756649,-0.00624628,0.0,0.0,0.0,1.08449e-19
10884000,0.00973002,0.0067661,0.00132158,0.0,0.0,0.0,1.08449e-19
10920000,0.00131329,-0.0123166,0.0075721,0.0,0.0,0.0,1.08449e-19
10952000,-0.00470591,-0.00442854,-0.0039498,0.0,0.0,0.0,1.08449e-19
10980000,-0.00580717,-0.00254955,0.00651322,0.0,0.0,0.0,1.08449e-19
11016000,0.00386622,0.00196253,0.0180685,0.0,0.0,0.0,1.08449e-19
11044000,0.0128995,0.0207709,0.00559391,0.0,0.0,0.0,1.08449e-19
11076000,-0.0053506,0.0107767,0.0140689,0.0,0.0,0.0,1.08449e-19
11108000,0.00177952,-0.0132506,-0.00745233,0.0,0.0,0.0,1.08449e-19
11140000,0.00811411,0.0132399,-0.00667473,0.0,0.0,0.0,1.08449e-19
11172000,-0.0112879,0.00966225,-0.00565391,0.0,0.0,0.0,1.08449e-19
11208000,0.0182698,-0.0159765,0.00389541,0.0,0.0,0.0,1.08449e-19
11240000,-0.00616505,-0.0125959,-0.00100866,0.0,0.0,0.0,1.08449e-19
11268000,0.0258203,0.00934454,-0.00458465,0.0,0.0,0.0,1.08449e-19
11300000,-0.00514562,-0.00221815,0.00151924,0.0,0.0,0.0,1.08449e-19
11336000,0.00215095,0.00135796,-0.0102336,0.0,0.0,0.0,1.08449e-19
11368000,-0.00147798,0.0128982,0.0063142,0.0,0.0,0.0,1.08449e-19
11396000,-0.00764687,-0.00624379,0.000379086,0.0,0.0,0.0,1.08449e-19
11428000,0.0143904,-0.0128809,0.00601239,0.0,0.0,0.0,1.08449e-19
11460000,0.00324083,0.0110297,0.000374718,0.0,0.0,0.0,1.08449e-19
11492000,-0.00019453,0.0199286,0.00669802,0.0,0.0,0.0,1.08449e-19
11524000,0.0124881,-0.0171672,0.0129898,0.0,0.0,0.0,1.08449e-19
11560000,-0.00359371,0.00488041,-0.00152352,0.0,0.0,0.0,1.08449e-19
11592000,0.00898399,-2.34702e-05,-0.0035499,0.0,0.0,0.0,1.08449e-19
11620000,0.0182324,0.0205387,-0.010855,0.0,0.0,0.0,1.08449e-19
11652000,0.00965603,0.0164596,0.00223098,0.0,0.0,0.0,1.08449e-19
11688000,0.00555947,7.80477e-05,0.00471137,0.0,0.0,0.0,1.08449e-19
11720000,0.000634466,0.00897861,0.00108341,0.0,0.0,0.0,1.08449e-19
11748000,-0.0150107,0.0140922,-0.00849058,0.0,0.0,0.0,1.08449e-19
11780000,-0.00895784,0.0157459,0.0245582,0.0,0.0,0.0,1.08449e-19
11812000,0.0160947,-0.00507444,0.00953825,0.0,0.0,0.0,1.08449e-19
11848000,0.00415694,0.0152404,-0.00237545,0.0,0.0,0.0,1.08449e-19
11876000,-0.00696711,-0.0116572,-0.00921087,0.0,0.0,0.0,1.08449e-19
11908000,-0.00558398,0.0227527,0.0106672,0.0,0.0,0.0,1.08449e-19
11940000,-0.0134479,0.0165794,0.0145198,0.0,0.0,0.0,1.08449e-19
11972000,0.0231031,0.021964,-0.0100627,0.0,0.0,0.0,1.08449e-19
12004000,-0.012697,-0.00934932,0.00680685,0.0,0.0,0.0,1.08449e-19
12040000,-0.0149234,0.00204331,-0.00746236,0.0,0.0,0.0,1.08449e-19
12072000,-0.0112556,0.0106494,-0.0235389,0.0,0.0,0.0,1.08449e-19
12100000,0.00480413,-0.00367911,-0.00444047,0.0,0.0,0.0,1.08449e-19
12132000,0.0197203,-0.00685334,0.00764634,0.0,0.0,0.0,1.08449e-19
12168000,-0.00739817,-0.00127669,-0.00278256,0.0,0.0,0.0,1.08449e-19
12196000,0.00251843,0.00503482,-0.0168334,0.0,0.0,0.0,1.08449e-19
12228000,-0.000650764,0.00468272,-0.00458087,0.0,0.0,0.0,1.08449e-19
12260000,-0.00652063,0.0125185,-0.0210404,0.0,0.0,0.0,1.08449e-19
12292000,-0.00692001,0.0041137,0.00444777,0.0,0.0,0.0,1.08449e-19
12328000,0.024091,-0.0150267,-0.00392917,0.0,0.0,0.0,1.08449e-19
12356000,-0.0119653,-0.00938812,-0.0194058,0.0,0.0,0.0,1.08449e-19
12388000,0.00746101,0.0138285,-0.00242352,0.0,0.0,0.0,1.08449e-19
12420000,0.00945764,-0.00119712,0.0112982,0.0,0.0,0.0,1.08449e-19
12452000,0.00462779,-0.000352892,0.00128921,0.0,0.0,0.0,1.08449e-19
12488000,0.00035885,0.000303169,0.00376349,0.0,0.0,0.0,1.08449e-19
12516000,0.00829399,-0.00689257,0.00661274,0.0,0.0,0.0,1.08449e-19
12552000,-0.00429782,0.00332558,0.0132615,0.0,0.0,0.0,1.08449e-19
12584000,0.0131266,0.00933605,-0.0025549,0.0,0.0,0.0,1.08449e-19
12612000,-0.00777154,-0.0100969,0.0143496,0.0,0.0,0.0,1.08449e-19
12648000,-0.00873134,-0.0175941,-0.0231088,0.0,0.0,0.0,1.08449e-19
12676000,0.000122617,0.000199714,-0.0118231,0.0,0.0,0.0,1.08449e-19
12708000,-0.00331404,-0.00889733,-0.00327718,0.0,0.0,0.0,1.08449e-19
12740000,-0.000787412,0.0151224,-0.0183812,0.0,0.0,0.0,1.08449e-19
12776000,0.0105619,0.0130348,-0.0038271,0.0,0.0,0.0,1.08449e-19
12804000,0.00473928,0.0127126,0.00033785,0.0,0.0,0.0,1.08449e-19
12836000,0.0209083,0.00908131,0.00866289,0.0,0.0,0.0,1.08449e-19
12868000,0.0232609,0.000812129,0.00341701,0.0,0.0,0.0,1.08449e-19
12900000,0.00603155,-0.000217814,-0.016094,0.0,0.0,0.0,1.08449e-19
12936000,-0.0075947,0.00587298,0.00272313,0.0,0.0,0.0,1.08449e-19
12968000,0.0063517,0.00462495,-0.0106555,0.0,0.0,0.0,1.08449e-19
12996000,0.0104849,-0.00902008,-0.014795,0.0,0.0,0.0,1.08449e-19
13028000,-0.00130332,-0.00697069,0.001191,0.0,0.0,0.0,1.08449e-19
13060000,-0.0165533,-0.00742266,-0.00213899,0.0,0.0,0.0,1.08449e-19
13092000,0.00728651,-0.00150291,0.00340291,0.0,0.0,0.0,1.08449e-19
13128000,0.00208682,-0.00872258,-0.0250567,0.0,0.0,0.0,1.08449e-19
13156000,-0.00522456,-0.0159183,-0.00901741,0.0,0.0,0.0,1.08449e-19
13188000,-0.0165284,-0.00396201,0.00801315,0.0,0.0,0.0,1.08449e-19
13220000,0.000117885,-0.00185707,-0.0169954,0.0,0.0,0.0,1.08449e-19
13252000,0.000834625,-0.00759656,-0.00836663,0.0,0.0,0.0,1.08449e-19
13284000,-0.0211703,-0.00181722,0.00866923,0.0,0.0,0.0,1.08449e-19
13320000,0.00682436,0.0118513,0.00165519,0.0,0.0,0.0,1.08449e-19
13352000,0.0154348,0.00251935,0.0144129,0.0,0.0,0.0,1.08449e-19
13380000,-0.0127419,-0.00320367,0.00104389,0.0,0.0,0.0,1.08449e-19
13412000,-0.00710601,0.00202937,-0.00995357,0.0,0.0,0.0,1.08449e-19
13444000,0.0183961,-0.00468966,-0.0174064,0.0,0.0,0.0,1.08449e-19
13476000,-0.00428979,-0.0225917,-0.0146705,0.0,0.0,0.0,1.08449e-19
13508000,-0.00148877,0.00318599,-0.00121799,0.0,0.0,0.0,1.08449e-19
13544000,-0.0173604,-0.00529221,-0.00958251,0.0,0.0,0.0,1.08449e-19
13572000,0.00973374,-0.00107201,0.00535234,0.0,0.0,0.0,1.08449e-19
13604000,-0.00106924,0.00012212,0.00278754,0.0,0.0,0.0,1.08449e-19
13640000,0.00900797,0.00501983,-0.0253419,0.0,0.0,0.0,1.08449e-19
13672000,0.00757119,0.000340646,0.00400972,0.0,0.0,0.0,1.08449e-19
13700000,0.0100673,-0.0171461,0.0146606,0.0,0.0,0.0,1.08449e-19
13736000,9.71454e-05,-0.000791558,0.00486799,0.0,0.0,0.0,1.08449e-19
13768000,0.010216,0.0155344,-0.00742213,0.0,0.0,0.0,1.08449e-19
13796000,0.00515506,0.0050356,0.0152885,0.0,0.0,0.0,1.08449e-19
13828000,-0.0100615,-0.00155744,5.71455e-05,0.0,0.0,0.0,1.08449e-19
13860000,-0.00384785,0.00448482,0.0115929,0.0,0.0,0.0,1.08449e-19
13892000,0.00448433,-0.00739103,-0.00891945,0.0,0.0,0.0,1.08449e-19
13924000,-0.00514711,-0.0262857,0.00595906,0.0,0.0,0.0,1.08449e-19
13960000,0.0177152,-0.000359679,-0.0026984,0.0,0.0,0.0,1.08449e-19
13988000,-0.00862955,-0.0185248,0.000282227,0.0,0.0,0.0,1.08449e-19
14020000,0.00641978,0.00644731,0.00691182,0.0,0.0,0.0,1.08449e-19
14056000,-0.0114991,0.0104131,-0.000516172,0.0,0.0,0.0,1.08449e-19
14088000,0.000949834,-0.0105757,-0.00762698,0.0,0.0,0.0,1.08449e-19
14116000,-0.00357518,-0.00159797,0.0143549,0.0,0.0,0.0,1.08449e-19
14148000,0.000290851,-0.000205017,0.00145165,0.0,0.0,0.0,1.08449e-19
14180000,0.00553038,-0.0106256,0.00373847,0.0,0.0,0.0,1.08449e-19
14212000,0.00129383,-0.0180877,-0.0126234,0.0,0.0,0.0,1.08449e-19
14244000,-0.0126551,-0.0118496,-0.00964321,0.0,0.0,0.0,1.08449e-19
14276000,-0.0142379,-0.0266051,-0.00812477,0.0,0.0,0.0,1.08449e-19
14308000,0.00424262,0.00534225,-0.00717243,0.0,0.0,0.0,1.08449e-19
14340000,-0.0136289,0.00767329,-0.00429851,0.0,0.0,0.0,1.08449e-19
14372000,0.00843858,0.00733602,0.00113712,0.0,0.0,0.0,1.08449e-19
14404000,-0.00232158,-0.00479762,0.00647554,0.0,0.0,0.0,1.08449e-19
14436000,-0.00645285,0.0171472,-0.00271373,0.0,0.0,0.0,1.08449e-19
14468000,0.00155248,-0.00385433,0.00393223,0.0,0.0,0.0,1.08449e-19
14504000,-0.00663003,0.00839384,0.00625647,0.0,0.0,0.0,1.08449e-19
14532000,0.00938156,-0.00219332,0.00429593,0.0,0.0,0.0,1.08449e-19
14564000,-0.010414,0.00852583,0.00947474,0.0,0.0,0.0,1.08449e-19
14600000,-0.023002,-0.0159142,0.000763024,0.0,0.0,0.0,1.08449e-19
14632000,-0.00331533,0.0172462,0.00348983,0.0,0.0,0.0,1.08449e-19
14660000,-0.0111144,-0.00637618,-0.0047285,0.0,0.0,0.0,1.08449e-19
14692000,0.00158133,-0.00204112,0.00585638,0.0,0.0,0.0,1.08449e-19
14724000,0.00134465,-0.00509453,0.0134455,0.0,0.0,0.0,1.08449e-19
14760000,-0.00258108,0.00965784,0.0183715,0.0,0.0,0.0,1.08449e-19
14788000,0.0129894,-0.00918748,0.00189432,0.0,0.0,0.0,1.08449e-19
14820000,-0.00305613,0.00566407,0.0171961,0.0,0.0,0.0,1.08449e-19
14852000,0.00437947,-0.000666651,-0.00327756,0.0,0.0,0.0,1.08449e-19
14884000,-0.00154055,-0.0104704,0.00960408,0.0,0.0,0.0,1.08449e-19
14916000,-0.0150173,0.000557822,0.00424054,0.0,0.0,0.0,1.08449e-19
14948000,-0.00420155,0.00424848,-0.0103869,0.0,0.0,0.0,1.08449e-19
14980000,-0.0082979,0.00549112,-0.00625463,0.0,0.0,0.0,1.08449e-19
15012000,0.000371019,0.00728583,0.00812865,0.0,0.0,0.0,1.08449e-19
15048000,0.00883101,0.00285279,0.00195205,0.0,0.0,0.0,1.08449e-19
15076000,0.0100731,-0.0173407,0.0109648,0.0,0.0,0.0,1.08449e-19
15108000,0.000328709,-0.0201477,-0.00240227,0.0,0.0,0.0,1.08449e-19
15144000,-0.0190094,-0.0140275,0.00727046,0.0,0.0,0.0,1.08449e-19
15172000,0.000495237,-0.0245923,0.00209234,0.0,0.0,0.0,1.08449e-19
15204000,0.00915067,-0.0120219,0.00206695,0.0,0.0,0.0,1.08449e-19
15236000,-2.45578e-05,-0.00273312,-0.00540044,0.0,0.0,0.0,1.08449e-19
15268000,-0.00249737,-0.00248472,-0.000875963,0.0,0.0,0.0,1.08449e-19
15304000,-0.0122342,-0.0138739,-0.00992579,0.0,0.0,0.0,1.08449e-19
15332000,0.00546822,-0.000576791,0.00726973,0.0,0.0,0.0,1.08449e-19
15364000,-0.00127048,-0.00512074,-0.000173081,0.0,0.0,0.0,1.08449e-19
15396000,-0.0111659,-0.00523971,-0.000978757,0.0,0.0,0.0,1.08449e-19
15428000,0.00586116,-0.00900893,-0.00299727,0.0,0.0,0.0,1.08449e-19
15464000,0.0129046,0.00513411,-0.0118236,0.0,0.0,0.0,1.08449e-19
15496000,-0.00119019,0.00156582,0.0209432,0.0,0.0,0.0,1.08449e-19
15528000,0.0164598,-0.00156298,-0.0205126,0.0,0.0,0.0,1.08449e-19
15556000,0.00465523,0.00835997,-0.00619906,0.0,0.0,0.0,1.08449e-19
15592000,-0.0101126,0.0111744,0.00559247,0.0,0.0,0.0,1.08449e-19
15624000,-0.00767473,0.000499667,0.00286867,0.0,0.0,0.0,1.08449e-19
15652000,0.0022609,-0.00903372,0.00591616,0.0,0.0,0.0,1.08449e-19
15688000,-0.00580065,-0.0271411,0.00401434,0.0,0.0,0.0,1.08449e-19
15716000,0.00471161,-0.00604509,0.0130454,0.0,0.0,0.0,1.08449e-19
15748000,-0.0139911,-0.00142786,-0.00372624,0.0,0.0,0.0,1.08449e-19
15780000,0.00216462,0.00655295,-0.0124446,0.0,0.0,0.0,1.08449e-19
15816000,-0.00269396,0.00704087,0.00282067,0.0,0.0,0.0,1.08449e-19
15844000,0.00920468,-0.0138908,-0.00100476,0.0,0.0,0.0,1.08449e-19
15880000,0.00690756,-0.00677106,0.00635066,0.0,0.0,0.0,1.08449e-19
15908000,-0.00560249,0.00445414,0.00590296,0.0,0.0,0.0,1.08449e-19
15944000,-0.0119108,-0.00146852,-0.00399498,0.0,0.0,0.0,1.08449e-19
15972000,0.000351456,-0.00947423,0.00346465,0.0,0.0,0.0,1.08449e-19
16004000,-0.00347783,-0.00191918,-0.000372991,0.0,0.0,0.0,1.08449e-19
16036000,-0.00547685,0.0121911,-0.0163593,0.0,0.0,0.0,1.08449e-19
16068000,-0.00523269,-0.00580256,0.00984441,0.0,0.0,0.0,1.08449e-19
16100000,-3.52613e-05,-0.000843663,-0.0147603,0.0,0.0,0.0,1.08449e-19
16132000,0.00650639,0.00366022,0.00845747,0.0,0.0,0.0,1.08449e-19
16168000,-0.00223967,-0.0092537,-0.00854509,0.0,0.0,0.0,1.08449e-19
16196000,-0.00793394,-0.0108303,0.00735171,0.0,0.0,0.0,1.08449e-19
16228000,0.00521364,-0.000848032,-0.013317,0.0,0.0,0.0,1.08449e-19
16260000,0.0151045,-0.0109019,0.00497377,0.0,0.0,0.0,1.08449e-19
16292000,0.0135239,0.0025867,-0.00923316,0.0,0.0,0.0,1.08449e-19
16328000,-0.00979094,0.00262961,0.014479,0.0,0.0,0.0,1.08449e-19
16360000,-0.00313486,-0.0166305,-0.00352462,0.0,0.0,0.0,1.08449e-19
16388000,0.00104164,-0.00747081,0.0178927,0.0,0.0,0.0,1.08449e-19
16420000,0.00603122,0.0129469,0.017721,0.0,0.0,0.0,1.08449e-19
16452000,-0.000330791,0.0082841,0.00539306,0.0,0.0,0.0,1.08449e-19
16488000,0.00696949,0.0146531,-0.00958955,0.0,0.0,0.0,1.08449e-19
16516000,-0.0213558,-0.0119436,0.00837081,0.0,0.0,0.0,1.08449e-19
16548000,-0.00434096,0.000967501,0.00579366,0.0,0.0,0.0,1.08449e-19
16584000,-0.00619592,-0.00604026,0.00134218,0.0,0.0,0.0,1.08449e-19
16612000,0.00200226,-0.00549474,-0.0144623,0.0,0.0,0.0,1.08449e-19
16648000,-0.0166397,0.010102,0.0105336,0.0,0.0,0.0,1.08449e-19
16676000,0.00895127,0.000927806,-0.00257581,0.0,0.0,0.0,1.08449e-19
16708000,-0.0238165,0.000795403,0.0169623,0.0,0.0,0.0,1.08449e-19
16740000,-0.0141527,-0.00690844,-0.0254336,0.0,0.0,0.0,1.08449e-19
16772000,0.00350245,0.0134258,0.0127497,0.0,0.0,0.0,1.08449e-19
16808000,0.0103725,0.00435833,-0.00570754,0.0,0.0,0.0,1.08449e-19
16836000,-0.00508975,0.00258858,0.00489967,0.0,0.0,0.0,1.08449e-19
16868000,0.00474644,-0.00106324,-0.0148924,0.0,0.0,0.0,1.08449e-19
16900000,0.00264475,-0.00687854,-0.0174308,0.0,0.0,0.0,1.08449e-19
16936000,0.0177891,0.0101032,-0.00729608,0.0,0.0,0.0,1.08449e-19
16964000,0.00390358,-0.0172985,0.00390283,0.0,0.0,0.0,1.08449e-19
16996000,-6.72068e-05,-0.00267719,0.0145387,0.0,0.0,0.0,1.08449e-19
17028000,-0.00409939,-0.0102133,-0.0164348,0.0,0.0,0.0,1.08449e-19
17060000,0.0176442,0.012906,-0.01198,0.0,0.0,0.0,1.08449e-19
17092000,0.0196004,-0.0160179,0.00515177,0.0,0.0,0.0,1.08449e-19
17124000,0.00676976,-0.0187093,0.0128964,0.0,0.0,0.0,1.08449e-19
17156000,-0.0061668,-0.0101578,0.012112,0.0,0.0,0.0,1.08449e-19
17188000,0.0118111,0.00350879,-0.00702198,0.0,0.0,0.0,1.08449e-19
17220000,-0.00917526,-0.001081,0.00962041,0.0,0.0,0.0,1.08449e-19
17256000,0.000617045,0.00228677,-0.010998,0.0,0.0,0.0,1.08449e-19
17284000,-0.0139875,0.00325299,0.00856796,0.0,0.0,0.0,1.08449e-19
17320000,0.00619842,0.00874081,0.00600069,0.0,0.0,0.0,1.08449e-19
17348000,0.0146164,-0.023105,-0.00559355,0.0,0.0,0.0,1.08449e-19
17380000,0.0134191,0.00846537,-0.00387792,0.0,0.0,0.0,1.08449e-19
17416000,-0.00496519,0.015992,-0.00329381,0.0,0.0,0.0,1.08449e-19
17448000,-0.00473155,-0.00246147,-0.0117759,0.0,0.0,0.0,1.08449e-19
17480000,-0.0110896,-0.00873643,0.00221421,0.0,0.0,0.0,1.08449e-19
17508000,-0.00882237,-0.00391075,-0.0131141,0.0,0.0,0.0,1.08449e-19
17544000,0.0023912,0.0109674,0.0174626,0.0,0.0,0.0,1.08449e-19
17576000,-0.00247618,-0.00943843,0.00946051,0.0,0.0,0.0,1.08449e-19
17604000,0.00689954,0.00208457,0.00520465,0.0,0.0,0.0,1.08449e-19
17636000,-0.00797173,0.00678808,-0.0182119,0.0,0.0,0.0,1.08449e-19
17668000,0.00291388,0.012515,0.00475515,0.0,0.0,0.0,1.08449e-19
17700000,-0.0147278,-0.0070023,0.000213613,0.0,0.0,0.0,1.08449e-19
17732000,0.000589082,-0.00778089,0.000734731,0.0,0.0,0.0,1.08449e-19
17764000,-0.0109316,-0.00338378,-0.0288401,0.0,0.0,0.0,1.08449e-19
17796000,-0.0152617,-0.0314819,-0.00667702,0.0,0.0,0.0,1.08449e-19
17828000,0.00733277,0.00472776,0.0153728,0.0,0.0,0.0,1.08449e-19
17860000,0.0274698,0.00352594,-0.00482142,0.0,0.0,0.0,1.08449e-19
17896000,-0.0121352,0.00890427,-0.00466691,0.0,0.0,0.0,1.08449e-19
17928000,0.00324895,-0.00963714,-0.0055867,0.0,0.0,0.0,1.08449e-19
17960000,0.0162982,-0.00442286,-0.0188455,0.0,0.0,0.0,1.08449e-19
17988000,-0.00518856,0.0145489,0.000341405,0.0,0.0,0.0,1.08449e-19
18024000,-0.00498146,0.00986591,0.0173492,0.0,0.0,0.0,1.08449e-19
18056000,0.00163203,-0.00946612,-0.000144321,0.0,0.0,0.0,1.08449e-19
18084000,0.0111824,0.00115625,0.0145879,0.0,0.0,0.0,1.08449e-19
18120000,-0.00341457,0.00715838,0.00946364,0.0,0.0,0.0,1.08449e-19
18148000,-0.00789795,-0.00939407,-0.0104893,0.0,0.0,0.0,1.08449e-19
18180000,-0.009863,0.022063,0.0017018,0.0,0.0,0.0,1.08449e-19
18216000,-0.0131381,-0.00468952,-0.00728781,0.0,0.0,0.0,1.08449e-19
18244000,0.00299443,-0.00567351,0.00721032,0.0,0.0,0.0,1.08449e-19
18276000,-0.00884909,0.00995755,0.00978847,0.0,0.0,0.0,1.08449e-19
18308000,-0.00824192,-0.000636012,-0.000237766,0.0,0.0,0.0,1.08449e-19
18340000,-0.00459051,-0.000674081,-0.0136433,0.0,0.0,0.0,1.08449e-19
18372000,-0.00913363,0.00272155,-0.00919392,0.0,0.0,0.0,1.08449e-19
18408000,-0.00369507,0.0219308,0.00291777,0.0,0.0,0.0,1.08449e-19
18436000,-0.0063377,0.000234357,-0.0102093,0.0,0.0,0.0,1.08449e-19
18472000,-0.0187058,-0.0190565,0.0135084,0.0,0.0,0.0,1.08449e-19
18500000,-0.0130149,0.0140058,0.00646851,0.0,0.0,0.0,1.08449e-19
18532000,-0.00266013,0.0192724,-0.00691781,0.0,0.0,0.0,1.08449e-19
18564000,-0.0039689,-0.00205871,-0.00306048,0.0,0.0,0.0,1.08449e-19
18600000,-0.00874579,-0.00680035,0.00978155,0.0,0.0,0.0,1.08449e-19
18632000,4.42865e-05,0.014308,0.0102308,0.0,0.0,0.0,1.08449e-19
18660000,0.00456272,-0.0133182,-0.00962317,0.0,0.0,0.0,1.08449e-19
18692000,-0.00384038,0.000593499,-0.00434117,0.0,0.0,0.0,1.08449e-19
18724000,-0.00790928,-0.0105773,0.00740324,0.0,0.0,0.0,1.08449e-19
18760000,0.0029233,0.00243787,-0.000654216,0.0,0.0,0.0,1.08449e-19
18788000,-0.00626745,-0.0030144,0.00659487,0.0,0.0,0.0,1.08449e-19
18824000,-0.0123002,-0.014935,0.00699143,0.0,0.0,0.0,1.08449e-19
18852000,0.00810265,-0.00432898,0.0177208,0.0,0.0,0.0,1.08449e-19
18884000,-0.00989693,-0.00650875,0.0118365,0.0,0.0,0.0,1.08449e-19
18916000,0.0061421,-0.00240592,-0.00892092,0.0,0.0,0.0,1.08449e-19
18948000,-0.00970484,0.00175379,-0.00405915,0.0,0.0,0.0,1.08449e-19
18984000,-0.00919284,-0.00231549,0.000889337,0.0,0.0,0.0,1.08449e-19
19012000,-0.00830218,0.00913836,0.00713877,0.0,0.0,0.0,1.08449e-19
19044000,0.00211032,0.00180828,-0.00448357,0.0,0.0,0.0,1.08449e-19
19076000,-0.0101602,-0.0129144,-0.00968382,0.0,0.0,0.0,1.08449e-19
19112000,-0.00148491,-0.00321781,0.0137156,0.0,0.0,0.0,1.08449e-19
19140000,-0.0123527,-0.00119612,-0.00471035,0.0,0.0,0.0,1.08449e-19
19172000,0.00304332,-0.00210418,0.00270614,0.0,0.0,0.0,1.08449e-19
19208000,-0.00564335,0.00546269,-0.00925663,0.0,0.0,0.0,1.08449e-19
19236000,0.00358659,0.0149986,0.0145422,0.0,0.0,0.0,1.08449e-19
19268000,-0.0123343,-0.000725637,-0.0184742,0.0,0.0,0.0,1.08449e-19
19304000,0.0283924,0.0248663,-0.0157243,0.0,0.0,0.0,1.08449e-19
19332000,0.00549477,0.0154562,-0.0238916,0.0,0.0,0.0,1.08449e-19
19364000,-0.00335608,0.0127774,-0.00729705,0.0,0.0,0.0,1.08449e-19
19396000,-0.00701818,0.00936013,0.00807269,0.0,0.0,0.0,1.08449e-19
19428000,-0.00374202,0.0108133,0.000757341,0.0,0.0,0.0,1.08449e-19
19460000,-0.0121992,0.00625681,0.0018499,0.0,0.0,0.0,1.08449e-19
19496000,-0.00438957,-0.00157094,0.00525273,0.0,0.0,0.0,1.08449e-19
19524000,0.00601486,-0.00144943,-0.020735,0.0,0.0,0.0,1.08449e-19
19556000,-0.00287858,0.0205778,0.0120049,0.0,0.0,0.0,1.08449e-19
19588000,0.00548456,-0.0102645,0.00387337,0.0,0.0,0.0,1.08449e-19
19620000,0.0108898,-0.0035928,-0.00168828,0.0,0.0,0.0,1.08449e-19
19652000,0.00113166,-0.0142748,0.0111212,0.0,0.0,0.0,1.08449e-19
19684000,-0.0107957,0.00705358,-0.00104146,0.0,0.0,0.0,1.08449e-19
19716000,0.0147989,-0.00557619,0.0037817,0.0,0.0,0.0,1.08449e-19
19752000,-0.00168186,0.00113469,0.0146337,0.0,0.0,0.0,1.08449e-19
19784000,-0.00140988,0.00426091,0.01573,0.0,0.0,0.0,1.08449e-19
19812000,-0.0131676,0.0131719,0.00645384,0.0,0.0,0.0,1.08449e-19
19844000,0.0107385,-0.00891506,-0.00714096,0.0,0.0,0.0,1.08449e-19
19876000,-0.0132426,-0.000395205,-0.00631441,0.0,0.0,0.0,1.08449e-19
19908000,0.00385226,0.00954358,0.00178822,0.0,0.0,0.0,1.08449e-19
19944000,-9.99413e-05,-0.00385537,-0.00160619,0.0,0.0,0.0,1.08449e-19
19972000,0.00975718,0.00373052,0.00165999,0.0,0.0,0.0,1.08449e-19
20008000,-0.000182568,0.016378,-0.00799002,0.0,0.0,0.0,1.08449e-19
20036000,0.0173721,-0.0106921,-0.0052105,0.0,0.0,0.0,1.08449e-19
20072000,-0.00499736,-0.00438264,0.0154289,0.0,0.0,0.0,1.08449e-19
20104000,-0.00858853,-0.00407688,-0.00232623,0.0,0.0,0.0,1.08449e-19
20136000,-0.0208602,0.0100778,-0.00190002,0.0,0.0,0.0,1.08449e-19
20164000,-0.0053004,-0.00916322,0.00239243,0.0,0.0,0.0,1.08449e-19
20196000,-0.0165066,-0.00575517,0.0106545,0.0,0.0,0.0,1.08449e-19
20228000,-0.00736153,-9.85305e-05,-0.00897945,0.0,0.0,0.0,1.08449e-19
20264000,-0.0100084,0.00847144,0.0103697,0.0,0.0,0.0,1.08449e-19
20292000,-0.014965,-0.00412055,-0.0152107,0.0,0.0,0.0,1.08449e-19
20324000,-0.0147589,0.0207593,-0.00892861,0.0,0.0,0.0,1.08449e-19
20360000,0.00327914,0.0115021,-0.00652242,0.0,0.0,0.0,1.08449e-19
20388000,0.00221223,-0.0155649,0.00117993,0.0,0.0,0.0,1.08449e-19
20424000,0.0118974,-0.00942112,0.00415132,0.0,0.0,0.0,1.08449e-19
20456000,-0.000260152,0.0041545,0.00871359,0.0,0.0,0.0,1.08449e-19
20484000,-0.0164295,-0.000499757,0.0202873,0.0,0.0,0.0,1.08449e-19
20520000,-0.0190347,0.0109634,0.0116857,0.0,0.0,0.0,1.08449e-19
20548000,0.00453208,-0.00980696,0.010701,0.0,0.0,0.0,1.08449e-19
20580000,-0.018707,0.00170878,-0.0107025,0.0,0.0,0.0,1.08449e-19
20612000,0.000303911,0.0125215,0.00485106,0.0,0.0,0.0,1.08449e-19
20648000,-0.00676015,-0.00820942,-0.0124494,0.0,0.0,0.0,1.08449e-19
20680000,-0.00287754,0.00260461,-0.00404154,0.0,0.0,0.0,1.08449e-19
20708000,-0.0106425,-0.00357758,0.00950407,0.0,0.0,0.0,1.08449e-19
20740000,-0.00146218,-0.0107202,-0.0259108,0.0,0.0,0.0,1.08449e-19
20776000,0.0110633,0.000238459,-0.0124685,0.0,0.0,0.0,1.08449e-19
20804000,0.00650602,0.012581,-0.0118264,0.0,0.0,0.0,1.08449e-19
20840000,0.00978858,-0.000970343,0.00288808,0.0,0.0,0.0,1.08449e-19
20868000,0.00734434,-0.00477135,-0.0101336,0.0,0.0,0.0,1.08449e-19
20900000,0.0114969,0.0113165,0.0103644,0.0,0.0,0.0,1.08449e-19
20932000,-0.0134991,-0.0138839,0.000222245,0.0,0.0,0.0,1.08449e-19
20964000,-0.0075288,0.00825194,-0.00429824,0.0,0.0,0.0,1.08449e-19
21000000,-0.00690017,0.011189,-0.00859811,0.0,0.0,0.0,1.08449e-19
21028000,0.00524275,-0.000158458,0.0065903,0.0,0.0,0.0,1.08449e-19
21060000,-0.0110967,-0.0176333,0.0216669,0.0,0.0,0.0,1.08449e-19
21092000,-0.00385589,-0.00486815,-0.00453123,0.0,0.0,0.0,1.08449e-19
21128000,0.000454644,0.0100478,-0.0115136,0.0,0.0,0.0,1.08449e-19
21156000,-0.0104244,-0.00630373,0.00347182,0.0,0.0,0.0,1.08449e-19
21188000,-0.00298781,-0.00930995,-0.0190334,0.0,0.0,0.0,1.08449e-19
21220000,0.00580702,0.000938812,0.0103395,0.0,0.0,0.0,1.08449e-19
21256000,0.00233584,-0.00590834,0.019117,0.0,0.0,0.0,1.08449e-19
21284000,-0.00132602,-0.000179196,-0.0120591,0.0,0.0,0.0,1.08449e-19
21316000,-0.00699565,-0.00194609,-0.0134909,0.0,0.0,0.0,1.08449e-19
21348000,-0.00180871,0.0132615,-0.00277996,0.0,0.0,0.0,1.08449e-19
21384000,-0.0126546,-0.0116064,-0.0137137,0.0,0.0,0.0,1.08449e-19
21416000,-0.013973,-0.0155836,0.00878969,0.0,0.0,0.0,1.08449e-19
21448000,-0.00136489,-0.0128849,0.00131612,0.0,0.0,0.0,1.08449e-19
21476000,-0.0105025,-0.00429956,-0.00767278,0.0,0.0,0.0,1.08449e-19
21508000,-0.000972427,0.00148767,-0.00831655,0.0,0.0,0.0,1.08449e-19
21544000,-0.00154684,-0.000699569,0.00643238,0.0,0.0,0.0,1.08449e-19
21572000,0.0110155,-0.0264962,0.00713703,0.0,0.0,0.0,1.08449e-19
21604000,0.0109513,-0.00715374,0.00611415,0.0,0.0,0.0,1.08449e-19
21640000,-0.0237538,0.0144402,0.00682231,0.0,0.0,0.0,1.08449e-19
21668000,0.00968585,-0.0050903,0.00246166,0.0,0.0,0.0,1.08449e-19
21700000,0.0104441,-0.000888102,-0.00145542,0.0,0.0,0.0,1.08449e-19
21732000,-0.00413843,0.00655006,-0.00564141,0.0,0.0,0.0,1.08449e-19
21768000,-0.0120528,-0.00579908,0.00409049,0.0,0.0,0.0,1.08449e-19
21796000,-0.00872967,0.00524367,-0.00687719,0.0,0.0,0.0,1.08449e-19
21828000,-0.0227588,0.0121743,-0.0292746,0.0,0.0,0.0,1.08449e-19
21864000,0.0157622,-0.011286,0.000846524,0.0,0.0,0.0,1.08449e-19
21896000,0.00182403,-0.0252996,0.00754274,0.0,0.0,0.0,1.08449e-19
21928000,0.00831957,0.00466906,0.000985164,0.0,0.0,0.0,1.08449e-19
21956000,-0.00321086,-0.0181943,0.00498462,0.0,0.0,0.0,1.08449e-19
21988000,0.0156232,0.009183,-0.00963961,0.0,0.0,0.0,1.08449e-19
22020000,-0.00785254,0.0120556,-0.00352781,0.0,0.0,0.0,1.08449e-19
22056000,-0.0126245,-0.0014633,-0.0214464,0.0,0.0,0.0,1.08449e-19
22084000,0.00573634,0.00170967,0.0166996,0.0,0.0,0.0,1.08449e-19
22116000,0.00704397,-0.0133653,0.00301366,0.0,0.0,0.0,1.08449e-19
22148000,0.0188541,-0.00734237,-0.00546194,0.0,0.0,0.0,1.08449e-19
22180000,-0.0136098,0.0111019,-0.00265751,0.0,0.0,0.0,1.08449e-19
22216000,-0.0048809,0.019148,0.00154122,0.0,0.0,0.0,1.08449e-19
22244000,-0.0100065,0.00334961,-0.00972651,0.0,0.0,0.0,1.08449e-19
22276000,0.0054298,-0.0073447,0.0116831,0.0,0.0,0.0,1.08449e-19
22312000,0.0145053,0.018942,0.0116482,0.0,0.0,0.0,1.08449e-19
22340000,0.00242261,0.0153183,-0.00258636,0.0,0.0,0.0,1.08449e-19
22376000,0.0150862,-0.00448801,-0.00119502,0.0,0.0,0.0,1.08449e-19
22408000,-0.00727591,0.0224709,0.0059583,0.0,0.0,0.0,1.08449e-19
22436000,-0.013458,-0.00876084,-0.00245376,0.0,0.0,0.0,1.08449e-19
22472000,0.00289574,-0.000450271,0.00886404,0.0,0.0,0.0,1.08449e-19
22500000,-0.0105291,0.00923077,0.00569538,0.0,0.0,0.0,1.08449e-19
22532000,-0.00401451,0.00613209,0.00410816,0.0,0.0,0.0,1.08449e-19
22564000,-0.0133505,-0.00409315,-0.00869739,0.0,0.0,0.0,1.08449e-19
22596000,-0.0042497,0.0195572,-0.00196823,0.0,0.0,0.0,1.08449e-19
22628000,-0.00334301,-0.0031363,-0.00723261,0.0,0.0,0.0,1.08449e-19
22660000,-0.00689826,-0.00435267,-0.0163871,0.0,0.0,0.0,1.08449e-19
22692000,0.00248902,-0.00895985,0.0031471,0.0,0.0,0.0,1.08449e-19
22724000,-0.0120168,-0.00847851,0.00127151,0.0,0.0,0.0,1.08449e-19
22756000,0.00568587,-0.000835205,-0.00390428,0.0,0.0,0.0,1.08449e-19
22792000,0.00359977,-0.000363868,-0.006743,0.0,0.0,0.0,1.08449e-19
22820000,0.0144704,0.0107503,-0.00140122,0.0,0.0,0.0,1.08449e-19
22852000,0.000961291,-0.013523,0.016156,0.0,0.0,0.0,1.08449e-19
22888000,-0.0162752,0.0088391,0.000568496,0.0,0.0,0.0,1.08449e-19
22920000,-0.0155553,0.0203255,-0.00778328,0.0,0.0,0.0,1.08449e-19
22948000,0.00792133,-0.00676825,-0.00269221,0.0,0.0,0.0,1.08449e-19
22980000,0.00667381,0.0012253,0.00861899,0.0,0.0,0.0,1.08449e-19
23012000,0.0193357,-0.00270941,-0.0174422,0.0,0.0,0.0,1.08449e-19
23044000,0.00655299,0.0123284,-0.0149872,0.0,0.0,0.0,1.08449e-19
23076000,0.00565126,-0.0100201,-0.00126688,0.0,0.0,0.0,1.08449e-19
23108000,0.0113235,0.000751179,-0.00228222,0.0,0.0,0.0,1.08449e-19
23144000,0.00355785,-0.000456001,0.00284138,0.0,0.0,0.0,1.08449e-19
23172000,0.00840202,0.00316137,0.00396607,0.0,0.0,0.0,1.08449e-19
23204000,-0.00170561,-0.00489032,-0.0026707,0.0,0.0,0.0,1.08449e-19
23236000,0.00504738,-0.0260642,-0.0123332,0.0,0.0,0.0,1.08449e-19
23272000,0.016441,-0.0093745,0.00488903,0.0,0.0,0.0,1.08449e-19
23300000,-0.0142893,-0.0030103,0.00164504,0.0,0.0,0.0,1.08449e-19
23336000,0.0201027,0.0182336,-0.00819537,0.0,0.0,0.0,1.08449e-19
23364000,0.0148678,0.00711117,-0.00556639,0.0,0.0,0.0,1.08449e-19
23400000,-0.0180845,0.0172058,-0.00840026,0.0,0.0,0.0,1.08449e-19
23428000,-0.00420284,0.0111523,-0.0127292,0.0,0.0,0.0,1.08449e-19
23460000,-0.0171154,-0.00718139,-0.0169956,0.0,0.0,0.0,1.08449e-19
23492000,-6.56993e-05,0.00649495,0.000235337,0.0,0.0,0.0,1.08449e-19
23524000,0.0161754,0.00518807,-0.00451247,0.0,0.0,0.0,1.08449e-19
23556000,-0.0165196,-0.000880334,-0.00791519,0.0,0.0,0.0,1.08449e-19
23592000,0.00521997,0.0137554,0.000543485,0.0,0.0,0.0,1.08449e-19
23620000,0.0190212,0.000538497,-0.0134905,0.0,0.0,0.0,1.08449e-19
23652000,0.00822641,0.00592455,0.0279254,0.0,0.0,0.0,1.08449e-19
23684000,0.00661696,0.01486,0.00289492,0.0,0.0,0.0,1.08449e-19
23720000,0.0226593,0.0187844,-0.00379665,0.0,0.0,0.0,1.08449e-19
23748000,-0.0104004,-0.00700663,0.00685393,0.0,0.0,0.0,1.08449e-19
23780000,0.0135914,-0.0236991,-0.012968,0.0,0.0,0.0,1.08449e-19
23812000,-0.0070258,-0.00553887,0.00128173,0.0,0.0,0.0,1.08449e-19
23844000,-0.00190704,-0.00764204,0.00530303,0.0,0.0,0.0,1.08449e-19
23876000,-0.0106986,-0.0149887,-0.00234756,0.0,0.0,0.0,1.08449e-19
23908000,0.0132263,0.0206206,-0.00641258,0.0,0.0,0.0,1.08449e-19
23940000,-0.000407204,0.00811029,0.00623415,0.0,0.0,0.0,1.08449e-19
23972000,0.00690571,0.00130826,-0.00519566,0.0,0.0,0.0,1.08449e-19
24004000,0.00251607,-0.00538607,-0.00822124,0.0,0.0,0.0,1.08449e-19
24040000,0.00574988,0.0172617,0.00250274,0.0,0.0,0.0,1.08449e-19
24072000,0.0095891,0.00464986,0.0149176,0.0,0.0,0.0,1.08449e-19
24100000,0.0081604,0.00572025,-0.00359783,0.0,0.0,0.0,1.08449e-19
24132000,0.00338415,-0.00364329,0.00282873,0.0,0.0,0.0,1.08449e-19
24168000,-0.0159296,0.00308039,0.0121632,0.0,0.0,0.0,1.08449e-19
24196000,-0.00963899,0.00881094,-0.00682782,0.0,0.0,0.0,1.08449e-19
24228000,-0.0102707,0.00110237,0.00753819,0.0,0.0,0.0,1.08449e-19
24260000,0.015371,0.00728681,0.00253213,0.0,0.0,0.0,1.08449e-19
24292000,0.0228034,0.0104102,0.00586852,0.0,0.0,0.0,1.08449e-19
24328000,0.0074464,-0.0112252,0.014336,0.0,0.0,0.0,1.08449e-19
24356000,-0.00066735,0.00678278,-0.0104,0.0,0.0,0.0,1.08449e-19
24392000,0.00700291,4.10276e-06,0.0135436,0.0,0.0,0.0,1.08449e-19
24420000,-0.0128316,-0.00359464,-0.000495987,0.0,0.0,0.0,1.08449e-19
24456000,-0.00465264,-0.00149977,-0.00528714,0.0,0.0,0.0,1.08449e-19
24484000,-0.00501605,0.00455541,-0.00869122,0.0,0.0,0.0,1.08449e-19
24516000,0.0060464,0.00182069,0.00863697,0.0,0.0,0.0,1.08449e-19
24548000,-0.0106899,0.00681509,-0.00161149,0.0,0.0,0.0,1.08449e-19
24584000,4.39526e-05,0.0155247,0.00676525,0.0,0.0,0.0,1.08449e-19
24616000,0.00378004,0.00576838,-0.0107733,0.0,0.0,0.0,1.08449e-19
24644000,-0.0152057,-0.00238274,0.0240459,0.0,0.0,0.0,1.08449e-19
24676000,-0.0169096,0.00580365,-0.010579,0.0,0.0,0.0,1.08449e-19
24708000,0.00576628,0.0100739,-0.0142978,0.0,0.0,0.0,1.08449e-19
24740000,0.00519397,-0.00718306,-0.00581519,0.0,0.0,0.0,1.08449e-19
24772000,-0.003572,-0.00957953,-0.0156648,0.0,0.0,0.0,1.08449e-19
24804000,-0.0114893,-0.00878834,0.0104447,0.0,0.0,0.0,1.08449e-19
24840000,-0.00557049,-0.00939758,-0.0199783,0.0,0.0,0.0,1.08449e-19
24868000,-0.00150144,-0.0129197,-0.000916583,0.0,0.0,0.0,1.08449e-19
24904000,-0.00220215,-0.000293667,0.00101652,0.0,0.0,0.0,1.08449e-19
24936000,0.00724246,-0.000387291,-0.00210741,0.0,0.0,0.0,1.08449e-19
24964000,0.000533682,-0.00767866,-0.00311515,0.0,0.0,0.0,1.08449e-19
24996000,-0.00157346,-0.0109978,-0.000821368,0.0,0.0,0.0,1.08449e-19
25028000,-0.000683604,-0.00380197,0.014277,0.0,0.0,0.0,1.08449e-19
25064000,-0.00896629,-0.0050648,-0.00735711,0.0,0.0,0.0,1.08449e-19
25092000,0.00633888,-0.000718768,-0.0112046,0.0,0.0,0.0,1.08449e-19
25124000,-0.00156371,0.0114011,0.011393,0.0,0.0,0.0,1.08449e-19
25160000,-0.00841632,-0.00815238,-0.00612912,0.0,0.0,0.0,1.08449e-19
25188000,0.00433867,-0.0213492,-0.00999647,0.0,0.0,0.0,1.08449e-19
25224000,0.00493323,0.0125845,-0.0014318,0.0,0.0,0.0,1.08449e-19
25252000,-0.0110304,0.0105702,0.00498031,0.0,0.0,0.0,1.08449e-19
25288000,0.00184308,-0.00317376,0.00114292,0.0,0.0,0.0,1.08449e-19
25316000,0.00844071,-0.0101407,-0.00592142,0.0,0.0,0.0,1.08449e-19
25348000,-0.00404928,0.000488248,-0.000967039,0.0,0.0,0.0,1.08449e-19
25384000,-0.00572164,-0.0160349,0.0112834,0.0,0.0,0.0,1.08449e-19
25412000,0.000528482,0.0093829,0.00632721,0.0,0.0,0.0,1.08449e-19
25448000,0.00563193,0.00126932,-0.0122337,0.0,0.0,0.0,1.08449e-19
25476000,0.00234092,-0.00225492,-0.00653283,0.0,0.0,0.0,1.08449e-19
25512000,-0.00923899,0.0101352,0.0154622,0.0,0.0,0.0,1.08449e-19
25540000,-0.000378202,0.00505024,0.00257597,0.0,0.0,0.0,1.08449e-19
25576000,-0.00171104,-0.00774784,0.0110983,0.0,0.0,0.0,1.08449e-19
25608000,0.0145159,0.00901139,-0.018326,0.0,0.0,0.0,1.08449e-19
25640000,-0.00249085,0.0189214,-0.00533338,0.0,0.0,0.0,1.08449e-19
25668000,-0.0179755,-0.000676077,-0.0183317,0.0,0.0,0.0,1.08449e-19
25704000,0.010878,0.00234998,0.00982105,0.0,0.0,0.0,1.08449e-19
25732000,-0.000230276,-0.00621015,0.00478637,0.0,0.0,0.0,1.08449e-19
25764000,-0.00664373,-0.015339,0.000223494,0.0,0.0,0.0,1.08449e-19
25800000,0.0131858,0.00742702,0.00196805,0.0,0.0,0.0,1.08449e-19
25828000,-0.0102059,-0.00367984,-0.00826144,0.0,0.0,0.0,1.08449e-19
25860000,-0.000567711,-0.00312878,0.00224227,0.0,0.0,0.0,1.08449e-19
25892000,0.00180992,0.00974569,0.00899938,0.0,0.0,0.0,1.08449e-19
25928000,0.0107409,-0.016475,-0.0106823,0.0,0.0,0.0,1.08449e-19
25960000,-0.00762777,-0.000846318,-0.00673839,0.0,0.0,0.0,1.08449e-19
25988000,0.00621009,0.0041075,-0.0119497,0.0,0.0,0.0,1.08449e-19
26020000,-0.00936822,-0.0203096,0.011954,0.0,0.0,0.0,1.08449e-19
26056000,-0.00533998,0.00555121,0.0128609,0.0,0.0,0.0,1.08449e-19
26088000,-0.000138001,0.00370224,-0.00773005,0.0,0.0,0.0,1.08449e-19
26120000,0.000220102,-0.0134713,-0.00895224,0.0,0.0,0.0,1.08449e-19
26148000,0.00814049,-0.00703496,0.0133401,0.0,0.0,0.0,1.08449e-19
26184000,-0.00350541,-0.0227316,0.00885703,0.0,0.0,0.0,1.08449e-19
26212000,-0.00667643,0.00312786,0.00760708,0.0,0.0,0.0,1.08449e-19
26244000,-0.0100668,0.00670672,-0.0184573,0.0,0.0,0.0,1.08449e-19
26280000,-0.00328052,0.00537472,0.0122541,0.0,0.0,0.0,1.08449e-19
26308000,-0.00901781,0.00381127,-0.0101587,0.0,0.0,0.0,1.08449e-19
26344000,0.00812784,0.00484368,0.0175268,0.0,0.0,0.0,1.08449e-19
26376000,0.00964029,-0.000773049,0.00028283,0.0,0.0,0.0,1.08449e-19
26408000,0.00428,-0.00496077,0.0126645,0.0,0.0,0.0,1.08449e-19
26440000,0.00199289,-0.00411214,-0.00143172,0.0,0.0,0.0,1.08449e-19
26468000,0.0107868,0.0155799,-0.00613733,0.0,0.0,0.0,1.08449e-19
26500000,-0.000163841,0.0131657,-0.0109416,0.0,0.0,0.0,1.08449e-19
26532000,-0.00640381,0.00265926,0.000996501,0.0,0.0,0.0,1.08449e-19
26564000,0.000111817,-0.00410595,-0.00734683,0.0,0.0,0.0,1.08449e-19
26596000,-0.0083873,-0.00947472,-0.00497463,0.0,0.0,0.0,1.08449e-19
26632000,-0.00899049,-0.00917716,-0.0059863,0.0,0.0,0.0,1.08449e-19
26664000,-0.00111363,-0.0109306,0.0177517,0.0,0.0,0.0,1.08449e-19
26696000,-0.0073695,0.00863435,0.0155228,0.0,0.0,0.0,1.08449e-19
26724000,-0.00345699,0.0011056,0.00918919,0.0,0.0,0.0,1.08449e-19
26756000,5.9738e-05,-0.00300037,0.00717284,0.0,0.0,0.0,1.08449e-19
26788000,-0.0150581,-0.00150551,0.00799759,0.0,0.0,0.0,1.08449e-19
26820000,-0.00489894,-0.00127042,0.00821571,0.0,0.0,0.0,1.08449e-19
26852000,-0.00250515,-0.0105612,-0.0078306,0.0,0.0,0.0,1.08449e-19
26884000,0.00393397,0.0157332,0.0112038,0.0,0.0,0.0,1.08449e-19
26916000,-0.00432292,-0.0083602,0.00655241,0.0,0.0,0.0,1.08449e-19
26948000,-0.00809832,0.0109374,-0.00327989,0.0,0.0,0.0,1.08449e-19
26980000,0.00261014,-0.00850964,0.00701338,0.0,0.0,0.0,1.08449e-19
27012000,0.00134154,-0.0138742,-0.013436,0.0,0.0,0.0,1.08449e-19
27044000,-0.00330286,-0.0106942,0.00119716,0.0,0.0,0.0,1.08449e-19
27076000,-0.0130254,0.00703155,-0.0160621,0.0,0.0,0.0,1.08449e-19
27112000,-0.00111425,0.00718557,0.0144341,0.0,0.0,0.0,1.08449e-19
27144000,0.00676399,0.00792932,-0.00572879,0.0,0.0,0.0,1.08449e-19
27172000,0.0125258,-0.00852376,0.0126669,0.0,0.0,0.0,1.08449e-19
27204000,-0.00476559,-0.0185045,0.00197207,0.0,0.0,0.0,1.08449e-19
27236000,-0.00224315,-0.00907036,-0.00120416,0.0,0.0,0.0,1.08449e-19
27272000,-0.0121024,-0.015624,-0.0113502,0.0,0.0,0.0,1.08449e-19
27304000,0.0158795,0.00311597,0.0110875,0.0,0.0,0.0,1.08449e-19
27332000,0.0200403,-0.00698498,-0.00107404,0.0,0.0,0.0,1.08449e-19
27368000,0.0142553,-0.0157868,-0.010817,0.0,0.0,0.0,1.08449e-19
27400000,-0.00741178,-0.00881007,-0.00454781,0.0,0.0,0.0,1.08449e-19
27432000,0.00996804,0.00465545,-0.014208,0.0,0.0,0.0,1.08449e-19
27460000,0.000367825,0.0244685,0.0101619,0.0,0.0,0.0,1.08449e-19
27492000,0.00281068,-0.00141865,0.00888313,0.0,0.0,0.0,1.08449e-19
27524000,-0.00298213,-0.00657444,-0.00398234,0.0,0.0,0.0,1.08449e-19
27556000,-0.00915164,-0.018569,0.0178082,0.0,0.0,0.0,1.08449e-19
27592000,0.00343759,0.0132454,-0.00853917,0.0,0.0,0.0,1.08449e-19
27624000,0.00275003,-0.0133036,2.99481e-05,0.0,0.0,0.0,1.08449e-19
27656000,0.0181395,-0.00728855,0.00646693,0.0,0.0,0.0,1.08449e-19
27688000,-0.00148227,-0.0200467,-0.00963339,0.0,0.0,0.0,1.08449e-19
27716000,-0.00472393,0.0105023,-0.00487176,0.0,0.0,0.0,1.08449e-19
27748000,0.00383993,0.00778624,0.00398304,0.0,0.0,0.0,1.08449e-19
27780000,0.00652091,-0.00076492,0.0114779,0.0,0.0,0.0,1.08449e-19
27816000,0.0184249,-0.00263958,-0.00280232,0.0,0.0,0.0,1.08449e-19
27848000,-0.00625288,-0.00150604,-0.0061964,0.0,0.0,0.0,1.08449e-19
27876000,-0.0154317,0.0134515,-0.00550126,0.0,0.0,0.0,1.08449e-19
27912000,0.00697855,-0.000510811,-0.0054809,0.0,0.0,0.0,1.08449e-19
27944000,-0.00158452,-0.0099367,-0.0139902,0.0,0.0,0.0,1.08449e-19
27976000,-0.00241981,-0.00499812,-0.00848301,0.0,0.0,0.0,1.08449e-19
28004000,-0.0114262,0.00871673,-0.00632375,0.0,0.0,0.0,1.08449e-19
28040000,-0.013613,-0.0154734,-0.0104008,0.0,0.0,0.0,1.08449e-19
28068000,-0.00812384,0.0134651,0.0155752,0.0,0.0,0.0,1.08449e-19
28104000,-0.00890277,-0.00567037,-0.00136382,0.0,0.0,0.0,1.08449e-19
28132000,-0.00510648,0.0143765,-0.0154154,0.0,0.0,0.0,1.08449e-19
28164000,-0.00555355,0.0135519,0.00520046,0.0,0.0,0.0,1.08449e-19
28200000,0.00110693,0.0239025,-0.000529821,0.0,0.0,0.0,1.08449e-19
28228000,-0.00423744,-0.0153155,0.0128222,0.0,0.0,0.0,1.08449e-19
28264000,-0.00682876,0.00179307,-0.010316,0.0,0.0,0.0,1.08449e-19
28296000,-0.00516437,0.00829223,0.0220315,0.0,0.0,0.0,1.08449e-19
28328000,0.0214059,-0.00218922,-0.000356146,0.0,0.0,0.0,1.08449e-19
28360000,-0.00740929,-0.00294348,0.0147876,0.0,0.0,0.0,1.08449e-19
28392000,0.0034666,-0.00236821,0.015002,0.0,0.0,0.0,1.08449e-19
28424000,0.00267866,0.0170333,-0.00823639,0.0,0.0,0.0,1.08449e-19
28452000,-0.0121506,-6.13346e-05,0.00194316,0.0,0.0,0.0,1.08449e-19
28488000,0.00275299,-0.00385843,-0.00952488,0.0,0.0,0.0,1.08449e-19
28516000,0.00288487,-0.00311802,-0.00399972,0.0,0.0,0.0,1.08449e-19
28548000,0.0142067,0.00576035,0.0157648,0.0,0.0,0.0,1.08449e-19
28580000,0.0105087,-0.0109192,0.0336362,0.0,0.0,0.0,1.08449e-19
28612000,0.0115475,-0.00743947,0.00891348,0.0,0.0,0.0,1.08449e-19
28644000,-0.0104977,0.00573652,-0.0026526,0.0,0.0,0.0,1.08449e-19
28676000,0.00326916,-0.00751575,0.00377042,0.0,0.0,0.0,1.08449e-19
28708000,0.00902088,-0.00918638,0.000224161,0.0,0.0,0.0,1.08449e-19
28740000,-0.01166,-0.0122467,0.00467724,0.0,0.0,0.0,1.08449e-19
28776000,0.00164169,0.00903467,0.0159398,0.0,0.0,0.0,1.08449e-19
28804000,-0.00583154,0.0148855,-0.0110928,0.0,0.0,0.0,1.08449e-19
28836000,0.00673918,0.000580129,0.0014064,0.0,0.0,0.0,1.08449e-19
28872000,-0.013419,0.00483092,0.00277094,0.0,0.0,0.0,1.08449e-19
28900000,0.0138018,-0.0103476,0.00262176,0.0,0.0,0.0,1.08449e-19
28936000,0.00608379,0.00178524,0.0171207,0.0,0.0,0.0,1.08449e-19
28964000,0.0111743,0.00643792,0.0167306,0.0,0.0,0.0,1.08449e-19
29000000,0.0108262,-0.00836708,0.0115101,0.0,0.0,0.0,1.08449e-19
29028000,0.0093559,-0.0085503,-0.00322306,0.0,0.0,0.0,1.08449e-19
29064000,-0.0132476,-0.00459813,-0.00949521,0.0,0.0,0.0,1.08449e-19
29092000,0.0216186,-0.0219395,-0.00137989,0.0,0.0,0.0,1.08449e-19
29124000,0.0061982,0.00858652,0.012825,0.0,0.0,0.0,1.08449e-19
29156000,-0.00887392,-0.0186621,-0.00209582,0.0,0.0,0.0,1.08449e-19
29192000,0.0163363,-0.00294695,0.0050835,0.0,0.0,0.0,1.08449e-19
29220000,-0.00385371,0.0240453,0.00476445,0.0,0.0,0.0,1.08449e-19
29252000,0.00652709,-0.00669716,-0.000677463,0.0,0.0,0.0,1.08449e-19
29284000,-0.00637474,0.00101908,0.00590603,0.0,0.0,0.0,1.08449e-19
29320000,-0.000513398,0.00875239,-0.020469,0.0,0.0,0.0,1.08449e-19
29352000,0.00349465,0.00804008,-0.00540812,0.0,0.0,0.0,1.08449e-19
29380000,-0.00431705,-0.00142843,-0.0154925,0.0,0.0,0.0,1.08449e-19
29412000,0.00184656,-0.00240242,0.0103917,0.0,0.0,0.0,1.08449e-19
29448000,-0.0248078,-0.00177835,-0.00894958,0.0,0.0,0.0,1.08449e-19
29480000,0.0122301,-0.000721822,0.000896321,0.0,0.0,0.0,1.08449e-19
29508000,0.0146289,-0.0151601,0.00486075,0.0,0.0,0.0,1.08449e-19
29540000,0.0101326,0.000935366,0.00257192,0.0,0.0,0.0,1.08449e-19
29576000,0.0226711,0.00328015,-0.00207329,0.0,0.0,0.0,1.08449e-19
29608000,-0.00983102,-0.00585361,-0.00206991,0.0,0.0,0.0,1.08449e-19
29640000,0.00218655,-0.00875418,-0.0156885,0.0,0.0,0.0,1.08449e-19
29668000,-0.00595225,0.00398919,-0.0134411,0.0,0.0,0.0,1.08449e-19
29704000,-0.00117167,-2.99275e-05,0.0130539,0.0,0.0,0.0,1.08449e-19
29732000,-0.0141083,-0.00220292,0.00703796,0.0,0.0,0.0,1.08449e-19
29764000,-0.00114568,0.0025692,-0.0174204,0.0,0.0,0.0,1.08449e-19
29800000,-0.00436162,-0.00777859,-0.00270586,0.0,0.0,0.0,1.08449e-19
29828000,-0.00176741,-0.00613893,-0.00128044,0.0,0.0,0.0,1.08449e-19
29860000,-0.00265589,0.00154068,-0.0129353,0.0,0.0,0.0,1.08449e-19
29892000,0.00423829,-0.0094008,0.00139479,0.0,0.0,0.0,1.08449e-19
29928000,0.0108479,-0.00827032,-0.00210257,0.0,0.0,0.0,1.08449e-19
29956000,-0.0096899,-0.0137798,-0.00809994,0.0,0.0,0.0,1.08449e-19
29988000,-0.00416012,-0.00518961,0.0163183,0.0,0.0,0.0,1.08449e-19
30020000,-0.000859625,0.00139779,-0.00604114,0.0,0.0,0.0,1.08449e-19
30052000,0.008339,-0.0221316,-0.0030767,0.0,0.0,0.0,1.08449e-19
30084000,-0.0127167,-0.0108439,-0.000132647,0.0,0.0,0.0,1.08449e-19
30116000,0.00510392,0.00350512,-0.0134888,0.0,0.0,0.0,1.08449e-19
30148000,-0.0137175,-0.00621451,0.0103483,0.0,0.0,0.0,1.08449e-19
30184000,-0.00527149,-0.00187034,0.0155326,0.0,0.0,0.0,1.08449e-19
30212000,-0.0130367,-0.023235,0.0120458,0.0,0.0,0.0,1.08449e-19
30244000,0.00542927,-0.00285511,0.015117,0.0,0.0,0.0,1.08449e-19
30276000,0.019942,0.00240107,0.0119525,0.0,0.0,0.0,1.08449e-19
30308000,0.00289154,0.0126188,-0.00649877,0.0,0.0,0.0,1.08449e-19
30340000,-0.00594504,0.0131414,-0.00232505,0.0,0.0,0.0,1.08449e-19
30372000,0.0023869,-0.00519935,-0.0161214,0.0,0.0,0.0,1.08449e-19
30404000,0.00867206,-0.0020898,-0.00149344,0.0,0.0,0.0,1.08449e-19
30440000,0.0103462,-0.0159802,0.0083996,0.0,0.0,0.0,1.08449e-19
30472000,-0.00879909,-0.0102426,0.00256875,0.0,0.0,0.0,1.08449e-19
30500000,0.00718677,-0.0122808,0.00332189,0.0,0.0,0.0,1.08449e-19
30536000,0.00158115,-0.00309533,-0.00407186,0.0,0.0,0.0,1.08449e-19
30564000,-0.0104019,-0.0245344,-0.00581271,0.0,0.0,0.0,1.08449e-19
30596000,-0.0119514,0.00240639,0.00750458,0.0,0.0,0.0,1.08449e-19
30628000,0.00674692,-0.00675441,-0.0149115,0.0,0.0,0.0,1.08449e-19
30664000,0.00614558,-0.000405724,0.0134276,0.0,0.0,0.0,1.08449e-19
30692000,0.0181069,-0.00384552,-0.00531501,0.0,0.0,0.0,1.08449e-19
30724000,-0.00133967,-0.0026861,0.003388,0.0,0.0,0.0,1.08449e-19
30760000,-0.0106489,0.00400897,0.0175806,0.0,0.0,0.0,1.08449e-19
