%timestamp,roll_body,pitch_body,yaw_body,yaw_sp_move_rate,q_d[0],q_d[1],q_d[2],q_d[3],thrust_body[0],thrust_body[1],thrust_body[2],q_d_valid,roll_reset_integral,pitch_reset_integral,yaw_reset_integral,fw_control_yaw,apply_flaps
1952000,0.0,0.610865,-0.0387257,0.0,0.953538,0.00582216,0.300649,-0.0184655,0.0,0.0,-0.08,1,0,0,0,0,0
2056000,0.0,0.610865,-0.0389204,0.0,0.953536,0.00585143,0.300649,-0.0185583,0.0,0.0,-0.08,1,0,0,0,0,0
2152000,0.0,0.610865,-0.0384798,0.0,0.95354,0.0057852,0.30065,-0.0183483,0.0,0.0,-0.08,1,0,0,0,0,0
2248000,0.0,0.610865,-0.0382715,0.0,0.953542,0.00575388,0.300651,-0.018249,0.0,0.0,-0.08,1,0,0,0,0,0
2356000,0.0,0.610865,-0.0377442,0.0,0.953547,0.00567462,0.300652,-0.0179976,0.0,0.0,-0.08,1,0,0,0,0,0
2456000,0.0,0.610865,-0.0374958,0.0,0.953549,0.00563727,0.300653,-0.0178791,0.0,0.0,-0.08,1,0,0,0,0,0
2556000,0.0,0.610865,-0.0375785,0.0,0.953549,0.00564971,0.300653,-0.0179186,0.0,0.0,-0.08,1,0,0,0,0,0
2652000,0.0,0.610865,-0.0375038,0.0,0.953549,0.00563847,0.300653,-0.0178829,0.0,0.0,-0.08,1,0,0,0,0,0
2756000,0.0,0.610865,-0.0371051,0.0,0.953553,0.00557854,0.300654,-0.0176929,0.0,0.0,-0.08,1,0,0,0,0,0
2852000,0.0,0.610865,-0.0372864,0.0,0.953551,0.0056058,0.300654,-0.0177793,0.0,0.0,-0.08,1,0,0,0,0,0
2952000,0.0,0.610865,-0.037248,0.0,0.953552,0.00560002,0.300654,-0.017761,0.0,0.0,-0.08,1,0,0,0,0,0
3056000,0.0,0.610865,-0.0371808,0.0,0.953552,0.00558991,0.300654,-0.0177289,0.0,0.0,-0.08,1,0,0,0,0,0
3152000,0.0,0.610865,-0.0373115,0.0,0.953551,0.00560956,0.300654,-0.0177913,0.0,0.0,-0.08,1,0,0,0,0,0
3256000,0.0,0.610865,-0.0370438,0.0,0.953553,0.00556932,0.300654,-0.0176636,0.0,0.0,-0.08,1,0,0,0,0,0
3352000,0.0,0.610865,-0.0370508,0.0,0.953553,0.00557037,0.300654,-0.017667,0.0,0.0,-0.08,1,0,0,0,0,0
3452000,0.0,0.610865,-0.036517,0.0,0.953558,0.00549013,0.300656,-0.0174125,0.0,0.0,-0.08,1,0,0,0,0,0
3552000,0.0,0.610865,-0.0361448,0.0,0.953561,0.00543419,0.300657,-0.017235,0.0,0.0,-0.08,1,0,0,0,0,0
3656000,0.0,0.610865,-0.036244,0.0,0.95356,0.00544909,0.300656,-0.0172823,0.0,0.0,-0.08,1,0,0,0,0,0
3756000,0.0,0.610865,-0.0364065,0.0,0.953559,0.00547353,0.300656,-0.0173598,0.0,0.0,-0.08,1,0,0,0,0,0
3852000,0.0,0.610865,-0.0364299,0.0,0.953559,0.00547703,0.300656,-0.0173709,0.0,0.0,-0.08,1,0,0,0,0,0
3952000,0.0,0.610865,-0.0366459,0.0,0.953557,0.00550951,0.300655,-0.0174739,0.0,0.0,-0.08,1,0,0,0,0,0
4052000,0.0,0.610865,-0.0368094,0.0,0.953555,0.00553408,0.300655,-0.0175519,0.0,0.0,-0.08,1,0,0,0,0,0
4152000,0.0,0.610865,-0.0368696,0.0,0.953555,0.00554314,0.300655,-0.0175806,0.0,0.0,-0.08,1,0,0,0,0,0
4252000,0.0,0.610865,-0.0370687,0.0,0.953553,0.00557307,0.300654,-0.0176755,0.0,0.0,-0.08,1,0,0,0,0,0
4352000,0.0,0.610865,-0.0373669,0.0,0.953551,0.0056179,0.300653,-0.0178177,0.0,0.0,-0.08,1,0,0,0,0,0
4452000,0.0,0.610865,-0.037139,0.0,0.953552,0.00558364,0.300654,-0.017709,0.0,0.0,-0.08,1,0,0,0,0,0
4556000,0.0,0.610865,-0.0372832,0.0,0.953551,0.00560531,0.300654,-0.0177778,0.0,0.0,-0.08,1,0,0,0,0,0
4652000,0.0,0.610865,-0.0374569,0.0,0.95355,0.00563143,0.300653,-0.0178606,0.0,0.0,-0.08,1,0,0,0,0,0
4748000,0.0,0.610865,-0.0374518,0.0,0.95355,0.00563066,0.300653,-0.0178582,0.0,0.0,-0.08,1,0,0,0,0,0
4852000,0.0,0.610865,-0.037604,0.0,0.953548,0.00565354,0.300653,-0.0179307,0.0,0.0,-0.08,1,0,0,0,0,0
4956000,0.0,0.610865,-0.0372619,0.0,0.953551,0.00560211,0.300654,-0.0177676,0.0,0.0,-0.08,1,0,0,0,0,0
5048000,0.0,0.610865,-0.0372984,0.0,0.953551,0.00560759,0.300654,-0.017785,0.0,0.0,-0.08,1,0,0,0,0,0
5148000,0.0,0.610865,-0.0373724,0.0,0.95355,0.00561872,0.300653,-0.0178203,0.0,0.0,-0.08,1,0,0,0,0,0
5252000,0.0,0.610865,-0.0375071,0.0,0.953549,0.00563897,0.300653,-0.0178845,0.0,0.0,-0.08,1,0,0,0,0,0
5352000,0.0,0.610865,-0.0377187,0.0,0.953547,0.00567078,0.300652,-0.0179854,0.0,0.0,-0.08,1,0,0,0,0,0
5448000,0.0,0.610865,-0.0376341,0.0,0.953548,0.00565807,0.300653,-0.0179451,0.0,0.0,-0.08,1,0,0,0,0,0
5552000,0.0,0.610865,-0.0374601,0.0,0.95355,0.0056319,0.300653,-0.0178621,0.0,0.0,-0.08,1,0,0,0,0,0
5652000,0.0,0.610865,-0.0376456,0.0,0.953548,0.0056598,0.300653,-0.0179506,0.0,0.0,-0.08,1,0,0,0,0,0
5752000,0.0,0.610865,-0.0376074,0.0,0.953548,0.00565404,0.300653,-0.0179323,0.0,0.0,-0.08,1,0,0,0,0,0
5848000,0.0,0.610865,-0.0382319,0.0,0.953543,0.00574793,0.300651,-0.0182301,0.0,0.0,-0.08,1,0,0,0,0,0
5948000,0.0,0.610865,-0.0381497,0.0,0.953543,0.00573557,0.300651,-0.0181909,0.0,0.0,-0.08,1,0,0,0,0,0
6056000,0.0,0.610865,-0.0384798,0.0,0.95354,0.0057852,0.30065,-0.0183483,0.0,0.0,-0.08,1,0,0,0,0,0
6152000,0.0,0.610865,-0.038415,0.0,0.953541,0.00577546,0.30065,-0.0183174,0.0,0.0,-0.08,1,0,0,0,0,0
6248000,0.0,0.610865,-0.0386843,0.0,0.953539,0.00581594,0.30065,-0.0184458,0.0,0.0,-0.08,1,0,0,0,0,0
6352000,0.0,0.610865,-0.0383088,0.0,0.953542,0.00575948,0.300651,-0.0182667,0.0,0.0,-0.08,1,0,0,0,0,0
6452000,0.0,0.610865,-0.0385395,0.0,0.95354,0.00579417,0.30065,-0.0183767,0.0,0.0,-0.08,1,0,0,0,0,0
6552000,0.0,0.610865,-0.0382861,0.0,0.953542,0.00575607,0.300651,-0.0182559,0.0,0.0,-0.08,1,0,0,0,0,0
6648000,0.0,0.610865,-0.0386298,0.0,0.953539,0.00580775,0.30065,-0.0184198,0.0,0.0,-0.08,1,0,0,0,0,0
6756000,0.0,0.610865,-0.0385154,0.0,0.95354,0.00579055,0.30065,-0.0183653,0.0,0.0,-0.08,1,0,0,0,0,0
6852000,0.0,0.610865,-0.038201,0.0,0.953543,0.00574328,0.300651,-0.0182153,0.0,0.0,-0.08,1,0,0,0,0,0
6952000,0.0,0.610865,-0.0381585,0.0,0.953543,0.0057369,0.300651,-0.0181951,0.0,0.0,-0.08,1,0,0,0,0,0
7052000,0.0,0.610865,-0.0379808,0.0,0.953545,0.00571018,0.300652,-0.0181104,0.0,0.0,-0.08,1,0,0,0,0,0
7152000,0.0,0.610865,-0.0379306,0.0,0.953545,0.00570264,0.300652,-0.0180865,0.0,0.0,-0.08,1,0,0,0,0,0
7256000,0.0,0.610865,-0.0376785,0.0,0.953548,0.00566473,0.300653,-0.0179662,0.0,0.0,-0.08,1,0,0,0,0,0
7352000,0.0,0.610865,-0.03752,0.0,0.953549,0.00564091,0.300653,-0.0178907,0.0,0.0,-0.08,1,0,0,0,0,0
7452000,0.0,0.610865,-0.0373292,0.0,0.953551,0.00561223,0.300653,-0.0177997,0.0,0.0,-0.08,1,0,0,0,0,0
7548000,0.0,0.610865,-0.0372112,0.0,0.953552,0.0055945,0.300654,-0.0177435,0.0,0.0,-0.08,1,0,0,0,0,0
7652000,0.0,0.610865,-0.0372324,0.0,0.953552,0.00559767,0.300654,-0.0177535,0.0,0.0,-0.08,1,0,0,0,0,0
7756000,0.0,0.610865,-0.037372,0.0,0.95355,0.00561867,0.300653,-0.0178201,0.0,0.0,-0.08,1,0,0,0,0,0
7848000,0.0,0.610865,-0.0372396,0.0,0.953552,0.00559875,0.300654,-0.017757,0.0,0.0,-0.08,1,0,0,0,0,0
7952000,0.0,0.610865,-0.0372091,0.0,0.953552,0.00559417,0.300654,-0.0177424,0.0,0.0,-0.08,1,0,0,0,0,0
8052000,0.0,0.610865,-0.0371182,0.0,0.953553,0.00558051,0.300654,-0.0176991,0.0,0.0,-0.08,1,0,0,0,0,0
8148000,0.0,0.610865,-0.0369488,0.0,0.953554,0.00555504,0.300655,-0.0176183,0.0,0.0,-0.08,1,0,0,0,0,0
8252000,0.0,0.610865,-0.0370253,0.0,0.953553,0.00556654,0.300654,-0.0176548,0.0,0.0,-0.08,1,0,0,0,0,0
8352000,0.0,0.610865,-0.0366624,0.0,0.953557,0.005512,0.300655,-0.0174818,0.0,0.0,-0.08,1,0,0,0,0,0
8452000,0.0,0.610865,-0.0366802,0.0,0.953557,0.00551467,0.300655,-0.0174903,0.0,0.0,-0.08,1,0,0,0,0,0
8556000,0.0,0.610865,-0.0366285,0.0,0.953557,0.00550689,0.300655,-0.0174656,0.0,0.0,-0.08,1,0,0,0,0,0
8652000,0.0,0.610865,-0.0366336,0.0,0.953557,0.00550767,0.300655,-0.0174681,0.0,0.0,-0.08,1,0,0,0,0,0
8752000,0.0,0.610865,-0.036863,0.0,0.953555,0.00554214,0.300655,-0.0175774,0.0,0.0,-0.08,1,0,0,0,0,0
8856000,0.0,0.610865,-0.0368287,0.0,0.953555,0.00553698,0.300655,-0.0175611,0.0,0.0,-0.08,1,0,0,0,0,0
8952000,0.0,0.610865,-0.036905,0.0,0.953555,0.00554846,0.300655,-0.0175975,0.0,0.0,-0.08,1,0,0,0,0,0
9052000,0.0,0.610865,-0.0367727,0.0,0.953556,0.00552857,0.300655,-0.0175344,0.0,0.0,-0.08,1,0,0,0,0,0
9152000,0.0,0.610865,-0.0365058,0.0,0.953558,0.00548844,0.300656,-0.0174071,0.0,0.0,-0.08,1,0,0,0,0,0
9256000,0.0,0.610865,-0.0365677,0.0,0.953558,0.00549776,0.300656,-0.0174366,0.0,0.0,-0.08,1,0,0,0,0,0
9356000,0.0,0.610865,-0.0367275,0.0,0.953556,0.00552178,0.300655,-0.0175128,0.0,0.0,-0.08,1,0,0,0,0,0
9456000,0.0,0.610865,-0.0366202,0.0,0.953557,0.00550565,0.300655,-0.0174617,0.0,0.0,-0.08,1,0,0,0,0,0
9556000,0.0,0.610865,-0.0365291,0.0,0.953558,0.00549196,0.300656,-0.0174183,0.0,0.0,-0.08,1,0,0,0,0,0
9652000,0.0,0.610865,-0.0365461,0.0,0.953558,0.0054945,0.300656,-0.0174263,0.0,0.0,-0.08,1,0,0,0,0,0
9756000,0.0,0.610865,-0.0365397,0.0,0.953558,0.00549354,0.300656,-0.0174233,0.0,0.0,-0.08,1,0,0,0,0,0
9856000,0.0,0.610865,-0.0366849,0.0,0.953557,0.00551537,0.300655,-0.0174925,0.0,0.0,-0.08,1,0,0,0,0,0
9956000,0.0,0.610865,-0.0364672,0.0,0.953558,0.00548265,0.300656,-0.0173887,0.0,0.0,-0.08,1,0,0,0,0,0
10052000,0.0,0.610865,-0.0364372,0.0,0.953559,0.00547814,0.300656,-0.0173744,0.0,0.0,-0.08,1,0,0,0,0,0
10152000,0.0,0.610865,-0.0364507,0.0,0.953559,0.00548017,0.300656,-0.0173809,0.0,0.0,-0.08,1,0,0,0,0,0
10256000,0.0,0.610865,-0.036593,0.0,0.953557,0.00550156,0.300656,-0.0174487,0.0,0.0,-0.08,1,0,0,0,0,0
10356000,0.0,0.610865,-0.0367792,0.0,0.953556,0.00552955,0.300655,-0.0175375,0.0,0.0,-0.08,1,0,0,0,0,0
10452000,0.0,0.610865,-0.0367727,0.0,0.953556,0.00552857,0.300655,-0.0175344,0.0,0.0,-0.08,1,0,0,0,0,0
10556000,0.0,0.610865,-0.0368743,0.0,0.953555,0.00554385,0.300655,-0.0175828,0.0,0.0,-0.08,1,0,0,0,0,0
10648000,0.0,0.610865,-0.0373716,0.0,0.95355,0.0056186,0.300653,-0.0178199,0.0,0.0,-0.08,1,0,0,0,0,0
10756000,0.0,0.610865,-0.0373357,0.0,0.953551,0.0056132,0.300653,-0.0178028,0.0,0.0,-0.08,1,0,0,0,0,0
10856000,0.0,0.610865,-0.0369519,0.0,0.953554,0.0055555,0.300655,-0.0176198,0.0,0.0,-0.08,1,0,0,0,0,0
10956000,0.0,0.610865,-0.037093,0.0,0.953553,0.00557672,0.300654,-0.0176871,0.0,0.0,-0.08,1,0,0,0,0,0
11052000,0.0,0.610865,-0.036538,0.0,0.953558,0.00549328,0.300656,-0.0174225,0.0,0.0,-0.08,1,0,0,0,0,0
11156000,0.0,0.610865,-0.0366722,0.0,0.953557,0.00551347,0.300655,-0.0174865,0.0,0.0,-0.08,1,0,0,0,0,0
11252000,0.0,0.610865,-0.036883,0.0,0.953555,0.00554516,0.300655,-0.017587,0.0,0.0,-0.08,1,0,0,0,0,0
11356000,0.0,0.610865,-0.0368893,0.0,0.953555,0.00554611,0.300655,-0.01759,0.0,0.0,-0.08,1,0,0,0,0,0
11456000,0.0,0.610865,-0.0367759,0.0,0.953556,0.00552906,0.300655,-0.0175359,0.0,0.0,-0.08,1,0,0,0,0,0
11556000,0.0,0.610865,-0.0367302,0.0,0.953556,0.00552218,0.300655,-0.0175141,0.0,0.0,-0.08,1,0,0,0,0,0
11648000,0.0,0.610865,-0.0366515,0.0,0.953557,0.00551035,0.300655,-0.0174766,0.0,0.0,-0.08,1,0,0,0,0,0
11752000,0.0,0.610865,-0.0366273,0.0,0.953557,0.00550672,0.300655,-0.0174651,0.0,0.0,-0.08,1,0,0,0,0,0
11852000,0.0,0.610865,-0.0363745,0.0,0.953559,0.00546871,0.300656,-0.0173445,0.0,0.0,-0.08,1,0,0,0,0,0
11948000,0.0,0.610865,-0.0362007,0.0,0.953561,0.00544259,0.300657,-0.0172617,0.0,0.0,-0.08,1,0,0,0,0,0
12052000,0.0,0.610865,-0.0365947,0.0,0.953557,0.00550181,0.300656,-0.0174495,0.0,0.0,-0.08,1,0,0,0,0,0
12152000,0.0,0.610865,-0.0365222,0.0,0.953558,0.00549091,0.300656,-0.0174149,0.0,0.0,-0.08,1,0,0,0,0,0
12252000,0.0,0.610865,-0.036517,0.0,0.953558,0.00549014,0.300656,-0.0174125,0.0,0.0,-0.08,1,0,0,0,0,0
12356000,0.0,0.610865,-0.0366612,0.0,0.953557,0.00551182,0.300655,-0.0174812,0.0,0.0,-0.08,1,0,0,0,0,0
12452000,0.0,0.610865,-0.0369293,0.0,0.953554,0.00555211,0.300655,-0.017609,0.0,0.0,-0.08,1,0,0,0,0,0
12556000,0.0,0.610865,-0.0366276,0.0,0.953557,0.00550676,0.300655,-0.0174652,0.0,0.0,-0.08,1,0,0,0,0,0
12656000,0.0,0.610865,-0.0366524,0.0,0.953557,0.00551049,0.300655,-0.017477,0.0,0.0,-0.08,1,0,0,0,0,0
12752000,0.0,0.610865,-0.0365444,0.0,0.953558,0.00549425,0.300656,-0.0174255,0.0,0.0,-0.08,1,0,0,0,0,0
12852000,0.0,0.610865,-0.0367862,0.0,0.953556,0.00553059,0.300655,-0.0175408,0.0,0.0,-0.08,1,0,0,0,0,0
12952000,0.0,0.610865,-0.0366033,0.0,0.953557,0.00550311,0.300655,-0.0174536,0.0,0.0,-0.08,1,0,0,0,0,0
13052000,0.0,0.610865,-0.0366617,0.0,0.953557,0.00551188,0.300655,-0.0174814,0.0,0.0,-0.08,1,0,0,0,0,0
13152000,0.0,0.610865,-0.0368896,0.0,0.953555,0.00554614,0.300655,-0.0175901,0.0,0.0,-0.08,1,0,0,0,0,0
13252000,0.0,0.610865,-0.0368571,0.0,0.953555,0.00554126,0.300655,-0.0175746,0.0,0.0,-0.08,1,0,0,0,0,0
13348000,0.0,0.610865,-0.0371378,0.0,0.953553,0.00558345,0.300654,-0.0177084,0.0,0.0,-0.08,1,0,0,0,0,0
13452000,0.0,0.610865,-0.0374767,0.0,0.95355,0.0056344,0.300653,-0.01787,0.0,0.0,-0.08,1,0,0,0,0,0
13548000,0.0,0.610865,-0.0374897,0.0,0.953549,0.00563636,0.300653,-0.0178763,0.0,0.0,-0.08,1,0,0,0,0,0
13652000,0.0,0.610865,-0.0375046,0.0,0.953549,0.0056386,0.300653,-0.0178833,0.0,0.0,-0.08,1,0,0,0,0,0
13756000,0.0,0.610865,-0.0370945,0.0,0.953553,0.00557695,0.300654,-0.0176878,0.0,0.0,-0.08,1,0,0,0,0,0
13848000,0.0,0.610865,-0.0370481,0.0,0.953553,0.00556997,0.300654,-0.0176657,0.0,0.0,-0.08,1,0,0,0,0,0
13956000,0.0,0.610865,-0.0370837,0.0,0.953553,0.00557532,0.300654,-0.0176826,0.0,0.0,-0.08,1,0,0,0,0,0
14056000,0.0,0.610865,-0.0371802,0.0,0.953552,0.00558983,0.300654,-0.0177287,0.0,0.0,-0.08,1,0,0,0,0,0
14152000,0.0,0.610865,-0.0373257,0.0,0.953551,0.0056117,0.300653,-0.017798,0.0,0.0,-0.08,1,0,0,0,0,0
14252000,0.0,0.610865,-0.0371263,0.0,0.953553,0.00558173,0.300654,-0.017703,0.0,0.0,-0.08,1,0,0,0,0,0
14352000,0.0,0.610865,-0.0374676,0.0,0.95355,0.00563303,0.300653,-0.0178657,0.0,0.0,-0.08,1,0,0,0,0,0
14452000,0.0,0.610865,-0.0375694,0.0,0.953549,0.00564833,0.300653,-0.0179142,0.0,0.0,-0.08,1,0,0,0,0,0
14556000,0.0,0.610865,-0.0373238,0.0,0.953551,0.00561142,0.300653,-0.0177971,0.0,0.0,-0.08,1,0,0,0,0,0
14652000,0.0,0.610865,-0.0373755,0.0,0.95355,0.00561919,0.300653,-0.0178218,0.0,0.0,-0.08,1,0,0,0,0,0
14748000,0.0,0.610865,-0.0372245,0.0,0.953552,0.0055965,0.300654,-0.0177498,0.0,0.0,-0.08,1,0,0,0,0,0
14852000,0.0,0.610865,-0.0370029,0.0,0.953554,0.00556317,0.300654,-0.0176441,0.0,0.0,-0.08,1,0,0,0,0,0
14952000,0.0,0.610865,-0.036841,0.0,0.953555,0.00553884,0.300655,-0.017567,0.0,0.0,-0.08,1,0,0,0,0,0
15052000,0.0,0.610865,-0.0363388,0.0,0.95356,0.00546334,0.300656,-0.0173275,0.0,0.0,-0.08,1,0,0,0,0,0
15152000,0.0,0.610865,-0.0360678,0.0,0.953562,0.0054226,0.300657,-0.0171983,0.0,0.0,-0.08,1,0,0,0,0,0
15252000,0.0,0.610865,-0.0360598,0.0,0.953562,0.0054214,0.300657,-0.0171945,0.0,0.0,-0.08,1,0,0,0,0,0
15352000,0.0,0.610865,-0.0358961,0.0,0.953563,0.00539679,0.300657,-0.0171164,0.0,0.0,-0.08,1,0,0,0,0,0
15448000,0.0,0.610865,-0.0361586,0.0,0.953561,0.00543625,0.300657,-0.0172416,0.0,0.0,-0.08,1,0,0,0,0,0
15556000,0.0,0.610865,-0.0360715,0.0,0.953562,0.00542317,0.300657,-0.0172001,0.0,0.0,-0.08,1,0,0,0,0,0
15652000,0.0,0.610865,-0.0363181,0.0,0.95356,0.00546023,0.300656,-0.0173176,0.0,0.0,-0.08,1,0,0,0,0,0
15752000,0.0,0.610865,-0.0362302,0.0,0.95356,0.00544701,0.300656,-0.0172757,0.0,0.0,-0.08,1,0,0,0,0,0
15848000,0.0,0.610865,-0.036263,0.0,0.95356,0.00545196,0.300656,-0.0172914,0.0,0.0,-0.08,1,0,0,0,0,0
15952000,0.0,0.610865,-0.0361968,0.0,0.953561,0.005442,0.300657,-0.0172598,0.0,0.0,-0.08,1,0,0,0,0,0
16052000,0.0,0.610865,-0.0359911,0.0,0.953563,0.00541107,0.300657,-0.0171617,0.0,0.0,-0.08,1,0,0,0,0,0
16152000,0.0,0.610865,-0.0358788,0.0,0.953563,0.0053942,0.300657,-0.0171082,0.0,0.0,-0.08,1,0,0,0,0,0
16252000,0.0,0.610865,-0.0357639,0.0,0.953564,0.00537692,0.300658,-0.0170534,0.0,0.0,-0.08,1,0,0,0,0,0
16356000,0.0,0.610865,-0.0354045,0.0,0.953568,0.0053229,0.300659,-0.0168821,0.0,0.0,-0.08,1,0,0,0,0,0
16452000,0.0,0.610865,-0.0356649,0.0,0.953565,0.00536204,0.300658,-0.0170062,0.0,0.0,-0.08,1,0,0,0,0,0
16548000,0.0,0.610865,-0.0356173,0.0,0.953566,0.00535488,0.300658,-0.0169835,0.0,0.0,-0.08,1,0,0,0,0,0
16656000,0.0,0.610865,-0.0352335,0.0,0.953569,0.00529718,0.300659,-0.0168005,0.0,0.0,-0.08,1,0,0,0,0,0
16748000,0.0,0.610865,-0.0353909,0.0,0.953568,0.00532085,0.300659,-0.0168756,0.0,0.0,-0.08,1,0,0,0,0,0
16856000,0.0,0.610865,-0.0356847,0.0,0.953565,0.00536502,0.300658,-0.0170157,0.0,0.0,-0.08,1,0,0,0,0,0
16952000,0.0,0.610865,-0.0358532,0.0,0.953564,0.00539034,0.300658,-0.017096,0.0,0.0,-0.08,1,0,0,0,0,0
17052000,0.0,0.610865,-0.0359478,0.0,0.953563,0.00540456,0.300657,-0.0171411,0.0,0.0,-0.08,1,0,0,0,0,0
17152000,0.0,0.610865,-0.035783,0.0,0.953564,0.00537979,0.300658,-0.0170625,0.0,0.0,-0.08,1,0,0,0,0,0
17256000,0.0,0.610865,-0.0360271,0.0,0.953562,0.00541649,0.300657,-0.0171789,0.0,0.0,-0.08,1,0,0,0,0,0
17356000,0.0,0.610865,-0.0357371,0.0,0.953565,0.00537289,0.300658,-0.0170406,0.0,0.0,-0.08,1,0,0,0,0,0
17452000,0.0,0.610865,-0.0360094,0.0,0.953562,0.00541383,0.300657,-0.0171705,0.0,0.0,-0.08,1,0,0,0,0,0
17552000,0.0,0.610865,-0.0359939,0.0,0.953562,0.0054115,0.300657,-0.0171631,0.0,0.0,-0.08,1,0,0,0,0,0
17652000,0.0,0.610865,-0.0359194,0.0,0.953563,0.0054003,0.300657,-0.0171276,0.0,0.0,-0.08,1,0,0,0,0,0
17752000,0.0,0.610865,-0.0354036,0.0,0.953568,0.00532276,0.300659,-0.0168816,0.0,0.0,-0.08,1,0,0,0,0,0
17852000,0.0,0.610865,-0.0356325,0.0,0.953566,0.00535717,0.300658,-0.0169908,0.0,0.0,-0.08,1,0,0,0,0,0
17952000,0.0,0.610865,-0.0357669,0.0,0.953564,0.00537737,0.300658,-0.0170548,0.0,0.0,-0.08,1,0,0,0,0,0
18056000,0.0,0.610865,-0.0356295,0.0,0.953566,0.00535671,0.300658,-0.0169893,0.0,0.0,-0.08,1,0,0,0,0,0
18152000,0.0,0.610865,-0.0357318,0.0,0.953565,0.0053721,0.300658,-0.0170381,0.0,0.0,-0.08,1,0,0,0,0,0
18248000,0.0,0.610865,-0.0360544,0.0,0.953562,0.00542059,0.300657,-0.0171919,0.0,0.0,-0.08,1,0,0,0,0,0
18356000,0.0,0.610865,-0.0364482,0.0,0.953559,0.00547979,0.300656,-0.0173797,0.0,0.0,-0.08,1,0,0,0,0,0
18452000,0.0,0.610865,-0.0363439,0.0,0.953559,0.00546411,0.300656,-0.0173299,0.0,0.0,-0.08,1,0,0,0,0,0
18548000,0.0,0.610865,-0.0362554,0.0,0.95356,0.00545081,0.300656,-0.0172878,0.0,0.0,-0.08,1,0,0,0,0,0
18656000,0.0,0.610865,-0.0364624,0.0,0.953558,0.00548193,0.300656,-0.0173864,0.0,0.0,-0.08,1,0,0,0,0,0
18748000,0.0,0.610865,-0.0363003,0.0,0.95356,0.00545755,0.300656,-0.0173091,0.0,0.0,-0.08,1,0,0,0,0,0
18852000,0.0,0.610865,-0.0365599,0.0,0.953558,0.00549658,0.300656,-0.0174329,0.0,0.0,-0.08,1,0,0,0,0,0
18952000,0.0,0.610865,-0.0366946,0.0,0.953556,0.00551684,0.300655,-0.0174972,0.0,0.0,-0.08,1,0,0,0,0,0
19052000,0.0,0.610865,-0.0364642,0.0,0.953558,0.0054822,0.300656,-0.0173873,0.0,0.0,-0.08,1,0,0,0,0,0
19156000,0.0,0.610865,-0.0365711,0.0,0.953557,0.00549826,0.300656,-0.0174383,0.0,0.0,-0.08,1,0,0,0,0,0
19252000,0.0,0.610865,-0.0360809,0.0,0.953562,0.00542457,0.300657,-0.0172045,0.0,0.0,-0.08,1,0,0,0,0,0
19352000,0.0,0.610865,-0.0366583,0.0,0.953557,0.00551138,0.300655,-0.0174799,0.0,0.0,-0.08,1,0,0,0,0,0
19456000,0.0,0.610865,-0.0369914,0.0,0.953554,0.00556145,0.300654,-0.0176387,0.0,0.0,-0.08,1,0,0,0,0,0
19552000,0.0,0.610865,-0.0374312,0.0,0.95355,0.00562757,0.300653,-0.0178484,0.0,0.0,-0.08,1,0,0,0,0,0
19652000,0.0,0.610865,-0.0375073,0.0,0.953549,0.005639,0.300653,-0.0178846,0.0,0.0,-0.08,1,0,0,0,0,0
19756000,0.0,0.610865,-0.00265967,0.0,0.953716,0.000399888,0.300706,-0.00126828,0.0,0.0,-0.08,1,0,0,0,0,0
19856000,0.0,0.610865,-0.00193435,0.0,0.953716,0.000290835,0.300706,-0.000922409,0.0,0.0,-0.08,1,0,0,0,0,0
19956000,0.0,0.610865,-0.00131788,0.0,0.953717,0.000198147,0.300706,-0.000628441,0.0,0.0,-0.08,1,0,0,0,0,0
20052000,0.0,0.610865,-0.000610048,0.0,0.953717,9.17225e-05,0.300706,-0.000290907,0.0,0.0,-0.08,1,0,0,0,0,0
20152000,0.0,0.610865,0.000355746,0.0,0.953717,-5.34874e-05,0.300706,0.00016964,0.0,0.0,-0.08,1,0,0,0,0,0
20256000,0.0,0.610865,0.00129704,0.0,0.953717,-0.000195014,0.300706,0.000618504,0.0,0.0,-0.08,1,0,0,0,0,0
20356000,0.0,0.610865,0.00143597,0.0,0.953717,-0.000215903,0.300706,0.000684757,0.0,0.0,-0.08,1,0,0,0,0,0
20452000,0.0,0.610865,0.00153707,0.0,0.953717,-0.000231103,0.300706,0.000732964,0.0,0.0,-0.08,1,0,0,0,0,0
20552000,0.0,0.610865,0.00183812,0.0,0.953717,-0.000276366,0.300706,0.000876521,0.0,0.0,-0.08,1,0,0,0,0,0
20652000,0.0,0.610865,0.00189043,0.0,0.953717,-0.000284232,0.300706,0.000901469,0.0,0.0,-0.08,1,0,0,0,0,0
20752000,0.0,0.610865,0.00192408,0.0,0.953716,-0.000289291,0.300706,0.000917512,0.0,0.0,-0.08,1,0,0,0,0,0
20852000,0.0,0.610865,0.00176474,0.0,0.953717,-0.000265334,0.300706,0.000841532,0.0,0.0,-0.08,1,0,0,0,0,0
20952000,0.0,0.610865,0.00187339,0.0,0.953717,-0.00028167,0.300706,0.000893344,0.0,0.0,-0.08,1,0,0,0,0,0
21052000,0.0,0.610865,0.00196874,0.0,0.953716,-0.000296006,0.300706,0.000938809,0.0,0.0,-0.08,1,0,0,0,0,0
21156000,0.0,0.610865,0.00189467,0.0,0.953716,-0.00028487,0.300706,0.000903492,0.0,0.0,-0.08,1,0,0,0,0,0
21256000,0.0,0.610865,0.00210744,0.0,0.953716,-0.000316859,0.300706,0.00100495,0.0,0.0,-0.08,1,0,0,0,0,0
21348000,0.0,0.610865,0.00247656,0.0,0.953716,-0.000372358,0.300706,0.00118097,0.0,0.0,-0.08,1,0,0,0,0,0
21452000,0.0,0.610865,0.00255693,0.0,0.953716,-0.000384443,0.300706,0.0012193,0.0,0.0,-0.08,1,0,0,0,0,0
21556000,0.0,0.610865,0.00265007,0.0,0.953716,-0.000398445,0.300706,0.00126371,0.0,0.0,-0.08,1,0,0,0,0,0
21652000,0.0,0.610865,0.00302747,0.0,0.953716,-0.000455189,0.300706,0.00144368,0.0,0.0,-0.08,1,0,0,0,0,0
21756000,0.0,0.610865,0.0034572,0.0,0.953716,-0.000519801,0.300705,0.0016486,0.0,0.0,-0.08,1,0,0,0,0,0
21852000,0.0,0.610865,0.00337941,0.0,0.953716,-0.000508103,0.300705,0.0016115,0.0,0.0,-0.08,1,0,0,0,0,0
21956000,0.0,0.610865,0.00348028,0.0,0.953716,-0.00052327,0.300705,0.0016596,0.0,0.0,-0.08,1,0,0,0,0,0
22056000,0.0,0.610865,0.00344907,0.0,0.953716,-0.000518577,0.300705,0.00164472,0.0,0.0,-0.08,1,0,0,0,0,0
22156000,0.0,0.610865,0.00357685,0.0,0.953715,-0.00053779,0.300705,0.00170565,0.0,0.0,-0.08,1,0,0,0,0,0
22256000,0.0,0.610865,0.00354152,0.0,0.953715,-0.000532478,0.300705,0.0016888,0.0,0.0,-0.08,1,0,0,0,0,0
22352000,0.0,0.610865,0.00370983,0.0,0.953715,-0.000557783,0.300705,0.00176906,0.0,0.0,-0.08,1,0,0,0,0,0
22452000,0.0,0.610865,0.00371026,0.0,0.953715,-0.000557848,0.300705,0.00176927,0.0,0.0,-0.08,1,0,0,0,0,0
22552000,0.0,0.610865,0.00384742,0.0,0.953715,-0.00057847,0.300705,0.00183467,0.0,0.0,-0.08,1,0,0,0,0,0
22652000,0.0,0.610865,0.00425041,0.0,0.953715,-0.000639061,0.300705,0.00202684,0.0,0.0,-0.08,1,0,0,0,0,0
22752000,0.0,0.610865,0.00426408,0.0,0.953715,-0.000641116,0.300705,0.00203336,0.0,0.0,-0.08,1,0,0,0,0,0
22848000,0.0,0.610865,0.0043209,0.0,0.953715,-0.00064966,0.300705,0.00206046,0.0,0.0,-0.08,1,0,0,0,0,0
22952000,0.0,0.610865,0.00431122,0.0,0.953715,-0.000648204,0.300705,0.00205584,0.0,0.0,-0.08,1,0,0,0,0,0
23052000,0.0,0.610865,0.00409315,0.0,0.953715,-0.000615417,0.300705,0.00195185,0.0,0.0,-0.08,1,0,0,0,0,0
23152000,0.0,0.610865,0.00436305,0.0,0.953715,-0.000655997,0.300705,0.00208056,0.0,0.0,-0.08,1,0,0,0,0,0
23252000,0.0,0.610865,0.00449366,0.0,0.953715,-0.000675635,0.300705,0.00214284,0.0,0.0,-0.08,1,0,0,0,0,0
23352000,0.0,0.610865,0.00466578,0.0,0.953714,-0.000701514,0.300705,0.00222492,0.0,0.0,-0.08,1,0,0,0,0,0
23452000,0.0,0.610865,0.00499763,0.0,0.953714,-0.000751407,0.300705,0.00238316,0.0,0.0,-0.08,1,0,0,0,0,0
23552000,0.0,0.610865,0.00495917,0.0,0.953714,-0.000745626,0.300705,0.00236482,0.0,0.0,-0.08,1,0,0,0,0,0
23652000,0.0,0.610865,0.00494947,0.0,0.953714,-0.000744167,0.300705,0.0023602,0.0,0.0,-0.08,1,0,0,0,0,0
23752000,0.0,0.610865,0.00499307,0.0,0.953714,-0.000750721,0.300705,0.00238098,0.0,0.0,-0.08,1,0,0,0,0,0
23852000,0.0,0.610865,0.00488428,0.0,0.953714,-0.000734365,0.300705,0.00232911,0.0,0.0,-0.08,1,0,0,0,0,0
23956000,0.0,0.610865,0.00470582,0.0,0.953714,-0.000707533,0.300705,0.00224401,0.0,0.0,-0.08,1,0,0,0,0,0
24052000,0.0,0.610865,0.00470519,0.0,0.953714,-0.000707439,0.300705,0.00224371,0.0,0.0,-0.08,1,0,0,0,0,0
24156000,0.0,0.610865,0.00477068,0.0,0.953714,-0.000717284,0.300705,0.00227493,0.0,0.0,-0.08,1,0,0,0,0,0
24256000,0.0,0.610865,0.00508333,0.0,0.953714,-0.000764293,0.300705,0.00242403,0.0,0.0,-0.08,1,0,0,0,0,0
24356000,0.0,0.610865,0.004974,0.0,0.953714,-0.000747855,0.300705,0.00237189,0.0,0.0,-0.08,1,0,0,0,0,0
24456000,0.0,0.610865,0.00539001,0.0,0.953713,-0.000810402,0.300705,0.00257027,0.0,0.0,-0.08,1,0,0,0,0,0
24552000,0.0,0.610865,0.00565379,0.0,0.953713,-0.000850063,0.300705,0.00269606,0.0,0.0,-0.08,1,0,0,0,0,0
24652000,0.0,0.610865,0.00553408,0.0,0.953713,-0.000832064,0.300705,0.00263897,0.0,0.0,-0.08,1,0,0,0,0,0
24752000,0.0,0.610865,0.00545206,0.0,0.953713,-0.000819732,0.300705,0.00259986,0.0,0.0,-0.08,1,0,0,0,0,0
24856000,0.0,0.610865,0.00579321,0.0,0.953713,-0.000871025,0.300705,0.00276254,0.0,0.0,-0.08,1,0,0,0,0,0
24956000,0.0,0.610865,0.00597975,0.0,0.953713,-0.000899072,0.300705,0.00285149,0.0,0.0,-0.08,1,0,0,0,0,0
25052000,0.0,0.610865,0.00606243,0.0,0.953713,-0.000911502,0.300704,0.00289092,0.0,0.0,-0.08,1,0,0,0,0,0
25152000,0.0,0.610865,0.00622064,0.0,0.953712,-0.00093529,0.300704,0.00296636,0.0,0.0,-0.08,1,0,0,0,0,0
25248000,0.0,0.610865,0.00621021,0.0,0.953712,-0.000933721,0.300704,0.00296138,0.0,0.0,-0.08,1,0,0,0,0,0
25352000,0.0,0.610865,0.00640802,0.0,0.953712,-0.000963463,0.300704,0.00305571,0.0,0.0,-0.08,1,0,0,0,0,0
25452000,0.0,0.610865,0.00640335,0.0,0.953712,-0.000962761,0.300704,0.00305349,0.0,0.0,-0.08,1,0,0,0,0,0
25556000,0.0,0.610865,0.00628046,0.0,0.953712,-0.000944285,0.300704,0.00299489,0.0,0.0,-0.08,1,0,0,0,0,0
25656000,0.0,0.610865,0.00625928,0.0,0.953712,-0.0009411,0.300704,0.00298479,0.0,0.0,-0.08,1,0,0,0,0,0
25696000,0.0,0.610865,0.00630136,0.0,0.953712,-0.000947426,0.300704,0.00300485,0.0,0.0,-0.08,1,0,0,0,0,0
29696000,0.0,0.0,0.00722663,0.0,0.999993,0.0,0.0,0.00361331,0.0,0.0,-0.0,1,0,0,0,0,0
29792000,0.0,0.0,0.00705179,0.0,0.999994,0.0,0.0,0.00352589,0.0,0.0,-0.0,1,0,0,0,0,0
29892000,0.0,0.0,0.00666889,0.0,0.999994,0.0,0.0,0.00333444,0.0,0.0,-0.0,1,0,0,0,0,0
29988000,0.0,0.0,0.00669498,0.0,0.999994,0.0,0.0,0.00334749,0.0,0.0,-0.0,1,0,0,0,0,0
30084000,0.0,0.0,0.0065249,0.0,0.999995,0.0,0.0,0.00326244,0.0,0.0,-0.0,1,0,0,0,0,0
30180000,0.0,0.0,0.006386,0.0,0.999995,0.0,0.0,0.003193,0.0,0.0,-0.0,1,0,0,0,0,0
30276000,0.0,0.0,0.00652763,0.0,0.999995,0.0,0.0,0.00326381,0.0,0.0,-0.0,1,0,0,0,0,0
30392000,0.0,0.0,0.00639056,0.0,0.999995,0.0,0.0,0.00319528,0.0,0.0,-0.0,1,0,0,0,0,0
30492000,0.0,0.0,0.00675514,0.0,0.999994,0.0,0.0,0.00337756,0.0,0.0,-0.0,1,0,0,0,0,0
30588000,0.0,0.0,0.006501,0.0,0.999995,0.0,0.0,0.00325049,0.0,0.0,-0.0,1,0,0,0,0,0
30684000,0.0,0.0,0.00638465,0.0,0.999995,0.0,0.0,0.00319232,0.0,0.0,-0.0,1,0,0,0,0,0
30780000,0.0,0.0,0.00642513,0.0,0.999995,0.0,0.0,0.00321256,0.0,0.0,-0.0,1,0,0,0,0,0
30876000,0.0,0.0,0.00586254,0.0,0.999996,0.0,0.0,0.00293127,0.0,0.0,-0.0,1,0,0,0,0,0
30992000,0.0,0.0,0.00573218,0.0,0.999996,0.0,0.0,0.00286608,0.0,0.0,-0.0,1,0,0,0,0,0
31092000,0.0,0.0,0.00582799,0.0,0.999996,0.0,0.0,0.00291399,0.0,0.0,-0.0,1,0,0,0,0,0
31188000,0.0,0.0,0.00587764,0.0,0.999996,0.0,0.0,0.00293881,0.0,0.0,-0.0,1,0,0,0,0,0
31284000,0.0,0.0,0.00574126,0.0,0.999996,0.0,0.0,0.00287062,0.0,0.0,-0.0,1,0,0,0,0,0
31380000,0.0,0.0,0.00582121,0.0,0.999996,0.0,0.0,0.0029106,0.0,0.0,-0.0,1,0,0,0,0,0
31496000,0.0,0.0,0.00564068,0.0,0.999996,0.0,0.0,0.00282034,0.0,0.0,-0.0,1,0,0,0,0,0
31592000,0.0,0.0,0.00556806,0.0,0.999996,0.0,0.0,0.00278403,0.0,0.0,-0.0,1,0,0,0,0,0
31692000,0.0,0.0,0.00531536,0.0,0.999996,0.0,0.0,0.00265768,0.0,0.0,-0.0,1,0,0,0,0,0
31788000,0.0,0.0,0.00514536,0.0,0.999997,0.0,0.0,0.00257268,0.0,0.0,-0.0,1,0,0,0,0,0
31884000,0.0,0.0,0.00518382,0.0,0.999997,0.0,0.0,0.0025919,0.0,0.0,-0.0,1,0,0,0,0,0
31980000,-0.000221974,0.209439,0.00540616,0.0,0.994518,-0.000392927,0.104528,0.00269987,0.0,0.0,-0.522969,1,0,0,0,0,0
32096000,-0.000206013,0.209439,0.00551071,0.0,0.994518,-0.000390454,0.104528,0.00275102,0.0,0.0,-0.553306,1,0,0,0,0,0
32192000,-0.000207084,0.209439,0.00557485,0.0,0.994518,-0.000394339,0.104528,0.00278297,0.0,0.0,-0.570446,1,0,0,0,0,0
32292000,-0.000285317,0.209439,0.00525913,0.0,0.994518,-0.000416741,0.104528,0.00263007,0.0,0.0,-0.595999,1,0,0,0,0,0
32388000,-0.000328392,0.209439,0.00506554,0.0,0.994519,-0.000428042,0.104528,0.00253606,0.0,0.0,-0.62844,1,0,0,0,0,0
32484000,-0.000340778,0.209439,0.0050665,0.0,0.994519,-0.000434251,0.104528,0.00253718,0.0,0.0,-0.649369,1,0,0,0,0,0
32580000,-0.00100975,0.785398,0.00547102,-0.0,0.923876,-0.00151328,0.38268,0.00272049,0.0,0.0,-0.830723,1,0,0,0,0,0
32676000,-0.000830235,0.785398,0.00547102,-0.0,0.923876,-0.00143035,0.382681,0.00268614,0.0,0.0,-0.543295,1,0,0,0,0,0
32796000,-0.0012742,0.785397,0.00547102,-0.0,0.923875,-0.00163544,0.38268,0.00277109,0.0,0.0,-0.604647,1,0,0,0,0,0
32892000,-0.0014127,0.785397,0.00547102,-0.0,0.923875,-0.00169941,0.38268,0.00279759,0.0,0.0,-0.654235,1,0,0,0,0,0
32988000,-0.00145098,0.785397,0.00547102,0.0,0.923875,-0.0017171,0.38268,0.00280491,0.0,0.0,-0.290555,1,0,0,0,0,0
33084000,-0.00154038,0.785397,0.00547102,0.0,0.923875,-0.00175839,0.382679,0.00282202,0.0,0.0,-0.561262,1,0,0,0,0,0
33180000,-0.00124697,0.785397,0.00547102,0.0,0.923875,-0.00162285,0.38268,0.00276588,0.0,0.0,-0.556099,1,0,0,0,0,0
33296000,-0.00257306,0.785395,0.00547102,0.0,0.923874,-0.00223542,0.382677,0.00301961,0.0,0.0,-0.61409,1,0,0,0,0,0
33392000,-0.00277952,0.785394,0.00547102,0.0,0.923874,-0.00233079,0.382676,0.00305911,0.0,0.0,-0.601136,1,0,0,0,0,0
33492000,-0.00241056,0.681402,0.00547102,0.0,0.942515,-0.00205006,0.334143,0.00298101,0.0,0.0,-0.589954,1,0,0,0,0,0
33588000,-0.000861739,0.39788,0.00547102,0.0,0.980273,-0.000962988,0.197628,0.00276671,0.0,0.0,-0.658776,1,0,0,0,0,0
33684000,-0.00221905,0.206017,0.00547102,-0.0,0.994695,-0.00138492,0.102823,0.00283509,0.0,0.0,-0.738704,1,0,0,0,0,0
33780000,0.0,0.0,0.0069864,0.15514,0.999994,0.0,0.0,0.00349319,0.0,0.0,-1.0,1,0,0,0,0,0
33896000,-0.0210983,0.0692781,0.0130243,0.15514,0.999321,-0.0107679,0.0345608,0.00687318,0.0,0.0,-0.653713,1,0,0,0,0,0
33992000,-0.0524509,0.163272,0.0219512,0.217197,0.996243,-0.0270282,0.0812257,0.0130733,0.0,0.0,-0.520489,1,0,0,0,0,0
34092000,-0.0850075,0.191419,0.0354554,0.217197,0.994296,-0.0439823,0.0947123,0.0216897,0.0,0.0,-0.510072,1,0,0,0,0,0
34188000,-0.111956,0.170448,0.0505963,0.15514,0.994371,-0.0578777,0.0835503,0.0299251,0.0,0.0,-0.515838,1,0,0,0,0,0
34284000,-0.133179,0.138073,0.0679514,0.15514,0.994677,-0.0686817,0.0665339,0.0384005,0.0,0.0,-0.521944,1,0,0,0,0,0
34380000,-0.151331,0.115042,0.0868645,0.15514,0.994362,-0.0778862,0.0539939,0.0475645,0.0,0.0,-0.524752,1,0,0,0,0,0
34496000,-0.218663,0.138717,0.105709,-0.0,0.989855,-0.112339,0.0630424,0.0599397,0.0,0.0,-0.385286,1,0,0,0,0,0
34592000,-0.523137,0.487558,0.10808,0.0,0.932684,-0.263178,0.219266,0.11296,0.0,0.0,-0.156797,1,0,0,0,0,0
34692000,-0.289996,0.377197,0.10808,0.0,0.969078,-0.151741,0.177578,0.0795489,0.0,0.0,-0.134698,1,0,0,0,0,0
34788000,-0.0309282,0.0764789,0.10808,0.0,0.997659,-0.0174943,0.0373351,0.0545579,0.0,0.0,-0.46383,1,0,0,0,0,0
34884000,0.0577809,0.00764033,0.10808,0.0,0.998122,0.0286378,0.00537323,0.0538805,0.0,0.0,-0.514176,1,0,0,0,0,0
34980000,0.0584415,0.0164898,0.10808,0.0,0.998093,0.0287278,0.00980727,0.0537481,0.0,0.0,-0.493928,1,0,0,0,0,0
35096000,0.0220466,0.0497678,0.10808,0.0,0.998185,0.00965973,0.0254387,0.0537197,0.0,0.0,-0.493775,1,0,0,0,0,0
35192000,-0.000117345,0.0680901,0.10808,0.0,0.997961,-0.00189709,0.0339856,0.0539843,0.0,0.0,-0.493601,1,0,0,0,0,0
35292000,-0.00936254,0.0791494,0.10808,0.0,0.997737,-0.00680775,0.0392535,0.0541556,0.0,0.0,-0.493792,1,0,0,0,0,0
35388000,-0.00318098,0.0809866,0.10808,0.0,0.997717,-0.00377345,0.0403372,0.0540335,0.0,0.0,-0.494148,1,0,0,0,0,0
35484000,0.003002,0.0783981,0.10808,0.0,0.997775,-0.000619082,0.0392128,0.0539133,0.0,0.0,-0.494868,1,0,0,0,0,0
35580000,0.00723444,0.0771049,0.10808,0.0,0.997799,0.00152742,0.0386816,0.0538339,0.0,0.0,-0.495163,1,0,0,0,0,0
35676000,0.00789859,0.0792277,0.10808,0.0,0.997757,0.00180132,0.0397585,0.0538146,0.0,0.0,-0.49473,1,0,0,0,0,0
35792000,0.00987091,0.0751973,0.10808,0.0,0.997832,0.00289441,0.0378008,0.0537895,0.0,0.0,-0.495426,1,0,0,0,0,0
35892000,0.0116881,0.0728962,0.10808,0.0,0.997871,0.00386341,0.0367017,0.0537641,0.0,0.0,-0.49517,1,0,0,0,0,0
35988000,0.0142929,0.0700096,0.10808,0.0,0.997917,0.00524129,0.0353314,0.0537294,0.0,0.0,-0.494883,1,0,0,0,0,0
36084000,0.015403,0.0680562,0.10808,0.0,0.997947,0.00584815,0.0343866,0.0537191,0.0,0.0,-0.494227,1,0,0,0,0,0
36180000,0.0166737,0.0704687,0.10808,0.0,0.997902,0.00641676,0.0356245,0.0536849,0.0,0.0,-0.493873,1,0,0,0,0,0
36296000,0.0170699,0.0796182,0.10808,0.0,0.997731,0.00636607,0.0401997,0.0536296,0.0,0.0,-0.492694,1,0,0,0,0,0
36392000,0.0195765,0.0813859,0.10808,0.0,0.997687,0.00756844,0.0411486,0.0535687,0.0,0.0,-0.49283,1,0,0,0,0,0
36492000,0.0199114,0.0847806,0.10808,0.0,0.997617,0.00764321,0.0428509,0.0535411,0.0,0.0,-0.492496,1,0,0,0,0,0
36588000,0.0185274,0.0884306,0.10808,0.0,0.997543,0.00685364,0.0446343,0.0535496,0.0,0.0,-0.492929,1,0,0,0,0,0
36684000,0.0201367,0.0875275,0.10808,0.0,0.997557,0.00768088,0.044227,0.0535193,0.0,0.0,-0.493499,1,0,0,0,0,0
36780000,0.0200348,0.0842856,0.10808,0.0,0.997626,0.00771822,0.0426073,0.0535415,0.0,0.0,-0.493429,1,0,0,0,0,0
36896000,0.0187995,0.085941,0.10808,0.0,0.997596,0.00705708,0.0433999,0.0535581,0.0,0.0,-0.493128,1,0,0,0,0,0
36992000,0.0176785,0.0862412,0.10808,0.0,0.997594,0.00648976,0.0435196,0.0535808,0.0,0.0,-0.49386,1,0,0,0,0,0
37092000,0.0170642,0.0841817,0.10808,0.0,0.997639,0.00623927,0.0424759,0.0536053,0.0,0.0,-0.492637,1,0,0,0,0,0
37188000,0.0169611,0.0842974,0.10808,0.0,0.997637,0.00618469,0.0425308,0.0536068,0.0,0.0,-0.492973,1,0,0,0,0,0
37284000,0.0156373,0.0868367,0.10808,0.0,0.997587,0.00545544,0.0437619,0.0536221,0.0,0.0,-0.492651,1,0,0,0,0,0
37380000,0.0134596,0.0894829,0.10808,0.0,0.997535,0.00429742,0.0450233,0.0536577,0.0,0.0,-0.493074,1,0,0,0,0,0
37496000,0.014506,0.0886657,0.10808,0.0,0.99755,0.00484151,0.0446438,0.0536381,0.0,0.0,-0.492474,1,0,0,0,0,0
37592000,0.0144562,0.0938507,0.10808,0.0,0.997433,0.00467592,0.0472284,0.0536141,0.0,0.0,-0.492541,1,0,0,0,0,0
37692000,0.0133073,0.100776,0.10808,0.0,0.997269,0.00391504,0.050651,0.0536092,0.0,0.0,-0.493284,1,0,0,0,0,0
37788000,0.0133843,0.104172,0.10808,0.0,0.997182,0.00386126,0.052346,0.0535912,0.0,0.0,-0.49317,1,0,0,0,0,0
37884000,0.0119366,0.104207,0.10808,0.0,0.997184,0.0031385,0.0523249,0.0536289,0.0,0.0,-0.494334,1,0,0,0,0,0
37980000,0.0137914,0.103596,0.10808,0.0,0.997197,0.00407987,0.05207,0.0535833,0.0,0.0,-0.493882,1,0,0,0,0,0
38096000,0.0151313,0.099643,0.10808,0.0,0.997293,0.00485532,0.0501349,0.0535688,0.0,0.0,-0.4933,1,0,0,0,0,0
38192000,0.0144605,0.101012,0.10808,0.0,0.997261,0.00448365,0.0507994,0.0535788,0.0,0.0,-0.496587,1,0,0,0,0,0
38292000,0.0122616,0.0989593,0.10808,0.0,0.997316,0.0034429,0.0497171,0.0536437,0.0,0.0,-0.500275,1,0,0,0,0,0
38388000,0.0128294,0.0954234,0.10808,0.0,0.9974,0.00382196,0.0479691,0.0536455,0.0,0.0,-0.500007,1,0,0,0,0,0
38484000,0.0136922,0.0916564,0.10808,0.0,0.997485,0.00435447,0.0461136,0.0536424,0.0,0.0,-0.500626,1,0,0,0,0,0
38580000,0.0140146,0.0930373,0.10808,0.0,0.997453,0.00447777,0.0468109,0.0536284,0.0,0.0,-0.49917,1,0,0,0,0,0
38696000,0.0126261,0.0969079,0.10808,0.0,0.997365,0.00368028,0.0487039,0.0536438,0.0,0.0,-0.49742,1,0,0,0,0,0
38792000,0.0105704,0.102908,0.10808,0.0,0.997219,0.00249252,0.0516406,0.0536699,0.0,0.0,-0.497443,1,0,0,0,0,0
38892000,0.00750658,0.109722,0.10808,0.0,0.997042,0.000780442,0.0549553,0.0537264,0.0,0.0,-0.4957,1,0,0,0,0,0
38988000,0.00567392,0.114614,0.10808,0.0,0.996906,-0.000265489,0.0573448,0.0537624,0.0,0.0,-0.494803,1,0,0,0,0,0
39084000,0.00488922,0.113692,0.10808,0.0,0.996932,-0.0006317,0.0568642,0.0537875,0.0,0.0,-0.495051,1,0,0,0,0,0
39180000,0.00434566,0.10874,0.10808,0.0,0.997069,-0.000768804,0.0543807,0.0538157,0.0,0.0,-0.49403,1,0,0,0,0,0
39296000,0.00542307,0.101869,0.10808,0.0,0.997249,-4.58781e-05,0.050984,0.0538055,0.0,0.0,-0.503334,1,0,0,0,0,0
39392000,0.00636363,0.102631,0.10808,0.0,0.99723,0.000402481,0.0513895,0.0537792,0.0,0.0,-0.495535,1,0,0,0,0,0
39492000,0.00409772,0.0991742,0.10808,-0.0,0.997316,-0.00063392,0.0496049,0.0538457,0.0,0.0,-0.523786,1,0,0,0,0,0
39588000,0.00138123,0.0682954,0.10808,-0.0,0.997959,-0.00115487,0.0341285,0.0539585,0.0,0.0,-0.67478,1,0,0,0,0,0
39684000,8.70303e-05,0.0734726,0.10808,-0.0,0.997867,-0.00194039,0.0366768,0.0539755,0.0,0.0,-0.586621,1,0,0,0,0,0
39780000,0.00126937,0.103409,0.10808,-0.0,0.997207,-0.00215859,0.0516404,0.0539086,0.0,0.0,-0.504521,1,0,0,0,0,0
39896000,0.00253924,0.110824,0.10808,-0.0,0.997011,-0.00172564,0.0553711,0.0538604,0.0,0.0,-0.496505,1,0,0,0,0,0
39992000,0.00606734,0.102736,0.10808,-0.0,0.997227,0.000251892,0.0514341,0.0537865,0.0,0.0,-0.496345,1,0,0,0,0,0
40092000,0.00398026,0.0897885,0.10808,-0.0,0.997537,-0.000438859,0.044921,0.0538699,0.0,0.0,-0.534209,1,0,0,0,0,0
40188000,0.0043636,0.104451,0.10808,-0.0,0.997183,-0.000643948,0.052243,0.0538261,0.0,0.0,-0.500067,1,0,0,0,0,0
40284000,0.00311751,0.111892,0.10808,-0.0,0.996981,-0.00146623,0.0559193,0.053842,0.0,0.0,-0.495568,1,0,0,0,0,0
40380000,0.00275298,0.115505,0.10808,-0.0,0.996879,-0.00174548,0.0577101,0.0538441,0.0,0.0,-0.495866,1,0,0,0,0,0
40496000,0.00214379,0.115305,0.10808,-0.0,0.996884,-0.00204373,0.0575941,0.0538621,0.0,0.0,-0.496032,1,0,0,0,0,0
40592000,0.00219957,0.116746,0.10808,-0.0,0.996842,-0.00205482,0.0583137,0.0538575,0.0,0.0,-0.496707,1,0,0,0,0,0
40692000,-0.000447685,0.145001,0.10808,-0.0,0.995916,-0.00413551,0.0723192,0.0538879,0.0,0.0,-0.405844,1,0,0,0,0,0
40788000,-0.00444536,0.226482,0.10808,0.0,0.992129,-0.00830869,0.112715,0.0539183,0.0,0.0,-0.312795,1,0,0,0,0,0
40884000,-0.000273152,0.184104,0.10808,0.0,0.994312,-0.00510085,0.0917807,0.0537974,0.0,0.0,-0.381818,1,0,0,0,0,0
40980000,0.00111562,0.100493,0.10808,0.0,0.997281,-0.00215656,0.0501821,0.0539174,0.0,0.0,-0.473919,1,0,0,0,0,0
41096000,0.000890302,0.0788322,0.10808,0.0,0.997765,-0.0016843,0.0393724,0.0539541,0.0,0.0,-0.486177,1,0,0,0,0,0
41192000,0.000641013,0.08821,0.10808,0.0,0.99757,-0.00206177,0.0440436,0.0539469,0.0,0.0,-0.484517,1,0,0,0,0,0
41292000,0.0018088,0.0984301,0.10808,0.0,0.997333,-0.00175522,0.0491721,0.0539037,0.0,0.0,-0.483173,1,0,0,0,0,0
41388000,0.00125382,0.107326,0.10808,0.0,0.997104,-0.00227205,0.0535928,0.0539022,0.0,0.0,-0.485875,1,0,0,0,0,0
41484000,0.00121745,0.115852,0.10808,0.0,0.996867,-0.00252022,0.0578418,0.0538878,0.0,0.0,-0.486946,1,0,0,0,0,0
41580000,0.00176811,0.116504,0.10808,0.0,0.996849,-0.00226335,0.0581817,0.0538705,0.0,0.0,-0.488781,1,0,0,0,0,0
41676000,0.00120159,0.116844,0.10808,0.0,0.996838,-0.00255491,0.0583361,0.0538864,0.0,0.0,-0.49097,1,0,0,0,0,0
41792000,0.0014993,0.11796,0.10808,0.0,0.996806,-0.00243663,0.0589003,0.0538755,0.0,0.0,-0.491076,1,0,0,0,0,0
41892000,8.67198e-05,0.121076,0.10808,0.0,0.996711,-0.00322466,0.060415,0.053912,0.0,0.0,-0.491769,1,0,0,0,0,0
41988000,-0.00243074,0.122826,0.10808,0.0,0.996653,-0.00452635,0.0612192,0.0539862,0.0,0.0,-0.492757,1,0,0,0,0,0
42084000,-0.000607266,0.120845,0.10808,0.0,0.996717,-0.00356428,0.0602811,0.0539333,0.0,0.0,-0.493666,1,0,0,0,0,0
42180000,0.00109414,0.115731,0.10808,0.0,0.99687,-0.00257843,0.0577784,0.0538916,0.0,0.0,-0.493377,1,0,0,0,0,0
42296000,0.00325083,0.110852,0.10808,0.0,0.99701,-0.00137166,0.0554041,0.0538406,0.0,0.0,-0.493005,1,0,0,0,0,0
42392000,0.00381099,0.108804,0.10808,0.0,0.997067,-0.0010371,0.0543985,0.0538301,0.0,0.0,-0.493271,1,0,0,0,0,0
42492000,0.00329674,0.109765,0.10808,0.0,0.99704,-0.00131942,0.0548637,0.0538419,0.0,0.0,-0.493167,1,0,0,0,0,0
42588000,0.00170401,0.111199,0.10808,0.0,0.996999,-0.00215214,0.0555358,0.0538828,0.0,0.0,-0.493469,1,0,0,0,0,0
42684000,0.00261615,0.111769,0.10808,0.0,0.996984,-0.00171283,0.0558445,0.0538562,0.0,0.0,-0.493257,1,0,0,0,0,0
42780000,0.00330026,0.112856,0.10808,0.0,0.996955,-0.00140117,0.0564048,0.0538346,0.0,0.0,-0.4935,1,0,0,0,0,0
42876000,0.00584079,0.110155,0.10808,0.0,0.99703,-6.1723e-05,0.0551268,0.0537709,0.0,0.0,-0.494116,1,0,0,0,0,0
42992000,0.00660131,0.105834,0.10808,0.0,0.997146,0.000434339,0.0529927,0.0537633,0.0,0.0,-0.495034,1,0,0,0,0,0
43092000,0.0066655,0.106598,0.10808,0.0,0.997126,0.000445651,0.0533757,0.0537593,0.0,0.0,-0.494975,1,0,0,0,0,0
43188000,0.00596344,0.105339,0.10808,0.0,0.99716,0.000129681,0.0527291,0.0537817,0.0,0.0,-0.4954,1,0,0,0,0,0
43284000,0.00519526,0.106215,0.10808,0.0,0.997136,-0.000276995,0.053145,0.0537995,0.0,0.0,-0.494029,1,0,0,0,0,0
43380000,0.00338707,0.108568,0.10808,0.0,0.997073,-0.00124207,0.0542696,0.0538422,0.0,0.0,-0.494466,1,0,0,0,0,0
43496000,0.00231201,0.108204,0.10808,0.0,0.997082,-0.00176818,0.0540588,0.0538721,0.0,0.0,-0.494355,1,0,0,0,0,0
43592000,0.00386129,0.106898,0.10808,0.0,0.997118,-0.000960524,0.0534497,0.0538333,0.0,0.0,-0.494292,1,0,0,0,0,0
43692000,0.00546158,0.103402,0.10808,0.0,0.99721,-6.81371e-05,0.0517495,0.0538003,0.0,0.0,-0.494556,1,0,0,0,0,0
43788000,0.0074636,0.097945,0.10808,0.0,0.997346,0.00107777,0.0490825,0.053766,0.0,0.0,-0.494576,1,0,0,0,0,0
43884000,0.00839059,0.0909911,0.10808,0.0,0.997508,0.00172832,0.0456394,0.0537667,0.0,0.0,-0.495367,1,0,0,0,0,0
43980000,0.00664577,0.0929058,0.10808,0.0,0.997466,0.000806278,0.0465475,0.0538009,0.0,0.0,-0.495789,1,0,0,0,0,0
44076000,0.00264604,0.101921,0.10808,0.0,0.997247,-0.00143198,0.0509352,0.0538761,0.0,0.0,-0.495069,1,0,0,0,0,0
44192000,0.0020595,0.108004,0.10808,0.0,0.997087,-0.00188866,0.0539522,0.0538793,0.0,0.0,-0.495,1,0,0,0,0,0
44292000,0.00187918,0.110426,0.10808,0.0,0.997021,-0.00204395,0.0551551,0.0538795,0.0,0.0,-0.49601,1,0,0,0,0,0
44388000,-0.000333642,0.115176,0.10808,0.0,0.996884,-0.00327512,0.0574633,0.0539336,0.0,0.0,-0.495135,1,0,0,0,0,0
44484000,-0.00212051,0.11807,0.10808,0.0,0.996797,-0.00424371,0.0588575,0.0539819,0.0,0.0,-0.496251,1,0,0,0,0,0
44580000,-0.0018683,0.11781,0.10808,0.0,0.996805,-0.00411099,0.0587344,0.0539748,0.0,0.0,-0.496328,1,0,0,0,0,0
44696000,-0.000549599,0.116507,0.10808,0.0,0.996845,-0.00341864,0.0581209,0.0539379,0.0,0.0,-0.496211,1,0,0,0,0,0
44792000,-0.000639097,0.114124,0.10808,0.0,0.996914,-0.00339901,0.0569304,0.0539439,0.0,0.0,-0.496503,1,0,0,0,0,0
44892000,-0.000360622,0.110667,0.10808,0.0,0.997011,-0.00316699,0.0552146,0.0539409,0.0,0.0,-0.497521,1,0,0,0,0,0
44988000,-0.000462883,0.108002,0.10808,0.0,0.997084,-0.00314613,0.0538834,0.0539473,0.0,0.0,-0.496066,1,0,0,0,0,0
45084000,0.000473888,0.105778,0.10808,0.0,0.997145,-0.00261914,0.0528002,0.0539255,0.0,0.0,-0.495493,1,0,0,0,0,0
45180000,0.000429394,0.10459,0.10808,0.0,0.997176,-0.00260926,0.0522064,0.0539285,0.0,0.0,-0.495545,1,0,0,0,0,0
45296000,0.00101891,0.106441,0.10808,0.0,0.997128,-0.00236528,0.0531452,0.05391,0.0,0.0,-0.496258,1,0,0,0,0,0
45392000,-0.000907678,0.112438,0.10808,0.0,0.996961,-0.00348746,0.0560831,0.0539537,0.0,0.0,-0.496746,1,0,0,0,0,0
45492000,-0.00328003,0.118339,0.10808,0.0,0.996786,-0.00482884,0.0589602,0.0540158,0.0,0.0,-0.496712,1,0,0,0,0,0
45588000,-0.00240123,0.120583,0.10808,0.0,0.996721,-0.00445126,0.0601021,0.0539876,0.0,0.0,-0.496916,1,0,0,0,0,0
45680000,-0.00207482,0.119532,0.10808,0.0,0.996753,-0.00426029,0.0595871,0.053979,0.0,0.0,-0.495617,1,0,0,0,0,0
45796000,-0.00196077,0.119138,0.10808,0.0,0.996765,-0.00419285,0.059394,0.053976,0.0,0.0,-0.495249,1,0,0,0,0,0
45892000,-0.00193023,0.116509,0.10808,0.0,0.996843,-0.00410683,0.0580847,0.053978,0.0,0.0,-0.495395,1,0,0,0,0,0
45992000,-0.00197569,0.114633,0.10808,0.0,0.996897,-0.00407896,0.0571482,0.0539813,0.0,0.0,-0.49534,1,0,0,0,0,0
46088000,-0.00169123,0.11362,0.10808,0.0,0.996926,-0.00390989,0.0566511,0.0539744,0.0,0.0,-0.496183,1,0,0,0,0,0
46184000,-0.0023386,0.115378,0.10808,0.0,0.996875,-0.0042799,0.0575096,0.053991,0.0,0.0,-0.494791,1,0,0,0,0,0
46280000,-0.00538502,0.117513,0.10808,0.0,0.996805,-0.00585574,0.0584914,0.054078,0.0,0.0,-0.494978,1,0,0,0,0,0
46376000,-0.005708,0.115331,0.10808,0.0,0.996868,-0.00595807,0.0573952,0.0540878,0.0,0.0,-0.495671,1,0,0,0,0,0
46492000,-0.00442566,0.113142,0.10808,0.0,0.996934,-0.00526003,0.0563389,0.054052,0.0,0.0,-0.49608,1,0,0,0,0,0
46592000,-0.00276849,0.112962,0.10808,0.0,0.996943,-0.00442913,0.0562937,0.0540054,0.0,0.0,-0.494714,1,0,0,0,0,0
46688000,-0.00216943,0.115485,0.10808,0.0,0.996872,-0.00419847,0.0575675,0.053986,0.0,0.0,-0.494884,1,0,0,0,0,0
46784000,-0.00339371,0.119274,0.10808,0.0,0.996758,-0.00491066,0.0594231,0.0540185,0.0,0.0,-0.494595,1,0,0,0,0,0
46880000,-0.003316,0.120871,0.10808,0.0,0.99671,-0.00491489,0.0602208,0.0540149,0.0,0.0,-0.494367,1,0,0,0,0,0
46996000,-0.0039296,0.122592,0.10808,0.0,0.996656,-0.00526699,0.0610622,0.0540322,0.0,0.0,-0.494516,1,0,0,0,0,0
47092000,-0.00463805,0.125165,0.10808,0.0,0.996575,-0.0056892,0.0623253,0.0540525,0.0,0.0,-0.49506,1,0,0,0,0,0
47192000,-0.00332609,-0.0244206,0.10808,0.0,0.998465,-0.00100099,-0.012282,0.0539892,0.0,0.0,-0.493445,1,0,0,0,0,0
47288000,-0.00137621,-0.192902,0.10808,0.0,0.993903,0.00451768,-0.096198,0.0536963,0.0,0.0,-0.50119,1,0,0,0,0,0
47384000,-0.00194277,-0.302298,0.10808,0.0,0.987163,0.00717414,-0.150406,0.0532517,0.0,0.0,-0.50279,1,0,0,0,0,0
47480000,-0.00273821,-0.173616,0.10808,0.0,0.994786,0.00332095,-0.0866458,0.0536916,0.0,0.0,-0.478521,1,0,0,0,0,0
47576000,-0.00142115,0.132681,0.10808,0.0,0.996341,-0.00428865,0.0661569,0.0539418,0.0,0.0,-0.496691,1,0,0,0,0,0
47692000,-0.00107757,0.122525,0.10808,0.0,0.996665,-0.00384394,0.061106,0.0539452,0.0,0.0,-0.49083,1,0,0,0,0,0
47792000,0.00647887,-0.100705,0.10808,0.0,0.997261,0.00594916,-0.0500828,0.0541076,0.0,0.0,-0.490721,1,0,0,0,0,0
47888000,0.0156623,-0.263418,0.10808,0.0,0.989806,0.0148452,-0.130713,0.0545711,0.0,0.0,-0.501143,1,0,0,0,0,0
47984000,0.0203081,-0.360571,0.10808,0.0,0.982207,0.0196594,-0.1785,0.0549534,0.0,0.0,-0.503428,1,0,0,0,0,0
48080000,0.0178833,-0.406012,0.10808,0.0,0.977899,0.0196346,-0.200839,0.0547024,0.0,0.0,-0.506278,1,0,0,0,0,0
48196000,0.0119229,-0.446705,0.10808,0.0,0.973648,0.0177687,-0.220859,0.0539895,0.0,0.0,-0.518843,1,0,0,0,0,0
48292000,0.00488786,-0.38604,0.10808,0.0,0.979968,0.0127561,-0.191413,0.0534785,0.0,0.0,-0.5158,1,0,0,0,0,0
48392000,0.000595446,-0.308878,0.10808,0.0,0.986653,0.00860244,-0.153586,0.0534164,0.0,0.0,-0.51804,1,0,0,0,0,0
48488000,-0.000631732,-0.284466,0.10808,0.0,0.988459,0.00734441,-0.141564,0.0534234,0.0,0.0,-0.518076,1,0,0,0,0,0
48584000,-0.00207276,-0.300643,0.10808,0.0,0.987287,0.00706566,-0.149593,0.0532494,0.0,0.0,-0.518458,1,0,0,0,0,0
48680000,-0.00457351,0.0773688,0.10808,0.0,0.997786,-0.00437066,0.0384948,0.0540613,0.0,0.0,-0.495817,1,0,0,0,0,0
48796000,-0.00691463,-0.135998,0.10808,0.0,0.996239,0.000225735,-0.0680333,0.0536539,0.0,0.0,-0.500704,1,0,0,0,0,0
48892000,-0.0193057,-0.304154,0.10808,0.0,0.987049,-0.00134515,-0.151779,0.0519275,0.0,0.0,-0.508215,1,0,0,0,0,0
48992000,-0.019082,-0.0350422,0.10808,0.0,0.998351,-0.00857919,-0.0180091,0.0538359,0.0,0.0,-0.481987,1,0,0,0,0,0
49088000,-0.0132416,0.213121,0.10808,0.0,0.992816,-0.0123183,0.105846,0.0544092,0.0,0.0,-0.502031,1,0,0,0,0,0
49184000,-0.00867613,0.375508,0.10808,0.0,0.980939,-0.0143373,0.186149,0.0538724,0.0,0.0,-0.510061,1,0,0,0,0,0
49280000,-0.00379951,0.464141,0.10808,0.0,0.971746,-0.0142689,0.229557,0.0530018,0.0,0.0,-0.510088,1,0,0,0,0,0
49376000,-0.00167296,0.494708,0.10808,0.0,0.968137,-0.0140345,0.244438,0.0525741,0.0,0.0,-0.518288,1,0,0,0,0,0
49492000,-0.00132113,0.514959,0.10808,0.0,0.965614,-0.0143921,0.254238,0.052401,0.0,0.0,-0.540414,1,0,0,0,0,0
49592000,-0.000569188,0.492314,0.10808,0.0,0.968436,-0.0134376,0.243308,0.0524546,0.0,0.0,-0.54927,1,0,0,0,0,0
49688000,-0.000327232,0.495624,0.10808,0.0,0.968034,-0.013407,0.244917,0.0524036,0.0,0.0,-0.558561,1,0,0,0,0,0
49784000,-0.00255186,0.507518,0.10808,0.0,0.966544,-0.0147931,0.250611,0.0526036,0.0,0.0,-0.565031,1,0,0,0,0,0
49880000,-0.00186027,0.523141,0.10808,0.0,0.964562,-0.014865,0.258172,0.0524165,0.0,0.0,-0.567131,1,0,0,0,0,0
49976000,0.000308045,0.443344,0.10808,0.0,0.974109,-0.0117254,0.219548,0.0526581,0.0,0.0,-0.545812,1,0,0,0,0,0
50092000,0.00151662,0.296756,0.10808,0.0,0.987574,-0.00723616,0.147659,0.0533081,0.0,0.0,-0.541938,1,0,0,0,0,0
50192000,0.00148772,0.194986,0.10808,0.0,0.993802,-0.00451837,0.0972367,0.0536848,0.0,0.0,-0.532476,1,0,0,0,0,0
50288000,0.00292104,0.155345,0.10808,0.0,0.995535,-0.00273716,0.0775598,0.0537375,0.0,0.0,-0.520256,1,0,0,0,0,0
50384000,0.00190571,0.142535,0.10808,0.0,0.996009,-0.00289712,0.0711548,0.0538087,0.0,0.0,-0.509275,1,0,0,0,0,0
50480000,0.00199286,0.140165,0.10808,0.0,0.996092,-0.00278978,0.0699767,0.0538113,0.0,0.0,-0.501245,1,0,0,0,0,0
50596000,0.00220943,0.141088,0.10808,0.0,0.99606,-0.0027068,0.0704418,0.0538014,0.0,0.0,-0.497537,1,0,0,0,0,0
50692000,0.00245196,0.00219546,0.10808,0.0,0.998539,0.0011649,0.00116234,0.0540121,0.0,0.0,-0.493486,1,0,0,0,0,0
50792000,0.00548002,-0.176119,0.10808,0.0,0.994654,0.00747565,-0.0876696,0.0540447,0.0,0.0,-0.500404,1,0,0,0,0,0
50888000,0.0195148,-0.289448,0.10808,0.0,0.987978,0.0174306,-0.14348,0.0548515,0.0,0.0,-0.502208,1,0,0,0,0,0
50984000,0.027245,-0.352796,0.10808,0.0,0.982825,0.0228688,-0.174488,0.0555574,0.0,0.0,-0.501532,1,0,0,0,0,0
51080000,0.027062,-0.383611,0.10808,0.0,0.98,0.0235588,-0.189618,0.0555938,0.0,0.0,-0.506885,1,0,0,0,0,0
51196000,0.0219271,-0.419356,0.10808,0.0,0.976488,0.0219495,-0.20725,0.055106,0.0,0.0,-0.519235,1,0,0,0,0,0
51292000,-0.0109261,0.149431,0.10808,0.0,0.995717,-0.0094717,0.0742418,0.0542693,0.0,0.0,-0.485937,1,0,0,0,0,0
51392000,-0.0162816,0.16168,0.10808,0.0,0.995211,-0.0124638,0.0801932,0.0544918,0.0,0.0,-0.50505,1,0,0,0,0,0
51488000,-0.0148803,0.0284441,0.10808,0.0,0.998406,-0.00819661,0.0137986,0.0541123,0.0,0.0,-0.490639,1,0,0,0,0,0
51584000,-0.00961806,-0.110177,0.10808,0.0,0.997028,-0.00182071,-0.0552392,0.0536666,0.0,0.0,-0.49342,1,0,0,0,0,0
51680000,-0.00274463,-0.196441,0.10808,0.0,0.993734,0.00393299,-0.0979929,0.0536188,0.0,0.0,-0.495403,1,0,0,0,0,0
51776000,-0.00243328,-0.237867,0.10808,0.0,0.991493,0.00520261,-0.118545,0.0534878,0.0,0.0,-0.495417,1,0,0,0,0,0
51892000,-0.00289797,-0.267155,0.10808,0.0,0.989654,0.00575956,-0.133063,0.0533397,0.0,0.0,-0.497595,1,0,0,0,0,0
51992000,-0.00351083,-0.257121,0.10808,0.0,0.99031,0.00518651,-0.128113,0.053343,0.0,0.0,-0.49947,1,0,0,0,0,0
52088000,-0.00399772,-0.260165,0.10808,0.0,0.990116,0.00502733,-0.129633,0.0532982,0.0,0.0,-0.503153,1,0,0,0,0,0
52184000,-0.00423366,-0.264894,0.10808,0.0,0.989808,0.0050378,-0.13198,0.0532613,0.0,0.0,-0.504699,1,0,0,0,0,0
52280000,-0.00478277,-0.271429,0.10808,0.0,0.989373,0.00494198,-0.135228,0.0531937,0.0,0.0,-0.504865,1,0,0,0,0,0
52376000,-0.00652147,-0.279235,0.10808,0.0,0.988843,0.00429243,-0.139135,0.0530346,0.0,0.0,-0.505584,1,0,0,0,0,0
52492000,-0.00735449,-0.296741,0.10808,0.0,0.987592,0.00435307,-0.147806,0.052877,0.0,0.0,-0.50901,1,0,0,0,0,0
52592000,-0.0091934,-0.288908,0.10808,0.0,0.988165,0.00323313,-0.143986,0.0527897,0.0,0.0,-0.507492,1,0,0,0,0,0
52688000,-0.00954249,-0.297991,0.10808,0.0,0.987504,0.00330646,-0.148481,0.0527073,0.0,0.0,-0.507711,1,0,0,0,0,0
52784000,-0.00908862,-0.301762,0.10808,0.0,0.987222,0.00363255,-0.150331,0.0527173,0.0,0.0,-0.508406,1,0,0,0,0,0
52880000,-0.010037,-0.306944,0.10808,0.0,0.986833,0.00330472,-0.152913,0.052612,0.0,0.0,-0.509211,1,0,0,0,0,0
52996000,-0.00972597,-0.326077,0.10808,0.0,0.985329,0.00397575,-0.162337,0.0525085,0.0,0.0,-0.511963,1,0,0,0,0,0
53092000,-0.0101159,-0.326698,0.10808,0.0,0.98528,0.00380048,-0.162654,0.0524725,0.0,0.0,-0.512983,1,0,0,0,0,0
53192000,-0.00983335,-0.316465,0.10808,0.0,0.986096,0.00366283,-0.157603,0.0525646,0.0,0.0,-0.510802,1,0,0,0,0,0
53288000,-0.00993568,-0.317329,0.10808,0.0,0.986028,0.00363576,-0.158032,0.0525507,0.0,0.0,-0.511651,1,0,0,0,0,0
53384000,-0.00988374,-0.320779,0.10808,0.0,0.985755,0.00375471,-0.159731,0.0525316,0.0,0.0,-0.511837,1,0,0,0,0,0
53480000,-0.00815996,-0.324446,0.10808,0.0,0.985457,0.00470327,-0.161493,0.052646,0.0,0.0,-0.511558,1,0,0,0,0,0
53576000,-0.00847586,-0.326723,0.10808,0.0,0.985274,0.00460907,-0.162623,0.0526057,0.0,0.0,-0.512066,1,0,0,0,0,0
53692000,-0.00785988,-0.341816,0.10808,0.0,0.984021,0.00531939,-0.170037,0.0525588,0.0,0.0,-0.515842,1,0,0,0,0,0
53792000,-0.0076261,-0.330011,0.10808,0.0,0.985004,0.00511632,-0.16422,0.0526541,0.0,0.0,-0.512339,1,0,0,0,0,0
53888000,-0.00725654,-0.328684,0.10808,0.0,0.985112,0.00526259,-0.163557,0.0526927,0.0,0.0,-0.513434,1,0,0,0,0,0
53984000,-0.00549575,-0.328918,0.10808,0.0,0.985088,0.00613616,-0.163626,0.0528353,0.0,0.0,-0.513865,1,0,0,0,0,0
54080000,-0.0065822,-0.242357,0.10808,0.0,0.991234,0.00326705,-0.120882,0.0532199,0.0,0.0,-0.504988,1,0,0,0,0,0
54196000,-0.00831014,-0.169669,0.10808,0.0,0.99496,0.000442618,-0.0848321,0.0534673,0.0,0.0,-0.504635,1,0,0,0,0,0
54292000,-0.00858962,-0.117382,0.10808,0.0,0.996825,-0.00111289,-0.0588025,0.0536685,0.0,0.0,-0.501848,1,0,0,0,0,0
54392000,-0.00794991,-0.0754294,0.10808,0.0,0.99783,-0.00192971,-0.037865,0.0538251,0.0,0.0,-0.497496,1,0,0,0,0,0
54488000,-0.0089629,-0.0517067,0.10808,0.0,0.998203,-0.00307713,-0.0260545,0.0538793,0.0,0.0,-0.494433,1,0,0,0,0,0
54584000,-0.00927891,-0.034138,0.10808,0.0,0.998388,-0.00371008,-0.0172937,0.0539261,0.0,0.0,-0.493528,1,0,0,0,0,0
54680000,-0.00830589,-0.0160828,0.10808,0.0,0.998501,-0.0037124,-0.00825381,0.053978,0.0,0.0,-0.492994,1,0,0,0,0,0
54776000,-0.00835423,-0.00328252,0.10808,-0.0,0.99853,-0.00408235,-0.00186447,0.0540062,0.0,0.0,-0.516669,1,0,0,0,0,0
54892000,-0.00854761,0.0113389,0.10808,-0.0,0.998514,-0.00457371,0.00543023,0.0540364,0.0,0.0,-0.503206,1,0,0,0,0,0
54992000,-0.00738459,0.0199075,0.10808,-0.0,0.998482,-0.00422434,0.00973959,0.0540472,0.0,0.0,-0.580067,1,0,0,0,0,0
55088000,-0.00499586,0.0195618,0.10808,-0.0,0.998488,-0.00302245,0.0096315,0.0540352,0.0,0.0,-0.760914,1,0,0,0,0,0
55184000,-0.00481655,0.027268,0.10808,-0.0,0.998443,-0.00314093,0.0134836,0.0540412,0.0,0.0,-0.66845,1,0,0,0,0,0
55280000,-0.00696682,0.0324705,0.10808,-0.0,0.998399,-0.00435474,0.0160226,0.0540626,0.0,0.0,-0.652206,1,0,0,0,0,0
55376000,-0.00959604,0.0499141,0.10808,-0.0,0.998211,-0.00613737,0.0246587,0.0541157,0.0,0.0,-0.524176,1,0,0,0,0,0
55492000,-0.011771,0.0593581,0.10808,-0.0,0.998074,-0.00747712,0.0293131,0.0541633,0.0,0.0,-0.503542,1,0,0,0,0,0
55592000,-0.0122026,0.0599809,0.10808,-0.0,0.998063,-0.00770924,0.0296122,0.054171,0.0,0.0,-0.502252,1,0,0,0,0,0
55688000,-0.00963775,0.0584685,0.10808,-0.0,0.998094,-0.00638857,0.0289269,0.0541305,0.0,0.0,-0.501205,1,0,0,0,0,0
55784000,-0.00814528,0.0560537,0.10808,-0.0,0.998134,-0.00557871,0.0277622,0.0541059,0.0,0.0,-0.498405,1,0,0,0,0,0
55880000,-0.00705913,0.0512829,0.10808,-0.0,0.998201,-0.00490807,0.0254105,0.0540858,0.0,0.0,-0.496583,1,0,0,0,0,0
55996000,-0.00788075,0.049955,0.10808,-0.0,0.998216,-0.00528236,0.0247255,0.0540946,0.0,0.0,-0.495203,1,0,0,0,0,0
56092000,-0.007027,0.0467257,0.10808,-0.0,0.998257,-0.00476919,0.0231367,0.0540805,0.0,0.0,-0.493287,1,0,0,0,0,0
56192000,-0.00651912,0.0424336,0.10808,-0.0,0.998306,-0.00439997,0.0210081,0.0540702,0.0,0.0,-0.492154,1,0,0,0,0,0
56288000,-0.00525647,0.0381325,0.10808,-0.0,0.998353,-0.00365369,0.0188952,0.0540536,0.0,0.0,-0.491156,1,0,0,0,0,0
56384000,-0.00548565,0.0328033,0.10808,-0.0,0.9984,-0.00362432,0.0162288,0.054051,0.0,0.0,-0.490013,1,0,0,0,0,0
56480000,-0.00421043,0.0290022,0.10808,-0.0,0.998431,-0.00288515,0.0143657,0.0540383,0.0,0.0,-0.489851,1,0,0,0,0,0
56596000,-0.00460546,0.025908,0.10808,-0.0,0.998452,-0.00299885,0.0128103,0.0540387,0.0,0.0,-0.489932,1,0,0,0,0,0
56692000,-0.00437028,0.0205392,0.10808,-0.0,0.998484,-0.00273652,0.0101364,0.054033,0.0,0.0,-0.489941,1,0,0,0,0,0
56792000,-0.00387184,0.0144237,0.10808,-0.0,0.998512,-0.00232257,0.00709666,0.054026,0.0,0.0,-0.507853,1,0,0,0,0,0
56888000,-0.00205293,0.010391,0.10808,-0.0,0.998526,-0.00130558,0.00513246,0.0540181,0.0,0.0,-0.512738,1,0,0,0,0,0
56984000,-0.00188713,0.00757293,0.10808,-0.0,0.998532,-0.0011467,0.00372996,0.0540167,0.0,0.0,-0.514976,1,0,0,0,0,0
57080000,-0.000791757,0.00355277,0.107991,0.0969627,0.998541,-0.000491171,0.00175243,0.0539697,0.0,0.0,-0.516191,1,0,0,0,0,0
57196000,-0.00552939,0.000924505,0.113089,0.8843,0.998398,-0.0027864,0.000305268,0.0565153,0.0,0.0,-0.220994,1,0,0,0,0,0
57292000,-0.0159973,-0.000805277,0.142721,1.79187,0.997423,-0.00794951,-0.0009719,0.0712946,0.0,0.0,-0.18179,1,0,0,0,0,0
57392000,-0.0184432,-0.00924856,0.20685,3.49066,0.994608,-0.00869473,-0.00555138,0.103193,0.0,0.0,-0.240159,1,0,0,0,0,0
57488000,-0.0195518,-0.00924722,0.312066,3.49066,0.987801,-0.00893841,-0.00608635,0.155347,0.0,0.0,-0.44,1,0,0,0,0,0
57584000,-0.0386284,-0.00866368,0.48607,3.49066,0.970442,-0.017703,-0.00885135,0.240521,0.0,0.0,-0.477974,1,0,0,0,0,0
57680000,-0.0571268,-0.00486154,0.714746,3.49066,0.936459,-0.0259051,-0.0122668,0.349605,0.0,0.0,-0.481163,1,0,0,0,0,0
57796000,-0.0579666,0.00381034,1.02948,3.49066,0.870027,-0.0261616,-0.0126091,0.492148,0.0,0.0,-0.482556,1,0,0,0,0,0
57892000,-0.047836,0.0122236,1.34026,3.49066,0.783412,-0.0225382,-0.0100648,0.621012,0.0,0.0,-0.48609,1,0,0,0,0,0
57992000,-0.0288229,0.0172367,1.66978,3.49066,0.671073,-0.0160605,-0.00489685,0.741201,0.0,0.0,-0.489566,1,0,0,0,0,0
58088000,-0.0136331,0.0184651,1.99782,3.49066,0.541129,-0.0114522,-0.000735006,0.840861,0.0,0.0,-0.491457,1,0,0,0,0,0
58184000,-0.00137543,0.0086856,2.33362,3.00585,0.393082,-0.00426352,0.00107475,0.919493,0.0,0.0,-0.668306,1,0,0,0,0,0
58280000,0.00703488,0.0010001,2.66116,1.245,0.237914,0.000351158,0.0035354,0.97128,0.0,0.0,-0.827308,1,0,0,0,0,0
58376000,0.0180392,-0.00460554,2.92604,0.0,0.107541,0.0032595,0.00871942,0.994157,0.0,0.0,-0.895324,1,0,0,0,0,0
58492000,0.038442,-0.0159477,-3.07325,-1.5514,-0.034312,0.00731098,0.0194804,0.999195,0.0,0.0,-0.750389,1,0,0,0,0,0
58592000,0.0623953,-0.030385,-2.91963,-2.57921,-0.11116,0.0116367,0.0326789,0.993197,0.0,0.0,-0.633972,1,0,0,0,0,0
58688000,0.0792848,-0.0343383,-2.87812,-2.64127,-0.131907,0.0118011,0.0415362,0.990321,0.0,0.0,-0.634454,1,0,0,0,0,0
58784000,0.126656,-0.0335942,-2.93642,-2.94379,-0.103245,0.0101945,0.0646605,0.9925,0.0,0.0,-0.499992,1,0,0,0,0,0
58880000,0.166409,-0.00961789,-3.07845,-3.4286,-0.0318545,0.00216665,0.0832174,0.99602,0.0,0.0,-0.403751,1,0,0,0,0,0
58976000,0.126157,0.0285353,2.9931,-3.49066,0.0749222,-0.00952396,0.0639126,0.995093,0.0,0.0,-0.451187,1,0,0,0,0,0
59092000,0.0718361,0.0603198,2.68081,-3.49066,0.22916,-0.021143,0.0418273,0.97226,0.0,0.0,-0.487046,1,0,0,0,0,0
59192000,0.0171765,0.0670756,2.34779,-3.49066,0.386597,-0.0276058,0.0208776,0.921599,0.0,0.0,-0.489799,1,0,0,0,0,0
59288000,-0.024796,0.0520059,2.01497,-3.49066,0.533494,-0.0285991,0.00340403,0.845313,0.0,0.0,-0.48908,1,0,0,0,0,0
59384000,-0.0530589,0.0225314,1.66672,-3.49066,0.671891,-0.0261707,-0.0120613,0.740089,0.0,0.0,-0.489125,1,0,0,0,0,0
59480000,-0.0597618,-0.0162601,1.30845,-3.49066,0.793287,-0.0187615,-0.024629,0.60806,0.0,0.0,-0.489757,1,0,0,0,0,0
59596000,-0.055496,-0.06479,0.883947,-3.49066,0.903472,-0.0112169,-0.0411265,0.426523,0.0,0.0,-0.402072,1,0,0,0,0,0
59692000,-0.0226946,-0.0808979,0.515947,-3.49066,0.966173,-0.000646675,-0.0419898,0.254453,0.0,0.0,-0.443221,1,0,0,0,0,0
59792000,0.0197039,-0.0997756,0.114703,-3.49066,0.997037,0.0126816,-0.0492187,0.0577363,0.0,0.0,-0.36496,1,0,0,0,0,0
59888000,0.0517966,-0.08034,-0.257013,-3.49066,0.990755,0.0205164,-0.0431306,-0.126975,0.0,0.0,-0.383203,1,0,0,0,0,0
59984000,0.0635905,-0.0464236,-0.62828,-3.18426,0.950554,0.0230579,-0.0318831,-0.308057,0.0,0.0,-0.432822,1,0,0,0,0,0
60080000,0.0548517,-0.0109958,-0.99056,-3.00585,0.879563,0.0215148,-0.0178685,-0.474959,0.0,0.0,-0.482153,1,0,0,0,0,0
60196000,0.0406557,0.011787,-1.39623,-3.00585,0.765807,0.0193583,-0.00855131,-0.642722,0.0,0.0,-0.488215,1,0,0,0,0,0
60292000,0.0230737,0.0227075,-1.73244,-3.00585,0.647527,0.0161214,-0.00143568,-0.76187,0.0,0.0,-0.488842,1,0,0,0,0,0
60392000,0.00438401,0.0268566,-2.08772,-3.00585,0.502815,0.0127086,0.00485821,-0.864287,0.0,0.0,-0.489697,1,0,0,0,0,0
60488000,-0.00641387,0.0244898,-2.4094,-3.00585,-0.357979,-0.0102852,-0.00737737,0.933644,0.0,0.0,-0.489136,1,0,0,0,0,0
60584000,-0.018039,0.021398,-2.7269,-2.64127,-0.205939,-0.00861255,-0.0110281,0.978465,0.0,0.0,-0.457129,1,0,0,0,0,0
60680000,-0.0284565,0.0135852,-3.03341,-2.64127,-0.0541537,-0.00601271,-0.0145738,0.998408,0.0,0.0,-0.482599,1,0,0,0,0,0
60796000,-0.0371728,0.00145178,2.90763,-2.57921,0.11668,-0.00288996,-0.0183736,0.992995,0.0,0.0,-0.49058,1,0,0,0,0,0
60892000,-0.0407984,-0.0121361,2.62515,-2.57921,0.255422,0.000656936,-0.0212704,0.966595,0.0,0.0,-0.490886,1,0,0,0,0,0
60992000,-0.0387066,-0.0223701,2.3278,-2.57921,0.395859,0.00261142,-0.0221966,0.918039,0.0,0.0,-0.489826,1,0,0,0,0,0
61088000,-0.0325568,-0.0317279,2.05926,-2.57921,0.515223,0.00521066,-0.0221206,0.856755,0.0,0.0,-0.489217,1,0,0,0,0,0
61184000,-0.0246461,-0.0368595,1.79455,-2.57921,0.623766,0.00671842,-0.0211241,0.781296,0.0,0.0,-0.490079,1,0,0,0,0,0
61280000,-0.0157002,-0.0397128,1.53303,-2.57921,0.720278,0.0081181,-0.0197458,0.693357,0.0,0.0,-0.489618,1,0,0,0,0,0
