timestamp,time_utc_usec,lat,lon,alt,alt_ellipsoid,s_variance_m_s,c_variance_rad,eph,epv,hdop,vdop,noise_per_ms,jamming_indicator,vel_m_s,vel_n_m_s,vel_e_m_s,vel_d_m_s,cog_rad,timestamp_time_relative,heading,heading_offset,fix_type,vel_ned_valid,satellites_used
1904000,0,473977421,85455940,487997,0,0.25,0.0,73.08,73.11,0.0,0.0,0,0,0.0,0.0,0.0,0.0,0.0,0,nan,nan,0,0,10
2004000,0,473977418,85455942,487998,0,0.25,0.0,69.88,69.91,0.0,0.0,0,0,0.0,0.0,0.0,0.0,0.0,0,nan,nan,0,0,10
2104000,0,473977418,85455941,487996,0,0.25,0.0,66.83,66.86,0.0,0.0,0,0,0.0,0.0,0.0,0.0,0.0,0,nan,nan,0,0,10
2204000,0,473977419,85455940,488001,0,0.25,0.0,63.9,63.94,0.0,0.0,0,0,0.0,0.0,0.0,0.0,0.0,0,nan,nan,0,0,10
2304000,0,473977419,85455941,488002,0,0.25,0.0,62.49,62.53,0.0,0.0,0,0,0.0,0.0,0.0,0.0,0.0,0,nan,nan,0,0,10
2404000,0,473977419,85455938,488008,0,0.25,0.0,59.75,59.79,0.0,0.0,0,0,0.0,0.0,0.0,0.0,0.0,0,nan,nan,0,0,10
2504000,0,473977419,85455941,488005,0,0.25,0.0,57.14,57.18,0.0,0.0,0,0,0.0,0.0,0.0,0.0,0.0,0,nan,nan,0,0,10
2604000,0,473977420,85455937,487998,0,0.25,0.0,54.64,54.69,0.0,0.0,0,0,0.0,0.0,0.0,0.0,0.0,0,nan,nan,0,0,10
2704000,0,473977420,85455940,487980,0,0.25,0.0,52.25,52.3,0.0,0.0,0,0,0.0,0.0,0.0,0.0,0.0,0,nan,nan,0,0,10
2804000,0,473977421,85455940,487993,0,0.25,0.0,49.97,50.02,0.0,0.0,0,0,0.0,0.0,0.0,0.0,0.0,0,nan,nan,0,0,10
2904000,0,473977420,85455939,488000,0,0.25,0.0,47.79,47.84,0.0,0.0,0,0,0.0,0.0,0.0,0.0,0.0,0,nan,nan,0,0,10
3004000,0,473977420,85455940,488002,0,0.25,0.0,45.7,45.75,0.0,0.0,0,0,0.0,0.0,0.0,0.0,0.0,0,nan,nan,0,0,10
3104000,0,473977420,85455940,487996,0,0.25,0.0,43.7,43.76,0.0,0.0,0,0,0.0,0.0,0.0,0.0,0.0,0,nan,nan,0,0,10
3204000,0,473977420,85455938,487992,0,0.25,0.0,41.8,41.85,0.0,0.0,0,0,0.0,0.0,0.0,0.0,0.0,0,nan,nan,0,0,10
3304000,0,473977421,85455940,487979,0,0.25,0.0,39.97,40.03,0.0,0.0,0,0,0.0,0.0,0.0,0.0,0.0,0,nan,nan,0,0,10
3404000,0,473977420,85455941,487986,0,0.25,0.0,38.23,38.29,0.0,0.0,0,0,0.0,0.0,0.0,0.0,0.0,0,nan,nan,0,0,10
3504000,0,473977420,85455940,487986,0,0.25,0.0,37.39,37.45,0.0,0.0,0,0,0.0,0.0,0.0,0.0,0.0,0,nan,nan,0,0,10
3604000,0,473977418,85455940,487990,0,0.25,0.0,35.76,35.82,0.0,0.0,0,0,0.0,0.0,0.0,0.0,0.0,0,nan,nan,0,0,10
3704000,0,473977420,85455938,487995,0,0.25,0.0,34.2,34.26,0.0,0.0,0,0,0.0,0.0,0.0,0.0,0.0,0,nan,nan,0,0,10
3804000,0,473977419,85455938,488010,0,0.25,0.0,32.71,32.77,0.0,0.0,0,0,0.0,0.0,0.0,0.0,0.0,0,nan,nan,0,0,10
3904000,0,473977418,85455940,487993,0,0.25,0.0,31.28,31.35,0.0,0.0,0,0,0.0,0.0,0.0,0.0,0.0,0,nan,nan,0,0,10
4004000,0,473977418,85455939,488009,0,0.25,0.0,29.92,29.99,0.0,0.0,0,0,0.0,0.0,0.0,0.0,0.0,0,nan,nan,0,0,10
4104000,0,473977417,85455940,487993,0,0.25,0.0,28.62,28.69,0.0,0.0,0,0,0.0,0.0,0.0,0.0,0.0,0,nan,nan,0,0,10
4204000,0,473977419,85455940,487989,0,0.25,0.0,27.37,27.45,0.0,0.0,0,0,0.0,0.0,0.0,0.0,0.0,0,nan,nan,0,0,10
4304000,0,473977419,85455938,487996,0,0.25,0.0,26.18,26.26,0.0,0.0,0,0,0.0,0.0,0.0,0.0,0.0,0,nan,nan,0,0,10
4404000,0,473977419,85455937,487986,0,0.25,0.0,25.05,25.12,0.0,0.0,0,0,0.0,0.0,0.0,0.0,0.0,0,nan,nan,0,0,10
4504000,0,473977417,85455939,488005,0,0.25,0.0,23.96,24.03,0.0,0.0,0,0,0.0,0.0,0.0,0.0,0.0,0,nan,nan,0,0,10
4604000,0,473977420,85455940,487990,0,0.25,0.0,22.92,23.0,0.0,0.0,0,0,0.0,0.0,0.0,0.0,0.0,0,nan,nan,0,0,10
4704000,0,473977419,85455942,487995,0,0.25,0.0,21.92,22.0,0.0,0.0,0,0,0.0,0.0,0.0,0.0,0.0,0,nan,nan,0,0,10
4804000,0,473977421,85455940,487991,0,0.25,0.0,20.97,21.05,0.0,0.0,0,0,0.0,0.0,0.0,0.0,0.0,0,nan,nan,0,0,10
4904000,0,473977422,85455938,487982,0,0.25,0.0,20.51,20.59,0.0,0.0,0,0,0.0,0.0,0.0,0.0,0.0,0,nan,nan,0,0,10
5004000,0,473977420,85455938,487991,0,0.25,0.0,19.62,19.71,0.0,0.0,0,0,0.0,0.0,0.0,0.0,0.0,0,nan,nan,0,0,10
5104000,0,473977421,85455936,487999,0,0.25,0.0,18.78,18.86,0.0,0.0,0,0,0.0,0.0,0.0,0.0,0.0,0,nan,nan,0,0,10
5204000,0,473977419,85455938,488015,0,0.25,0.0,17.96,18.05,0.0,0.0,0,0,0.0,0.0,0.0,0.0,0.0,0,nan,nan,0,0,10
5304000,0,473977418,85455941,488007,0,0.25,0.0,17.19,17.27,0.0,0.0,0,0,0.0,0.0,0.0,0.0,0.0,0,nan,nan,0,0,10
5404000,0,473977420,85455940,488007,0,0.25,0.0,16.44,16.53,0.0,0.0,0,0,0.0,0.0,0.0,0.0,0.0,0,nan,nan,0,0,10
5504000,0,473977419,85455940,488015,0,0.25,0.0,15.73,15.82,0.0,0.0,0,0,0.0,0.0,0.0,0.0,0.0,0,nan,nan,0,0,10
5604000,0,473977419,85455939,487999,0,0.25,0.0,15.06,15.14,0.0,0.0,0,0,0.0,0.0,0.0,0.0,0.0,0,nan,nan,0,0,10
5704000,0,473977419,85455939,487997,0,0.25,0.0,14.41,14.49,0.0,0.0,0,0,0.0,0.0,0.0,0.0,0.0,0,nan,nan,0,0,10
5804000,0,473977420,85455937,488001,0,0.25,0.0,13.79,13.87,0.0,0.0,0,0,0.0,0.0,0.0,0.0,0.0,0,nan,nan,0,0,10
5904000,0,473977419,85455938,487998,0,0.25,0.0,13.19,13.28,0.0,0.0,0,0,0.0,0.0,0.0,0.0,0.0,0,nan,nan,0,0,10
6004000,0,473977418,85455938,487995,0,0.25,0.0,12.63,12.71,0.0,0.0,0,0,0.0,0.0,0.0,0.0,0.0,0,nan,nan,0,0,10
6104000,0,473977419,85455939,487984,0,0.25,0.0,12.08,12.17,0.0,0.0,0,0,0.0,0.0,0.0,0.0,0.0,0,nan,nan,0,0,10
6204000,0,473977420,85455937,487997,0,0.25,0.0,11.82,11.91,0.0,0.0,0,0,0.0,0.0,0.0,0.0,0.0,0,nan,nan,0,0,10
6304000,0,473977420,85455940,488012,0,0.25,0.0,11.32,11.41,0.0,0.0,0,0,0.0,0.0,0.0,0.0,0.0,0,nan,nan,0,0,10
6404000,0,473977419,85455940,488009,0,0.25,0.0,10.83,10.92,0.0,0.0,0,0,0.0,0.0,0.0,0.0,0.0,0,nan,nan,0,0,10
6504000,0,473977419,85455938,487985,0,0.25,0.0,10.37,10.46,0.0,0.0,0,0,0.0,0.0,0.0,0.0,0.0,0,nan,nan,0,0,10
6604000,0,473977419,85455940,487982,0,0.25,0.0,9.93,10.02,0.0,0.0,0,0,0.0,0.0,0.0,0.0,0.0,0,nan,nan,0,0,10
6704000,0,473977419,85455940,487983,0,0.25,0.0,9.5,9.59,0.0,0.0,0,0,0.0,0.0,0.0,0.0,0.0,0,nan,nan,0,0,10
6804000,0,473977418,85455940,487998,0,0.25,0.0,9.1,9.19,0.0,0.0,0,0,0.0,0.0,0.0,0.0,0.0,0,nan,nan,0,0,10
6904000,0,473977420,85455938,488011,0,0.25,0.0,8.71,8.8,0.0,0.0,0,0,0.0,0.0,0.0,0.0,0.0,0,nan,nan,0,0,10
7004000,0,473977419,85455939,488016,0,0.25,0.0,8.34,8.43,0.0,0.0,0,0,0.0,0.0,0.0,0.0,0.0,0,nan,nan,0,0,10
7104000,0,473977420,85455938,488018,0,0.25,0.0,7.99,8.08,0.0,0.0,0,0,0.0,0.0,0.0,0.0,0.0,0,nan,nan,0,0,10
7204000,0,473977420,85455938,488007,0,0.25,0.0,7.65,7.74,0.0,0.0,0,0,0.0,0.0,0.0,0.0,0.0,0,nan,nan,0,0,10
7304000,0,473977420,85455936,487996,0,0.25,0.0,7.33,7.42,0.0,0.0,0,0,0.0,0.0,0.0,0.0,0.0,0,nan,nan,0,0,10
7404000,0,473977420,85455938,488013,0,0.25,0.0,7.02,7.11,0.0,0.0,0,0,0.0,0.0,0.0,0.0,0.0,0,nan,nan,0,0,10
7504000,0,473977420,85455940,488022,0,0.25,0.0,6.87,6.96,0.0,0.0,0,0,0.0,0.0,0.0,0.0,0.0,0,nan,nan,0,0,10
7604000,0,473977420,85455939,488008,0,0.25,0.0,6.58,6.67,0.0,0.0,0,0,0.0,0.0,0.0,0.0,0.0,0,nan,nan,0,0,10
7704000,0,473977420,85455938,488006,0,0.25,0.0,6.3,6.4,0.0,0.0,0,0,0.0,0.0,0.0,0.0,0.0,0,nan,nan,0,0,10
7804000,0,473977418,85455940,488004,0,0.25,0.0,6.04,6.13,0.0,0.0,0,0,0.0,0.0,0.0,0.0,0.0,0,nan,nan,0,0,10
7904000,0,473977418,85455940,488000,0,0.25,0.0,5.79,5.88,0.0,0.0,0,0,0.0,0.0,0.0,0.0,0.0,0,nan,nan,0,0,10
8004000,0,473977420,85455939,487995,0,0.25,0.0,5.54,5.64,0.0,0.0,0,0,0.0,0.0,0.0,0.0,0.0,0,nan,nan,0,0,10
8104000,0,473977420,85455939,488016,0,0.25,0.0,5.31,5.41,0.0,0.0,0,0,0.0,0.0,0.0,0.0,0.0,0,nan,nan,0,0,10
8204000,0,473977419,85455940,488018,0,0.25,0.0,5.09,5.19,0.0,0.0,0,0,0.0,0.0,0.0,0.0,0.0,0,nan,nan,0,0,10
8304000,0,473977420,85455942,488018,0,0.25,0.0,4.88,4.98,0.0,0.0,0,0,0.0,0.0,0.0,0.0,0.0,0,nan,nan,0,0,10
8404000,0,473977419,85455941,488001,0,0.25,0.0,4.68,4.78,0.0,0.0,0,0,0.0,0.0,0.0,0.0,0.0,0,nan,nan,0,0,10
8504000,0,473977419,85455942,488000,0,0.25,0.0,4.49,4.58,0.0,0.0,0,0,0.0,0.0,0.0,0.0,0.0,0,nan,nan,0,0,10
8604000,0,473977418,85455939,488005,0,0.25,0.0,4.3,4.4,0.0,0.0,0,0,0.0,0.0,0.0,0.0,0.0,0,nan,nan,0,0,10
8704000,0,473977419,85455939,488022,0,0.25,0.0,4.21,4.31,0.0,0.0,0,0,0.0,0.0,0.0,0.0,0.0,0,nan,nan,0,0,10
8804000,0,473977418,85455938,488020,0,0.25,0.0,4.04,4.14,0.0,0.0,0,0,0.0,0.0,0.0,0.0,0.0,0,nan,nan,0,0,10
8904000,0,473977418,85455941,487998,0,0.25,0.0,3.88,3.97,0.0,0.0,0,0,0.0,0.0,0.0,0.0,0.0,0,nan,nan,2,0,10
9004000,0,473977419,85455940,487993,0,0.25,0.0,3.72,3.82,0.0,0.0,0,0,0.0,0.0,0.0,0.0,0.0,0,nan,nan,2,0,10
9104000,0,473977418,85455939,487987,0,0.25,0.0,3.57,3.67,0.0,0.0,0,0,0.0,0.0,0.0,0.0,0.0,0,nan,nan,2,0,10
9204000,0,473977419,85455940,487993,0,0.25,0.0,3.43,3.52,0.0,0.0,0,0,0.0,0.0,0.0,0.0,0.0,0,nan,nan,2,0,10
9304000,0,473977419,85455941,488015,0,0.25,0.0,3.29,3.39,0.0,0.0,0,0,0.0,0.0,0.0,0.0,0.0,0,nan,nan,2,0,10
9404000,0,473977420,85455939,488021,0,0.25,0.0,3.16,3.25,0.0,0.0,0,0,0.0,0.0,0.0,0.0,0.0,0,nan,nan,2,0,10
9504000,0,473977420,85455939,488003,0,0.25,0.0,3.03,3.13,0.0,0.0,0,0,0.0,0.0,0.0,0.0,0.0,0,nan,nan,2,0,10
9604000,0,473977420,85455939,487990,0,0.25,0.0,2.91,3.01,0.0,0.0,0,0,0.0,0.0,0.0,0.0,0.0,0,nan,nan,3,0,10
9704000,0,473977421,85455939,487980,0,0.25,0.0,2.8,2.89,0.0,0.0,0,0,0.0,0.0,0.0,0.0,0.0,0,nan,nan,3,0,10
9804000,0,473977420,85455940,487994,0,0.25,0.0,2.69,2.78,0.0,0.0,0,0,0.0,0.0,0.0,0.0,0.0,0,nan,nan,3,0,10
9904000,0,473977419,85455939,487995,0,0.25,0.0,2.58,2.68,0.0,0.0,0,0,0.0,0.0,0.0,0.0,0.0,0,nan,nan,3,0,10
10004000,0,473977420,85455937,487985,0,0.25,0.0,2.53,2.63,0.0,0.0,0,0,0.0,0.0,0.0,0.0,0.0,0,nan,nan,3,0,10
10104000,0,473977420,85455939,487987,0,0.25,0.0,2.43,2.53,0.0,0.0,0,0,0.0,0.0,0.0,0.0,0.0,0,nan,nan,3,0,10
10204000,0,473977420,85455940,487982,0,0.25,0.0,2.34,2.44,0.0,0.0,0,0,0.0,0.0,0.0,0.0,0.0,0,nan,nan,3,0,10
10304000,0,473977420,85455941,487997,0,0.25,0.0,2.25,2.35,0.0,0.0,0,0,0.0,0.0,0.0,0.0,0.0,0,nan,nan,3,0,10
10404000,0,473977420,85455939,487986,0,0.25,0.0,2.16,2.26,0.0,0.0,0,0,0.0,0.0,0.0,0.0,0.0,0,nan,nan,3,0,10
10504000,0,473977419,85455940,487999,0,0.25,0.0,2.08,2.18,0.0,0.0,0,0,0.0,0.0,0.0,0.0,0.0,0,nan,nan,3,0,10
10604000,0,473977420,85455938,487990,0,0.25,0.0,2.0,2.1,0.0,0.0,0,0,0.0,0.0,0.0,0.0,0.0,0,nan,nan,3,0,10
10704000,0,473977418,85455939,487997,0,0.25,0.0,1.93,2.03,0.0,0.0,0,0,0.0,0.0,0.0,0.0,0.0,0,nan,nan,3,0,10
10804000,0,473977418,85455938,487988,0,0.25,0.0,1.86,1.95,0.0,0.0,0,0,0.0,0.0,0.0,0.0,0.0,0,nan,nan,3,0,10
10904000,0,473977420,85455941,487987,0,0.25,0.0,1.79,1.88,0.0,0.0,0,0,0.0,0.0,0.0,0.0,0.0,0,nan,nan,3,0,10
11004000,0,473977421,85455942,487988,0,0.25,0.0,1.72,1.82,0.0,0.0,0,0,0.0,0.0,0.0,0.0,0.0,0,nan,nan,3,0,10
11104000,0,473977420,85455940,487996,0,0.25,0.0,1.66,1.76,0.0,0.0,0,0,0.0,0.0,0.0,0.0,0.0,0,nan,nan,3,0,10
11204000,0,473977419,85455940,487993,0,0.25,0.0,1.6,1.7,0.0,0.0,0,0,0.0,0.0,0.0,0.0,0.0,0,nan,nan,3,0,10
11304000,0,473977420,85455939,487975,0,0.25,0.0,1.54,1.64,0.0,0.0,0,0,0.0,0.0,0.0,0.0,0.0,0,nan,nan,3,0,10
11404000,0,473977419,85455939,487970,0,0.25,0.0,1.51,1.61,0.0,0.0,0,0,0.0,0.0,0.0,0.0,0.0,0,nan,nan,3,0,10
11504000,0,473977419,85455937,487997,0,0.25,0.0,1.46,1.56,0.0,0.0,0,0,0.0,0.0,0.0,0.0,0.0,0,nan,nan,3,0,10
11604000,0,473977419,85455938,488002,0,0.25,0.0,1.41,1.51,0.0,0.0,0,0,0.0,0.0,0.0,0.0,0.0,0,nan,nan,3,0,10
11704000,0,473977419,85455937,488000,0,0.25,0.0,1.36,1.46,0.0,0.0,0,0,0.0,0.0,0.0,0.0,0.0,0,nan,nan,3,0,10
11804000,0,473977419,85455940,488010,0,0.25,0.0,1.31,1.41,0.0,0.0,0,0,0.0,0.0,0.0,0.0,0.0,0,nan,nan,3,0,10
11904000,0,473977419,85455940,488000,0,0.25,0.0,1.27,1.37,0.0,0.0,0,0,0.0,0.0,0.0,0.0,0.0,0,nan,nan,3,0,10
12004000,0,473977419,85455940,488004,0,0.25,0.0,1.23,1.32,0.0,0.0,0,0,0.0,0.0,0.0,0.0,0.0,0,nan,nan,3,0,10
12104000,0,473977420,85455939,488004,0,0.25,0.0,1.18,1.28,0.0,0.0,0,0,0.0,0.0,0.0,0.0,0.0,0,nan,nan,3,0,10
12204000,0,473977420,85455938,488004,0,0.25,0.0,1.15,1.24,0.0,0.0,0,0,0.0,0.0,0.0,0.0,0.0,0,nan,nan,3,0,10
12304000,0,473977418,85455939,488001,0,0.25,0.0,1.11,1.21,0.0,0.0,0,0,0.0,0.0,0.0,0.0,0.0,0,nan,nan,3,0,10
12404000,0,473977419,85455941,488012,0,0.25,0.0,1.07,1.17,0.0,0.0,0,0,0.0,0.0,0.0,0.0,0.0,0,nan,nan,3,0,10
12504000,0,473977419,85455939,488003,0,0.25,0.0,1.04,1.14,0.0,0.0,0,0,0.0,0.0,0.0,0.0,0.0,0,nan,nan,3,0,10
12604000,0,473977419,85455940,488007,0,0.25,0.0,1.01,1.1,0.0,0.0,0,0,0.0,0.0,0.0,0.0,0.0,0,nan,nan,3,0,10
12704000,0,473977419,85455942,488014,0,0.25,0.0,0.99,1.09,0.0,0.0,0,0,0.0,0.0,0.0,0.0,0.0,0,nan,nan,3,0,10
12804000,0,473977420,85455942,488005,0,0.25,0.0,0.96,1.06,0.0,0.0,0,0,0.0,0.0,0.0,0.0,0.0,0,nan,nan,3,0,10
12904000,0,473977420,85455941,487986,0,0.25,0.0,0.93,1.03,0.0,0.0,0,0,0.0,0.0,0.0,0.0,0.0,0,nan,nan,3,0,10
13004000,0,473977419,85455940,487992,0,0.25,0.0,0.9,1.0,0.0,0.0,0,0,0.0,0.0,0.0,0.0,0.0,0,nan,nan,3,0,10
13104000,0,473977418,85455941,487987,0,0.25,0.0,0.88,0.97,0.0,0.0,0,0,0.0,0.0,0.0,0.0,0.0,0,nan,nan,3,0,10
13204000,0,473977420,85455940,487984,0,0.25,0.0,0.85,0.95,0.0,0.0,0,0,0.0,0.0,0.0,0.0,0.0,0,nan,nan,3,0,10
13304000,0,473977420,85455940,487984,0,0.25,0.0,0.83,0.92,0.0,0.0,0,0,0.0,0.0,0.0,0.0,0.0,0,nan,nan,3,0,10
13404000,0,473977420,85455940,487981,0,0.25,0.0,0.8,0.9,0.0,0.0,0,0,0.0,0.0,0.0,0.0,0.0,0,nan,nan,3,0,10
13504000,0,473977419,85455939,488001,0,0.25,0.0,0.78,0.88,0.0,0.0,0,0,0.0,0.0,0.0,0.0,0.0,0,nan,nan,3,0,10
13604000,0,473977420,85455939,487995,0,0.25,0.0,0.76,0.86,0.0,0.0,0,0,0.0,0.0,0.0,0.0,0.0,0,nan,nan,3,0,10
13704000,0,473977419,85455939,487996,0,0.25,0.0,0.74,0.84,0.0,0.0,0,0,0.0,0.0,0.0,0.0,0.0,0,nan,nan,3,0,10
13804000,0,473977419,85455939,487994,0,0.25,0.0,0.72,0.82,0.0,0.0,0,0,0.0,0.0,0.0,0.0,0.0,0,nan,nan,3,0,10
13904000,0,473977420,85455940,488012,0,0.25,0.0,0.71,0.81,0.0,0.0,0,0,0.0,0.0,0.0,0.0,0.0,0,nan,nan,3,0,10
14004000,0,473977419,85455939,487998,0,0.25,0.0,0.69,0.79,0.0,0.0,0,0,0.0,0.0,0.0,0.0,0.0,0,nan,nan,3,0,10
14104000,0,473977418,85455941,488009,0,0.25,0.0,0.67,0.77,0.0,0.0,0,0,0.0,0.0,0.0,0.0,0.0,0,nan,nan,3,0,10
14204000,0,473977419,85455941,488009,0,0.25,0.0,0.66,0.76,0.0,0.0,0,0,0.0,0.0,0.0,0.0,0.0,0,nan,nan,3,0,10
14304000,0,473977420,85455940,488004,0,0.25,0.0,0.64,0.74,0.0,0.0,0,0,0.0,0.0,0.0,0.0,0.0,0,nan,nan,3,0,10
14404000,0,473977418,85455939,488000,0,0.25,0.0,0.63,0.73,0.0,0.0,0,0,0.0,0.0,0.0,0.0,0.0,0,nan,nan,3,0,10
14504000,0,473977420,85455939,488012,0,0.25,0.0,0.61,0.71,0.0,0.0,0,0,0.0,0.0,0.0,0.0,0.0,0,nan,nan,3,0,10
14604000,0,473977420,85455940,488002,0,0.25,0.0,0.6,0.7,0.0,0.0,0,0,0.0,0.0,0.0,0.0,0.0,0,nan,nan,3,0,10
14704000,0,473977421,85455939,488006,0,0.25,0.0,0.58,0.68,0.0,0.0,0,0,0.0,0.0,0.0,0.0,0.0,0,nan,nan,3,0,10
14804000,0,473977420,85455939,487995,0,0.25,0.0,0.57,0.67,0.0,0.0,0,0,0.0,0.0,0.0,0.0,0.0,0,nan,nan,3,0,10
14904000,0,473977419,85455940,488001,0,0.25,0.0,0.56,0.66,0.0,0.0,0,0,0.0,0.0,0.0,0.0,0.0,0,nan,nan,3,0,10
15004000,0,473977420,85455939,488011,0,0.25,0.0,0.55,0.65,0.0,0.0,0,0,0.0,0.0,0.0,0.0,0.0,0,nan,nan,3,0,10
15104000,0,473977419,85455940,487996,0,0.25,0.0,0.54,0.64,0.0,0.0,0,0,0.0,0.0,0.0,0.0,0.0,0,nan,nan,3,0,10
15204000,0,473977419,85455937,488005,0,0.25,0.0,0.53,0.63,0.0,0.0,0,0,0.0,0.0,0.0,0.0,0.0,0,nan,nan,3,0,10
15304000,0,473977420,85455938,488009,0,0.25,0.0,0.52,0.62,0.0,0.0,0,0,0.0,0.0,0.0,0.0,0.0,0,nan,nan,3,0,10
15404000,0,473977420,85455939,487997,0,0.25,0.0,0.51,0.61,0.0,0.0,0,0,0.0,0.0,0.0,0.0,0.0,0,nan,nan,3,0,10
15504000,0,473977421,85455940,488005,0,0.25,0.0,0.5,0.6,0.0,0.0,0,0,0.0,0.0,0.0,0.0,0.0,0,nan,nan,3,0,10
15604000,0,473977420,85455941,487984,0,0.25,0.0,0.49,0.59,0.0,0.0,0,0,0.0,0.0,0.0,0.0,0.0,0,nan,nan,3,0,10
15704000,0,473977420,85455942,487986,0,0.25,0.0,0.48,0.58,0.0,0.0,0,0,0.0,0.0,0.0,0.0,0.0,0,nan,nan,3,0,10
15804000,0,473977419,85455942,488001,0,0.25,0.0,0.48,0.58,0.0,0.0,0,0,0.0,0.0,0.0,0.0,0.0,0,nan,nan,3,0,10
15904000,0,473977418,85455942,488014,0,0.25,0.0,0.47,0.57,0.0,0.0,0,0,0.0,0.0,0.0,0.0,0.0,0,nan,nan,3,0,10
16004000,0,473977419,85455941,487992,0,0.25,0.0,0.46,0.56,0.0,0.0,0,0,0.0,0.0,0.0,0.0,0.0,0,nan,nan,3,0,10
16104000,0,473977420,85455940,487996,0,0.25,0.0,0.45,0.55,0.0,0.0,0,0,0.0,0.0,0.0,0.0,0.0,0,nan,nan,3,0,10
16204000,0,473977418,85455939,487988,0,0.25,0.0,0.45,0.55,0.0,0.0,0,0,0.0,0.0,0.0,0.0,0.0,0,nan,nan,3,0,10
16304000,0,473977419,85455939,488004,0,0.25,0.0,0.44,0.54,0.0,0.0,0,0,0.0,0.0,0.0,0.0,0.0,0,nan,nan,3,0,10
16404000,0,473977419,85455939,488014,0,0.25,0.0,0.43,0.53,0.0,0.0,0,0,0.0,0.0,0.0,0.0,0.0,0,nan,nan,3,0,10
16504000,0,473977421,85455938,488016,0,0.25,0.0,0.43,0.53,0.0,0.0,0,0,0.0,0.0,0.0,0.0,0.0,0,nan,nan,3,0,10
16604000,0,473977419,85455939,487992,0,0.25,0.0,0.42,0.52,0.0,0.0,0,0,0.0,0.0,0.0,0.0,0.0,0,nan,nan,3,0,10
16704000,0,473977420,85455939,487990,0,0.25,0.0,0.42,0.52,0.0,0.0,0,0,0.0,0.0,0.0,0.0,0.0,0,nan,nan,3,0,10
16804000,0,473977419,85455940,488013,0,0.25,0.0,0.41,0.51,0.0,0.0,0,0,0.0,0.0,0.0,0.0,0.0,0,nan,nan,3,0,10
16904000,0,473977421,85455939,488002,0,0.25,0.0,0.41,0.51,0.0,0.0,0,0,0.0,0.0,0.0,0.0,0.0,0,nan,nan,3,0,10
17004000,0,473977419,85455940,487999,0,0.25,0.0,0.4,0.5,0.0,0.0,0,0,0.0,0.0,0.0,0.0,0.0,0,nan,nan,3,0,10
17104000,0,473977419,85455940,487996,0,0.25,0.0,0.4,0.5,0.0,0.0,0,0,0.0,0.0,0.0,0.0,0.0,0,nan,nan,3,0,10
17204000,0,473977418,85455938,487995,0,0.25,0.0,0.39,0.49,0.0,0.0,0,0,0.0,0.0,0.0,0.0,0.0,0,nan,nan,3,0,10
17304000,0,473977418,85455941,487995,0,0.25,0.0,0.39,0.49,0.0,0.0,0,0,0.0,0.0,0.0,0.0,0.0,0,nan,nan,3,0,10
17404000,0,473977420,85455939,488005,0,0.25,0.0,0.38,0.48,0.0,0.0,0,0,0.0,0.0,0.0,0.0,0.0,0,nan,nan,3,0,10
17504000,0,473977419,85455937,488016,0,0.25,0.0,0.38,0.48,0.0,0.0,0,0,0.0,0.0,0.0,0.0,0.0,0,nan,nan,3,0,10
17604000,0,473977419,85455940,488004,0,0.25,0.0,0.38,0.48,0.0,0.0,0,0,0.0,0.0,0.0,0.0,0.0,0,nan,nan,3,0,10
17704000,0,473977418,85455939,488012,0,0.25,0.0,0.37,0.47,0.0,0.0,0,0,0.0,0.0,0.0,0.0,0.0,0,nan,nan,3,0,10
17804000,0,473977420,85455939,488004,0,0.25,0.0,0.37,0.47,0.0,0.0,0,0,0.0,0.0,0.0,0.0,0.0,0,nan,nan,3,0,10
17904000,0,473977419,85455941,488007,0,0.25,0.0,0.37,0.47,0.0,0.0,0,0,0.0,0.0,0.0,0.0,0.0,0,nan,nan,3,0,10
18004000,0,473977418,85455939,488011,0,0.25,0.0,0.37,0.47,0.0,0.0,0,0,0.0,0.0,0.0,0.0,0.0,0,nan,nan,3,0,10
18104000,0,473977420,85455939,488011,0,0.25,0.0,0.36,0.46,0.0,0.0,0,0,0.0,0.0,0.0,0.0,0.0,0,nan,nan,3,0,10
18204000,0,473977419,85455938,488005,0,0.25,0.0,0.36,0.46,0.0,0.0,0,0,0.0,0.0,0.0,0.0,0.0,0,nan,nan,3,0,10
18304000,0,473977419,85455939,488011,0,0.25,0.0,0.36,0.46,0.0,0.0,0,0,0.0,0.0,0.0,0.0,0.0,0,nan,nan,3,0,10
18404000,0,473977420,85455939,488000,0,0.25,0.0,0.35,0.45,0.0,0.0,0,0,0.0,0.0,0.0,0.0,0.0,0,nan,nan,3,0,10
18504000,0,473977420,85455940,487999,0,0.25,0.0,0.35,0.45,0.0,0.0,0,0,0.0,0.0,0.0,0.0,0.0,0,nan,nan,3,0,10
18604000,0,473977421,85455938,487998,0,0.25,0.0,0.35,0.45,0.0,0.0,0,0,0.0,0.0,0.0,0.0,0.0,0,nan,nan,3,0,10
18704000,0,473977421,85455938,488007,0,0.25,0.0,0.35,0.45,0.0,0.0,0,0,0.0,0.0,0.0,0.0,0.0,0,nan,nan,3,0,10
18804000,0,473977421,85455940,487999,0,0.25,0.0,0.34,0.44,0.0,0.0,0,0,0.0,0.0,0.0,0.0,0.0,0,nan,nan,3,0,10
18904000,0,473977419,85455941,487997,0,0.25,0.0,0.34,0.44,0.0,0.0,0,0,0.0,0.0,0.0,0.0,0.0,0,nan,nan,3,0,10
19004000,0,473977419,85455940,487998,0,0.25,0.0,0.34,0.44,0.0,0.0,0,0,0.0,0.0,0.0,0.0,0.0,0,nan,nan,3,0,10
19104000,0,473977419,85455941,487991,0,0.25,0.0,0.34,0.44,0.0,0.0,0,0,0.0,0.0,0.0,0.0,0.0,0,nan,nan,3,0,10
19204000,0,473977419,85455940,488014,0,0.25,0.0,0.34,0.44,0.0,0.0,0,0,0.0,0.0,0.0,0.0,0.0,0,nan,nan,3,0,10
19304000,0,473977419,85455937,488005,0,0.25,0.0,0.34,0.43,0.0,0.0,0,0,0.0,0.0,0.0,0.0,0.0,0,nan,nan,3,0,10
19404000,0,473977419,85455938,488018,0,0.25,0.0,0.33,0.43,0.0,0.0,0,0,0.0,0.0,0.0,0.0,0.0,0,nan,nan,3,0,10
19504000,0,473977420,85455937,488003,0,0.25,0.0,0.33,0.43,0.0,0.0,0,0,0.0,0.0,0.0,0.0,0.0,0,nan,nan,3,0,10
19604000,0,473977421,85455936,487989,0,0.25,0.0,0.33,0.43,0.0,0.0,0,0,0.0,0.0,0.0,0.0,0.0,0,nan,nan,3,0,10
19704000,0,473977419,85455939,487993,0,0.25,0.0,0.33,0.43,0.0,0.0,0,0,0.0,0.0,0.0,0.0,0.0,0,nan,nan,3,0,10
19804000,0,473977418,85455938,487995,0,0.25,0.0,0.33,0.43,0.0,0.0,0,0,0.0,0.0,0.0,0.0,0.0,0,nan,nan,3,0,10
19904000,0,473977419,85455939,488003,0,0.25,0.0,0.33,0.43,0.0,0.0,0,0,0.0,0.0,0.0,0.0,0.0,0,nan,nan,3,0,10
20004000,0,473977419,85455938,488011,0,0.25,0.0,0.32,0.42,0.0,0.0,0,0,0.0,0.0,0.0,0.0,0.0,0,nan,nan,3,0,10
20104000,0,473977422,85455938,488010,0,0.25,0.0,0.32,0.42,0.0,0.0,0,0,0.0,0.0,0.0,0.0,0.0,0,nan,nan,3,0,10
20204000,0,473977421,85455939,488021,0,0.25,0.0,0.32,0.42,0.0,0.0,0,0,0.0,0.0,0.0,0.0,0.0,0,nan,nan,3,0,10
20304000,0,473977420,85455941,487981,0,0.25,0.0,0.32,0.42,0.0,0.0,0,0,0.0,0.0,0.0,0.0,0.0,0,nan,nan,3,0,10
20404000,0,473977421,85455938,488000,0,0.25,0.0,0.32,0.42,0.0,0.0,0,0,0.0,0.0,0.0,0.0,0.0,0,nan,nan,3,0,10
20504000,0,473977421,85455940,488002,0,0.25,0.0,0.32,0.42,0.0,0.0,0,0,0.0,0.0,0.0,0.0,0.0,0,nan,nan,3,0,10
20604000,0,473977420,85455941,488002,0,0.25,0.0,0.32,0.42,0.0,0.0,0,0,0.0,0.0,0.0,0.0,0.0,0,nan,nan,3,0,10
20704000,0,473977420,85455940,487991,0,0.25,0.0,0.32,0.42,0.0,0.0,0,0,0.0,0.0,0.0,0.0,0.0,0,nan,nan,3,0,10
20804000,0,473977419,85455940,487993,0,0.25,0.0,0.32,0.42,0.0,0.0,0,0,0.0,0.0,0.0,0.0,0.0,0,nan,nan,3,0,10
20904000,0,473977420,85455939,487990,0,0.25,0.0,0.31,0.41,0.0,0.0,0,0,0.0,0.0,0.0,0.0,0.0,0,nan,nan,3,0,10
21004000,0,473977421,85455939,487978,0,0.25,0.0,0.31,0.41,0.0,0.0,0,0,0.0,0.0,0.0,0.0,0.0,0,nan,nan,3,0,10
21104000,0,473977420,85455937,487993,0,0.25,0.0,0.31,0.41,0.0,0.0,0,0,0.0,0.0,0.0,0.0,0.0,0,nan,nan,3,0,10
21204000,0,473977420,85455940,488014,0,0.25,0.0,0.31,0.41,0.0,0.0,0,0,0.0,0.0,0.0,0.0,0.0,0,nan,nan,3,0,10
21304000,0,473977420,85455940,488003,0,0.25,0.0,0.31,0.41,0.0,0.0,0,0,0.0,0.0,0.0,0.0,0.0,0,nan,nan,3,0,10
21404000,0,473977419,85455939,487995,0,0.25,0.0,0.31,0.41,0.0,0.0,0,0,0.0,0.0,0.0,0.0,0.0,0,nan,nan,3,0,10
21504000,0,473977420,85455941,488009,0,0.25,0.0,0.31,0.41,0.0,0.0,0,0,0.0,0.0,0.0,0.0,0.0,0,nan,nan,3,0,10
21604000,0,473977420,85455940,488000,0,0.25,0.0,0.31,0.41,0.0,0.0,0,0,0.0,0.0,0.0,0.0,0.0,0,nan,nan,3,0,10
21704000,0,473977420,85455942,488009,0,0.25,0.0,0.31,0.41,0.0,0.0,0,0,0.0,0.0,0.0,0.0,0.0,0,nan,nan,3,0,10
21804000,0,473977422,85455940,487992,0,0.25,0.0,0.31,0.41,0.0,0.0,0,0,0.0,0.0,0.0,0.0,0.0,0,nan,nan,3,0,10
21904000,0,473977422,85455938,487967,0,0.25,0.0,0.31,0.41,0.0,0.0,0,0,0.0,0.0,0.0,0.0,0.0,0,nan,nan,3,0,10
22004000,0,473977420,85455937,487991,0,0.25,0.0,0.31,0.41,0.0,0.0,0,0,0.0,0.0,0.0,0.0,0.0,0,nan,nan,3,0,10
22104000,0,473977420,85455938,487999,0,0.25,0.0,0.31,0.41,0.0,0.0,0,0,0.0,0.0,0.0,0.0,0.0,0,nan,nan,3,0,10
22204000,0,473977419,85455940,488019,0,0.25,0.0,0.31,0.41,0.0,0.0,0,0,0.0,0.0,0.0,0.0,0.0,0,nan,nan,3,0,10
22304000,0,473977420,85455941,488006,0,0.25,0.0,0.31,0.41,0.0,0.0,0,0,0.0,0.0,0.0,0.0,0.0,0,nan,nan,3,0,10
22404000,0,473977418,85455940,488010,0,0.25,0.0,0.31,0.41,0.0,0.0,0,0,0.0,0.0,0.0,0.0,0.0,0,nan,nan,3,0,10
22504000,0,473977419,85455940,487997,0,0.25,0.0,0.3,0.4,0.0,0.0,0,0,0.0,0.0,0.0,0.0,0.0,0,nan,nan,3,0,10
22604000,0,473977419,85455939,487999,0,0.25,0.0,0.3,0.4,0.0,0.0,0,0,0.0,0.0,0.0,0.0,0.0,0,nan,nan,3,0,10
22704000,0,473977419,85455940,488002,0,0.25,0.0,0.3,0.4,0.0,0.0,0,0,0.0,0.0,0.0,0.0,0.0,0,nan,nan,3,0,10
22804000,0,473977418,85455939,488004,0,0.25,0.0,0.3,0.4,0.0,0.0,0,0,0.0,0.0,0.0,0.0,0.0,0,nan,nan,3,0,10
22904000,0,473977418,85455938,487997,0,0.25,0.0,0.3,0.4,0.0,0.0,0,0,0.0,0.0,0.0,0.0,0.0,0,nan,nan,3,0,10
23004000,0,473977419,85455940,488004,0,0.25,0.0,0.3,0.4,0.0,0.0,0,0,0.0,0.0,0.0,0.0,0.0,0,nan,nan,3,0,10
23104000,0,473977420,85455939,487985,0,0.25,0.0,0.3,0.4,0.0,0.0,0,0,0.0,0.0,0.0,0.0,0.0,0,nan,nan,3,0,10
23204000,0,473977419,85455939,487985,0,0.25,0.0,0.3,0.4,0.0,0.0,0,0,0.0,0.0,0.0,0.0,0.0,0,nan,nan,3,0,10
23304000,0,473977418,85455940,487985,0,0.25,0.0,0.3,0.4,0.0,0.0,0,0,0.0,0.0,0.0,0.0,0.0,0,nan,nan,3,0,10
23404000,0,473977419,85455937,487997,0,0.25,0.0,0.3,0.4,0.0,0.0,0,0,0.0,0.0,0.0,0.0,0.0,0,nan,nan,3,0,10
23504000,0,473977419,85455938,487974,0,0.25,0.0,0.3,0.4,0.0,0.0,0,0,0.0,0.0,0.0,0.0,0.0,0,nan,nan,3,0,10
23604000,0,473977420,85455939,487994,0,0.25,0.0,0.3,0.4,0.0,0.0,0,0,0.0,0.0,0.0,0.0,0.0,0,nan,nan,3,0,10
23704000,0,473977421,85455941,487994,0,0.25,0.0,0.3,0.4,0.0,0.0,0,0,0.0,0.0,0.0,0.0,0.0,0,nan,nan,3,0,10
23804000,0,473977420,85455942,487996,0,0.25,0.0,0.3,0.4,0.0,0.0,0,0,0.0,0.0,0.0,0.0,0.0,0,nan,nan,3,0,10
23904000,0,473977421,85455939,488011,0,0.25,0.0,0.3,0.4,0.0,0.0,0,0,0.0,0.0,0.0,0.0,0.0,0,nan,nan,3,0,10
24004000,0,473977419,85455937,487996,0,0.25,0.0,0.3,0.4,0.0,0.0,0,0,0.0,0.0,0.0,0.0,0.0,0,nan,nan,3,0,10
24104000,0,473977419,85455938,487982,0,0.25,0.0,0.3,0.4,0.0,0.0,0,0,0.0,0.0,0.0,0.0,0.0,0,nan,nan,3,0,10
24204000,0,473977419,85455940,487992,0,0.25,0.0,0.3,0.4,0.0,0.0,0,0,0.0,0.0,0.0,0.0,0.0,0,nan,nan,3,0,10
24304000,0,473977420,85455937,487993,0,0.25,0.0,0.3,0.4,0.0,0.0,0,0,0.0,0.0,0.0,0.0,0.0,0,nan,nan,3,0,10
24404000,0,473977420,85455940,488001,0,0.25,0.0,0.3,0.4,0.0,0.0,0,0,0.0,0.0,0.0,0.0,0.0,0,nan,nan,3,0,10
24504000,0,473977421,85455938,487994,0,0.25,0.0,0.3,0.4,0.0,0.0,0,0,0.0,0.0,0.0,0.0,0.0,0,nan,nan,3,0,10
24604000,0,473977420,85455937,487994,0,0.25,0.0,0.3,0.4,0.0,0.0,0,0,0.0,0.0,0.0,0.0,0.0,0,nan,nan,3,0,10
24704000,0,473977419,85455938,487981,0,0.25,0.0,0.3,0.4,0.0,0.0,0,0,0.0,0.0,0.0,0.0,0.0,0,nan,nan,3,0,10
24804000,0,473977418,85455940,487993,0,0.25,0.0,0.3,0.4,0.0,0.0,0,0,0.0,0.0,0.0,0.0,0.0,0,nan,nan,3,0,10
24904000,0,473977420,85455938,487995,0,0.25,0.0,0.3,0.4,0.0,0.0,0,0,0.0,0.0,0.0,0.0,0.0,0,nan,nan,3,0,10
25004000,0,473977419,85455937,487999,0,0.25,0.0,0.3,0.4,0.0,0.0,0,0,0.0,0.0,0.0,0.0,0.0,0,nan,nan,3,0,10
25104000,0,473977418,85455940,487988,0,0.25,0.0,0.3,0.4,0.0,0.0,0,0,0.0,0.0,0.0,0.0,0.0,0,nan,nan,3,0,10
25204000,0,473977418,85455940,487998,0,0.25,0.0,0.3,0.4,0.0,0.0,0,0,0.0,0.0,0.0,0.0,0.0,0,nan,nan,3,0,10
25304000,0,473977418,85455938,487999,0,0.25,0.0,0.3,0.4,0.0,0.0,0,0,0.0,0.0,0.0,0.0,0.0,0,nan,nan,3,0,10
25404000,0,473977418,85455938,488018,0,0.25,0.0,0.3,0.4,0.0,0.0,0,0,0.0,0.0,0.0,0.0,0.0,0,nan,nan,3,0,10
25504000,0,473977419,85455940,488004,0,0.25,0.0,0.3,0.4,0.0,0.0,0,0,0.0,0.0,0.0,0.0,0.0,0,nan,nan,3,0,10
25604000,0,473977420,85455940,487997,0,0.25,0.0,0.3,0.4,0.0,0.0,0,0,0.0,0.0,0.0,0.0,0.0,0,nan,nan,3,0,10
25704000,0,473977418,85455940,488009,0,0.25,0.0,0.3,0.4,0.0,0.0,0,0,0.0,0.0,0.0,0.0,0.0,0,nan,nan,3,0,10
25804000,0,473977418,85455939,488009,0,0.25,0.0,0.3,0.4,0.0,0.0,0,0,0.0,0.0,0.0,0.0,0.0,0,nan,nan,3,0,10
25904000,0,473977419,85455938,487996,0,0.25,0.0,0.3,0.4,0.0,0.0,0,0,0.0,0.0,0.0,0.0,0.0,0,nan,nan,3,0,10
26004000,0,473977419,85455938,487999,0,0.25,0.0,0.3,0.4,0.0,0.0,0,0,0.0,0.0,0.0,0.0,0.0,0,nan,nan,3,0,10
26104000,0,473977420,85455939,488007,0,0.25,0.0,0.3,0.4,0.0,0.0,0,0,0.0,0.0,0.0,0.0,0.0,0,nan,nan,3,0,10
26204000,0,473977421,85455941,488006,0,0.25,0.0,0.3,0.4,0.0,0.0,0,0,0.0,0.0,0.0,0.0,0.0,0,nan,nan,3,0,10
26304000,0,473977419,85455941,488012,0,0.25,0.0,0.3,0.4,0.0,0.0,0,0,0.0,0.0,0.0,0.0,0.0,0,nan,nan,3,0,10
26404000,0,473977419,85455940,488004,0,0.25,0.0,0.3,0.4,0.0,0.0,0,0,0.0,0.0,0.0,0.0,0.0,0,nan,nan,3,0,10
26504000,0,473977419,85455940,488009,0,0.25,0.0,0.3,0.4,0.0,0.0,0,0,0.0,0.0,0.0,0.0,0.0,0,nan,nan,3,0,10
26604000,0,473977419,85455940,488011,0,0.25,0.0,0.3,0.4,0.0,0.0,0,0,0.0,0.0,0.0,0.0,0.0,0,nan,nan,3,0,10
26704000,0,473977419,85455941,488014,0,0.25,0.0,0.3,0.4,0.0,0.0,0,0,0.0,0.0,0.0,0.0,0.0,0,nan,nan,3,0,10
26804000,0,473977419,85455939,488001,0,0.25,0.0,0.3,0.4,0.0,0.0,0,0,0.0,0.0,0.0,0.0,0.0,0,nan,nan,3,0,10
26904000,0,473977419,85455939,488012,0,0.25,0.0,0.3,0.4,0.0,0.0,0,0,0.0,0.0,0.0,0.0,0.0,0,nan,nan,3,0,10
27004000,0,473977419,85455939,488009,0,0.25,0.0,0.3,0.4,0.0,0.0,0,0,0.0,0.0,0.0,0.0,0.0,0,nan,nan,3,0,10
27104000,0,473977419,85455939,487986,0,0.25,0.0,0.3,0.4,0.0,0.0,0,0,0.0,0.0,0.0,0.0,0.0,0,nan,nan,3,0,10
27204000,0,473977420,85455939,487992,0,0.25,0.0,0.3,0.4,0.0,0.0,0,0,0.0,0.0,0.0,0.0,0.0,0,nan,nan,3,0,10
27304000,0,473977421,85455939,488001,0,0.25,0.0,0.3,0.4,0.0,0.0,0,0,0.0,0.0,0.0,0.0,0.0,0,nan,nan,3,0,10
27404000,0,473977420,85455940,488011,0,0.25,0.0,0.3,0.4,0.0,0.0,0,0,0.0,0.0,0.0,0.0,0.0,0,nan,nan,3,0,10
27504000,0,473977419,85455939,488003,0,0.25,0.0,0.3,0.4,0.0,0.0,0,0,0.0,0.0,0.0,0.0,0.0,0,nan,nan,3,0,10
27604000,0,473977420,85455938,488006,0,0.25,0.0,0.3,0.4,0.0,0.0,0,0,0.0,0.0,0.0,0.0,0.0,0,nan,nan,3,0,10
27704000,0,473977420,85455938,488006,0,0.25,0.0,0.3,0.4,0.0,0.0,0,0,0.0,0.0,0.0,0.0,0.0,0,nan,nan,3,0,10
27804000,0,473977421,85455940,487995,0,0.25,0.0,0.3,0.4,0.0,0.0,0,0,0.0,0.0,0.0,0.0,0.0,0,nan,nan,3,0,10
27904000,0,473977419,85455939,488000,0,0.25,0.0,0.3,0.4,0.0,0.0,0,0,0.0,0.0,0.0,0.0,0.0,0,nan,nan,3,0,10
28004000,0,473977419,85455941,488001,0,0.25,0.0,0.3,0.4,0.0,0.0,0,0,0.0,0.0,0.0,0.0,0.0,0,nan,nan,3,0,10
28104000,0,473977421,85455942,488015,0,0.25,0.0,0.3,0.4,0.0,0.0,0,0,0.0,0.0,0.0,0.0,0.0,0,nan,nan,3,0,10
28204000,0,473977421,85455941,488005,0,0.25,0.0,0.3,0.4,0.0,0.0,0,0,0.0,0.0,0.0,0.0,0.0,0,nan,nan,3,0,10
28304000,0,473977419,85455938,488001,0,0.25,0.0,0.3,0.4,0.0,0.0,0,0,0.0,0.0,0.0,0.0,0.0,0,nan,nan,3,0,10
28404000,0,473977419,85455939,488004,0,0.25,0.0,0.3,0.4,0.0,0.0,0,0,0.0,0.0,0.0,0.0,0.0,0,nan,nan,3,0,10
28504000,0,473977418,85455941,487997,0,0.25,0.0,0.3,0.4,0.0,0.0,0,0,0.0,0.0,0.0,0.0,0.0,0,nan,nan,3,0,10
28604000,0,473977420,85455940,487998,0,0.25,0.0,0.3,0.4,0.0,0.0,0,0,0.0,0.0,0.0,0.0,0.0,0,nan,nan,3,0,10
28704000,0,473977419,85455940,487989,0,0.25,0.0,0.3,0.4,0.0,0.0,0,0,0.0,0.0,0.0,0.0,0.0,0,nan,nan,3,0,10
28804000,0,473977418,85455938,487986,0,0.25,0.0,0.3,0.4,0.0,0.0,0,0,0.0,0.0,0.0,0.0,0.0,0,nan,nan,3,0,10
28904000,0,473977419,85455939,487997,0,0.25,0.0,0.3,0.4,0.0,0.0,0,0,0.0,0.0,0.0,0.0,0.0,0,nan,nan,3,0,10
29004000,0,473977420,85455939,488008,0,0.25,0.0,0.3,0.4,0.0,0.0,0,0,0.0,0.0,0.0,0.0,0.0,0,nan,nan,3,0,10
29104000,0,473977420,85455940,488000,0,0.25,0.0,0.3,0.4,0.0,0.0,0,0,0.0,0.0,0.0,0.0,0.0,0,nan,nan,3,0,10
29204000,0,473977420,85455942,488018,0,0.25,0.0,0.3,0.4,0.0,0.0,0,0,0.0,0.0,0.0,0.0,0.0,0,nan,nan,3,0,10
29304000,0,473977419,85455941,488009,0,0.25,0.0,0.3,0.4,0.0,0.0,0,0,0.0,0.0,0.0,0.0,0.0,0,nan,nan,3,0,10
29404000,0,473977419,85455939,488014,0,0.25,0.0,0.3,0.4,0.0,0.0,0,0,0.0,0.0,0.0,0.0,0.0,0,nan,nan,3,0,10
29504000,0,473977419,85455938,488020,0,0.25,0.0,0.3,0.4,0.0,0.0,0,0,0.0,0.0,0.0,0.0,0.0,0,nan,nan,3,0,10
29604000,0,473977419,85455938,488014,0,0.25,0.0,0.3,0.4,0.0,0.0,0,0,0.0,0.0,0.0,0.0,0.0,0,nan,nan,3,0,10
29704000,0,473977420,85455941,488012,0,0.25,0.0,0.3,0.4,0.0,0.0,0,0,0.0,0.0,0.0,0.0,0.0,0,nan,nan,3,0,10
29804000,0,473977421,85455938,488001,0,0.25,0.0,0.3,0.4,0.0,0.0,0,0,0.0,0.0,0.0,0.0,0.0,0,nan,nan,3,0,10
29904000,0,473977421,85455940,488008,0,0.25,0.0,0.3,0.4,0.0,0.0,0,0,0.0,0.0,0.0,0.0,0.0,0,nan,nan,3,0,10
30004000,0,473977420,85455938,488004,0,0.25,0.0,0.3,0.4,0.0,0.0,0,0,0.0,0.0,0.0,0.0,0.0,0,nan,nan,3,0,10
30104000,0,473977420,85455940,488008,0,0.25,0.0,0.3,0.4,0.0,0.0,0,0,0.0,0.0,0.0,0.0,0.0,0,nan,nan,3,0,10
30204000,0,473977419,85455941,487994,0,0.25,0.0,0.3,0.4,0.0,0.0,0,0,0.0,0.0,0.0,0.0,0.0,0,nan,nan,3,0,10
30304000,0,473977420,85455939,487998,0,0.25,0.0,0.3,0.4,0.0,0.0,0,0,0.0,0.0,0.0,0.0,0.0,0,nan,nan,3,0,10
30404000,0,473977420,85455940,487995,0,0.25,0.0,0.3,0.4,0.0,0.0,0,0,0.0,0.0,0.0,0.0,0.0,0,nan,nan,3,0,10
30504000,0,473977419,85455939,487996,0,0.25,0.0,0.3,0.4,0.0,0.0,0,0,0.0,0.0,0.0,0.0,0.0,0,nan,nan,3,0,10
30604000,0,473977420,85455941,487991,0,0.25,0.0,0.3,0.4,0.0,0.0,0,0,0.0,0.0,0.0,0.0,0.0,0,nan,nan,3,0,10
30704000,0,473977420,85455940,487988,0,0.25,0.0,0.3,0.4,0.0,0.0,0,0,0.0,0.0,0.0,0.0,0.0,0,nan,nan,3,0,10
30804000,0,473977418,85455939,487998,0,0.25,0.0,0.3,0.4,0.0,0.0,0,0,0.0,0.0,0.0,0.0,0.0,0,nan,nan,3,0,10
30904000,0,473977417,85455939,488008,0,0.25,0.0,0.3,0.4,0.0,0.0,0,0,0.0,0.0,0.0,0.0,0.0,0,nan,nan,3,0,10
31004000,0,473977419,85455937,487974,0,0.25,0.0,0.3,0.4,0.0,0.0,0,0,0.0,0.0,0.0,0.0,0.0,0,nan,nan,3,0,10
31104000,0,473977419,85455939,487981,0,0.25,0.0,0.3,0.4,0.0,0.0,0,0,0.0,0.0,0.0,0.0,0.0,0,nan,nan,3,0,10
31204000,0,473977419,85455937,488000,0,0.25,0.0,0.3,0.4,0.0,0.0,0,0,0.0,0.0,0.0,0.0,0.0,0,nan,nan,3,0,10
31304000,0,473977419,85455938,488014,0,0.25,0.0,0.3,0.4,0.0,0.0,0,0,0.0,0.0,0.0,0.0,0.0,0,nan,nan,3,0,10
31404000,0,473977420,85455939,488014,0,0.25,0.0,0.3,0.4,0.0,0.0,0,0,0.0,0.0,0.0,0.0,0.0,0,nan,nan,3,0,10
31504000,0,473977419,85455937,488014,0,0.25,0.0,0.3,0.4,0.0,0.0,0,0,0.0,0.0,0.0,0.0,0.0,0,nan,nan,3,0,10
31604000,0,473977420,85455939,488006,0,0.25,0.0,0.3,0.4,0.0,0.0,0,0,0.0,0.0,0.0,0.0,0.0,0,nan,nan,3,0,10
31704000,0,473977418,85455939,487993,0,0.25,0.0,0.3,0.4,0.0,0.0,0,0,0.0,0.0,0.0,0.0,0.0,0,nan,nan,3,0,10
31804000,0,473977419,85455940,488007,0,0.25,0.0,0.3,0.4,0.0,0.0,0,0,0.0,0.0,0.0,0.0,0.0,0,nan,nan,3,0,10
31904000,0,473977419,85455939,488015,0,0.25,0.0,0.3,0.4,0.0,0.0,0,0,0.0,0.0,0.0,0.0,0.0,0,nan,nan,3,0,10
32004000,0,473977420,85455939,488001,0,0.25,0.0,0.3,0.4,0.0,0.0,0,0,0.0,0.0,0.0,0.0,0.0,0,nan,nan,3,0,10
32104000,0,473977419,85455941,487995,0,0.25,0.0,0.3,0.4,0.0,0.0,0,0,0.0,0.0,0.0,0.0,0.0,0,nan,nan,3,0,10
32204000,0,473977419,85455941,488004,0,0.25,0.0,0.3,0.4,0.0,0.0,0,0,0.0,0.0,0.0,0.0,0.0,0,nan,nan,3,0,10
32304000,0,473977419,85455942,488006,0,0.25,0.0,0.3,0.4,0.0,0.0,0,0,0.0,0.0,0.0,-0.04,3.12405,0,nan,nan,3,0,10
32404000,0,473977419,85455940,487998,0,0.25,0.0,0.3,0.4,0.0,0.0,0,0,0.1,-0.1,0.0,-0.15,8.31381,0,nan,nan,3,0,10
32504000,0,473977417,85455938,488039,0,0.25,0.0,0.3,0.4,0.0,0.0,0,0,0.29,-0.29,0.0,-0.3,8.31381,0,nan,nan,3,0,10
32604000,0,473977413,85455939,488078,0,0.25,0.0,0.3,0.4,0.0,0.0,0,0,0.52,-0.52,0.0,-0.5,8.31381,0,nan,nan,3,0,10
32704000,0,473977406,85455939,488139,0,0.25,0.0,0.3,0.4,0.0,0.0,0,0,0.79,-0.79,0.0,-0.76,8.31381,0,nan,nan,3,0,10
32804000,0,473977398,85455939,488247,0,0.25,0.0,0.3,0.4,0.0,0.0,0,0,1.06,-1.06,0.0,-1.05,8.31381,0,nan,nan,3,0,10
32904000,0,473977388,85455937,488371,0,0.25,0.0,0.3,0.4,0.0,0.0,0,0,1.52,-1.52,0.0,-1.41,8.31381,0,nan,nan,3,0,10
33004000,0,473977369,85455937,488498,0,0.25,0.0,0.3,0.4,0.0,0.0,0,0,2.14,-2.14,0.0,-1.36,8.31381,0,nan,nan,3,0,10
33104000,0,473977345,85455937,488647,0,0.25,0.0,0.3,0.4,0.0,0.0,0,0,2.94,-2.94,0.0,-1.3,8.31381,0,nan,nan,3,0,10
33204000,0,473977315,85455938,488753,0,0.25,0.0,0.3,0.4,0.0,0.0,0,0,3.68,-3.68,0.0,-1.08,8.31381,0,nan,nan,3,0,10
33304000,0,473977279,85455938,488852,0,0.25,0.0,0.3,0.4,0.0,0.0,0,0,4.17,-4.17,0.0,-0.57,8.31381,0,nan,nan,3,0,10
33404000,0,473977236,85455938,488913,0,0.25,0.0,0.3,0.4,0.0,0.0,0,0,4.92,-4.92,0.0,-0.33,8.31381,0,nan,nan,3,0,10
33504000,0,473977212,85455939,488918,0,0.25,0.0,0.3,0.4,0.0,0.0,0,0,5.25,-5.25,0.0,-0.17,8.31381,0,nan,nan,3,0,10
33604000,0,473977160,85455941,488937,0,0.25,0.0,0.3,0.4,0.0,0.0,0,0,6.07,-6.07,0.0,0.0,8.31381,0,nan,nan,3,0,10
33704000,0,473977100,85455938,488939,0,0.25,0.0,0.3,0.4,0.0,0.0,0,0,6.94,-6.94,-0.01,0.09,8.31381,0,nan,nan,3,0,10
33804000,0,473977030,85455938,488916,0,0.25,0.0,0.3,0.4,0.0,0.0,0,0,7.75,-7.75,-0.01,0.23,8.31381,0,nan,nan,3,0,10
33904000,0,473976955,85455938,488893,0,0.25,0.0,0.3,0.4,0.0,0.0,0,0,8.51,-8.51,-0.01,0.25,8.31381,0,nan,nan,3,0,10
34004000,0,473976873,85455939,488862,0,0.25,0.0,0.3,0.4,0.0,0.0,0,0,9.19,-9.19,-0.02,-0.13,8.31381,0,nan,nan,3,0,10
34104000,0,473976784,85455937,488941,0,0.25,0.0,0.3,0.4,0.0,0.0,0,0,9.67,-9.67,-0.03,-0.96,8.31381,0,nan,nan,3,0,10
34204000,0,473976692,85455937,489061,0,0.25,0.0,0.3,0.4,0.0,0.0,0,0,9.77,-9.77,-0.04,-1.27,8.31381,0,nan,nan,3,0,10
34304000,0,473976600,85455936,489187,0,0.25,0.0,0.3,0.4,0.0,0.0,0,0,9.8,-9.8,-0.07,-1.31,8.31381,0,nan,nan,3,0,10
34404000,0,473976509,85455934,489318,0,0.25,0.0,0.3,0.4,0.0,0.0,0,0,9.86,-9.86,-0.13,-1.32,8.31381,0,nan,nan,3,0,10
34504000,0,473976417,85455931,489453,0,0.25,0.0,0.3,0.4,0.0,0.0,0,0,9.94,-9.94,-0.23,-1.34,8.33126,0,nan,nan,3,0,10
34604000,0,473976322,85455928,489605,0,0.25,0.0,0.3,0.4,0.0,0.0,0,0,10.02,-10.01,-0.36,-1.36,8.34871,0,nan,nan,3,0,10
34704000,0,473976228,85455922,489748,0,0.25,0.0,0.3,0.4,0.0,0.0,0,0,10.07,-10.06,-0.52,-1.4,8.34871,0,nan,nan,3,0,10
34804000,0,473976181,85455919,489809,0,0.25,0.0,0.3,0.4,0.0,0.0,0,0,10.07,-10.05,-0.58,-1.26,8.36616,0,nan,nan,3,0,10
34904000,0,473976087,85455911,489905,0,0.25,0.0,0.3,0.4,0.0,0.0,0,0,10.04,-10.01,-0.69,-0.66,8.36616,0,nan,nan,3,0,10
35004000,0,473975994,85455901,489972,0,0.25,0.0,0.3,0.4,0.0,0.0,0,0,10.03,-10.0,-0.83,-0.05,8.38362,0,nan,nan,3,0,10
35104000,0,473975901,85455887,489946,0,0.25,0.0,0.3,0.4,0.0,0.0,0,0,10.14,-10.08,-1.07,0.12,8.41852,0,nan,nan,3,0,10
35204000,0,473975806,85455870,489942,0,0.25,0.0,0.3,0.4,0.0,0.0,0,0,10.19,-10.11,-1.22,0.1,8.41852,0,nan,nan,3,0,10
35304000,0,473975711,85455853,489915,0,0.25,0.0,0.3,0.4,0.0,0.0,0,0,10.15,-10.08,-1.24,0.09,8.43598,0,nan,nan,3,0,10
35404000,0,473975616,85455833,489908,0,0.25,0.0,0.3,0.4,0.0,0.0,0,0,10.09,-10.02,-1.21,0.09,8.41852,0,nan,nan,3,0,10
35504000,0,473975524,85455821,489908,0,0.25,0.0,0.3,0.4,0.0,0.0,0,0,10.03,-9.96,-1.19,0.08,8.41852,0,nan,nan,3,0,10
35604000,0,473975430,85455803,489902,0,0.25,0.0,0.3,0.4,0.0,0.0,0,0,9.99,-9.92,-1.18,0.08,8.41852,0,nan,nan,3,0,10
35704000,0,473975337,85455787,489893,0,0.25,0.0,0.3,0.4,0.0,0.0,0,0,9.96,-9.89,-1.18,0.07,8.41852,0,nan,nan,3,0,10
35804000,0,473975244,85455773,489879,0,0.25,0.0,0.3,0.4,0.0,0.0,0,0,9.93,-9.86,-1.19,0.06,8.41852,0,nan,nan,3,0,10
35904000,0,473975153,85455755,489860,0,0.25,0.0,0.3,0.4,0.0,0.0,0,0,9.9,-9.83,-1.18,0.06,8.41852,0,nan,nan,3,0,10
36004000,0,473975062,85455738,489858,0,0.25,0.0,0.3,0.4,0.0,0.0,0,0,9.87,-9.8,-1.18,0.05,8.41852,0,nan,nan,3,0,10
36104000,0,473975015,85455730,489860,0,0.25,0.0,0.3,0.4,0.0,0.0,0,0,9.86,-9.79,-1.18,0.05,8.41852,0,nan,nan,3,0,10
36204000,0,473974924,85455714,489865,0,0.25,0.0,0.3,0.4,0.0,0.0,0,0,9.83,-9.76,-1.17,0.04,8.41852,0,nan,nan,3,0,10
36304000,0,473974833,85455697,489864,0,0.25,0.0,0.3,0.4,0.0,0.0,0,0,9.81,-9.74,-1.17,0.04,8.41852,0,nan,nan,3,0,10
36404000,0,473974743,85455679,489858,0,0.25,0.0,0.3,0.4,0.0,0.0,0,0,9.78,-9.71,-1.16,0.03,8.41852,0,nan,nan,3,0,10
36504000,0,473974652,85455663,489847,0,0.25,0.0,0.3,0.4,0.0,0.0,0,0,9.74,-9.68,-1.15,0.03,8.41852,0,nan,nan,3,0,10
36604000,0,473974562,85455648,489842,0,0.25,0.0,0.3,0.4,0.0,0.0,0,0,9.72,-9.65,-1.15,0.02,8.41852,0,nan,nan,3,0,10
36704000,0,473974471,85455633,489837,0,0.25,0.0,0.3,0.4,0.0,0.0,0,0,9.69,-9.63,-1.14,0.02,8.41852,0,nan,nan,3,0,10
36804000,0,473974381,85455617,489825,0,0.25,0.0,0.3,0.4,0.0,0.0,0,0,9.67,-9.6,-1.13,0.02,8.41852,0,nan,nan,3,0,10
36904000,0,473974291,85455602,489836,0,0.25,0.0,0.3,0.4,0.0,0.0,0,0,9.65,-9.59,-1.13,0.02,8.41852,0,nan,nan,3,0,10
37004000,0,473974201,85455587,489823,0,0.25,0.0,0.3,0.4,0.0,0.0,0,0,9.64,-9.58,-1.12,0.02,8.41852,0,nan,nan,3,0,10
37104000,0,473974113,85455571,489832,0,0.25,0.0,0.3,0.4,0.0,0.0,0,0,9.63,-9.56,-1.12,0.02,8.41852,0,nan,nan,3,0,10
37204000,0,473974022,85455555,489822,0,0.25,0.0,0.3,0.4,0.0,0.0,0,0,9.61,-9.55,-1.11,0.02,8.41852,0,nan,nan,3,0,10
37304000,0,473973933,85455539,489812,0,0.25,0.0,0.3,0.4,0.0,0.0,0,0,9.6,-9.53,-1.1,0.02,8.41852,0,nan,nan,3,0,10
37404000,0,473973890,85455532,489807,0,0.25,0.0,0.3,0.4,0.0,0.0,0,0,9.59,-9.53,-1.1,0.02,8.41852,0,nan,nan,3,0,10
37504000,0,473973800,85455517,489839,0,0.25,0.0,0.3,0.4,0.0,0.0,0,0,9.57,-9.51,-1.09,0.01,8.41852,0,nan,nan,3,0,10
37604000,0,473973711,85455504,489819,0,0.25,0.0,0.3,0.4,0.0,0.0,0,0,9.55,-9.49,-1.08,0.01,8.41852,0,nan,nan,3,0,10
37704000,0,473973623,85455489,489814,0,0.25,0.0,0.3,0.4,0.0,0.0,0,0,9.54,-9.48,-1.08,0.01,8.41852,0,nan,nan,3,0,10
37804000,0,473973535,85455474,489812,0,0.25,0.0,0.3,0.4,0.0,0.0,0,0,9.53,-9.47,-1.08,0.02,8.41852,0,nan,nan,3,0,10
37904000,0,473973445,85455455,489817,0,0.25,0.0,0.3,0.4,0.0,0.0,0,0,9.51,-9.45,-1.07,0.02,8.41852,0,nan,nan,3,0,10
38004000,0,473973357,85455441,489813,0,0.25,0.0,0.3,0.4,0.0,0.0,0,0,9.5,-9.44,-1.07,0.01,8.41852,0,nan,nan,3,0,10
38104000,0,473973269,85455424,489812,0,0.25,0.0,0.3,0.4,0.0,0.0,0,0,9.5,-9.43,-1.07,0.01,8.41852,0,nan,nan,3,0,10
38204000,0,473973179,85455412,489817,0,0.25,0.0,0.3,0.4,0.0,0.0,0,0,9.49,-9.43,-1.07,0.01,8.41852,0,nan,nan,3,0,10
38304000,0,473973093,85455397,489820,0,0.25,0.0,0.3,0.4,0.0,0.0,0,0,9.5,-9.44,-1.07,0.01,8.41852,0,nan,nan,3,0,10
38404000,0,473973006,85455383,489813,0,0.25,0.0,0.3,0.4,0.0,0.0,0,0,9.5,-9.44,-1.07,0.01,8.41852,0,nan,nan,3,0,10
38504000,0,473972916,85455367,489805,0,0.25,0.0,0.3,0.4,0.0,0.0,0,0,9.5,-9.44,-1.07,0.0,8.41852,0,nan,nan,3,0,10
38604000,0,473972871,85455360,489800,0,0.25,0.0,0.3,0.4,0.0,0.0,0,0,9.5,-9.44,-1.07,0.0,8.41852,0,nan,nan,3,0,10
38704000,0,473972783,85455344,489800,0,0.25,0.0,0.3,0.4,0.0,0.0,0,0,9.5,-9.44,-1.07,-0.01,8.41852,0,nan,nan,3,0,10
38804000,0,473972695,85455329,489796,0,0.25,0.0,0.3,0.4,0.0,0.0,0,0,9.5,-9.44,-1.08,-0.03,8.41852,0,nan,nan,3,0,10
38904000,0,473972606,85455316,489806,0,0.25,0.0,0.3,0.4,0.0,0.0,0,0,9.49,-9.43,-1.07,-0.04,8.41852,0,nan,nan,3,0,10
39004000,0,473972517,85455300,489794,0,0.25,0.0,0.3,0.4,0.0,0.0,0,0,9.48,-9.42,-1.07,-0.05,8.41852,0,nan,nan,3,0,10
39104000,0,473972429,85455285,489819,0,0.25,0.0,0.3,0.4,0.0,0.0,0,0,9.47,-9.41,-1.06,-0.06,8.41852,0,nan,nan,3,0,10
39204000,0,473972341,85455271,489835,0,0.25,0.0,0.3,0.4,0.0,0.0,0,0,9.47,-9.41,-1.06,-0.06,8.41852,0,nan,nan,3,0,10
39304000,0,473972253,85455256,489838,0,0.25,0.0,0.3,0.4,0.0,0.0,0,0,9.47,-9.41,-1.06,-0.06,8.41852,0,nan,nan,3,0,10
39404000,0,473972165,85455242,489835,0,0.25,0.0,0.3,0.4,0.0,0.0,0,0,9.48,-9.42,-1.06,-0.06,8.41852,0,nan,nan,3,0,10
39504000,0,473972076,85455229,489857,0,0.25,0.0,0.3,0.4,0.0,0.0,0,0,9.5,-9.44,-1.06,-0.06,8.41852,0,nan,nan,3,0,10
39604000,0,473971989,85455212,489856,0,0.25,0.0,0.3,0.4,0.0,0.0,0,0,9.51,-9.45,-1.07,-0.07,8.41852,0,nan,nan,3,0,10
39704000,0,473971901,85455195,489872,0,0.25,0.0,0.3,0.4,0.0,0.0,0,0,9.51,-9.45,-1.07,-0.09,8.41852,0,nan,nan,3,0,10
39804000,0,473971812,85455183,489886,0,0.25,0.0,0.3,0.4,0.0,0.0,0,0,9.53,-9.47,-1.06,-0.32,8.41852,0,nan,nan,3,0,10
39904000,0,473971723,85455168,489945,0,0.25,0.0,0.3,0.4,0.0,0.0,0,0,9.56,-9.5,-1.06,-0.73,8.41852,0,nan,nan,3,0,10
40004000,0,473971678,85455160,489983,0,0.25,0.0,0.3,0.4,0.0,0.0,0,0,9.55,-9.49,-1.06,-0.81,8.41852,0,nan,nan,3,0,10
40104000,0,473971590,85455149,490068,0,0.25,0.0,0.3,0.4,0.0,0.0,0,0,9.53,-9.47,-1.06,-0.83,8.41852,0,nan,nan,3,0,10
40204000,0,473971501,85455133,490143,0,0.25,0.0,0.3,0.4,0.0,0.0,0,0,9.52,-9.46,-1.06,-0.83,8.41852,0,nan,nan,3,0,10
40304000,0,473971413,85455118,490229,0,0.25,0.0,0.3,0.4,0.0,0.0,0,0,9.53,-9.47,-1.07,-0.87,8.41852,0,nan,nan,3,0,10
40404000,0,473971324,85455101,490319,0,0.25,0.0,0.3,0.4,0.0,0.0,0,0,9.54,-9.48,-1.07,-0.96,8.41852,0,nan,nan,3,0,10
40504000,0,473971234,85455085,490420,0,0.25,0.0,0.3,0.4,0.0,0.0,0,0,9.53,-9.47,-1.07,-0.97,8.41852,0,nan,nan,3,0,10
40604000,0,473971147,85455074,490525,0,0.25,0.0,0.3,0.4,0.0,0.0,0,0,9.53,-9.47,-1.07,-0.96,8.41852,0,nan,nan,3,0,10
40704000,0,473971058,85455057,490641,0,0.25,0.0,0.3,0.4,0.0,0.0,0,0,9.53,-9.47,-1.06,-0.95,8.41852,0,nan,nan,3,0,10
40804000,0,473970970,85455042,490724,0,0.25,0.0,0.3,0.4,0.0,0.0,0,0,9.54,-9.48,-1.06,-0.94,8.41852,0,nan,nan,3,0,10
40904000,0,473970881,85455028,490831,0,0.25,0.0,0.3,0.4,0.0,0.0,0,0,9.54,-9.48,-1.06,-0.94,8.41852,0,nan,nan,3,0,10
41004000,0,473970793,85455013,490909,0,0.25,0.0,0.3,0.4,0.0,0.0,0,0,9.51,-9.45,-1.05,-0.63,8.41852,0,nan,nan,3,0,10
41104000,0,473970705,85454998,490959,0,0.25,0.0,0.3,0.4,0.0,0.0,0,0,9.5,-9.44,-1.05,-0.18,8.41852,0,nan,nan,3,0,10
41204000,0,473970615,85454984,490974,0,0.25,0.0,0.3,0.4,0.0,0.0,0,0,9.56,-9.5,-1.07,-0.02,8.41852,0,nan,nan,3,0,10
41304000,0,473970570,85454974,490967,0,0.25,0.0,0.3,0.4,0.0,0.0,0,0,9.6,-9.54,-1.07,0.0,8.41852,0,nan,nan,3,0,10
41404000,0,473970482,85454958,490976,0,0.25,0.0,0.3,0.4,0.0,0.0,0,0,9.63,-9.56,-1.08,0.01,8.41852,0,nan,nan,3,0,10
41504000,0,473970392,85454945,490967,0,0.25,0.0,0.3,0.4,0.0,0.0,0,0,9.62,-9.56,-1.08,0.03,8.41852,0,nan,nan,3,0,10
41604000,0,473970303,85454929,490970,0,0.25,0.0,0.3,0.4,0.0,0.0,0,0,9.61,-9.55,-1.08,0.05,8.41852,0,nan,nan,3,0,10
41704000,0,473970213,85454915,490957,0,0.25,0.0,0.3,0.4,0.0,0.0,0,0,9.6,-9.54,-1.07,0.06,8.41852,0,nan,nan,3,0,10
41804000,0,473970125,85454902,490964,0,0.25,0.0,0.3,0.4,0.0,0.0,0,0,9.59,-9.53,-1.07,0.07,8.41852,0,nan,nan,3,0,10
41904000,0,473970036,85454884,490948,0,0.25,0.0,0.3,0.4,0.0,0.0,0,0,9.59,-9.53,-1.07,0.08,8.41852,0,nan,nan,3,0,10
42004000,0,473969947,85454871,490915,0,0.25,0.0,0.3,0.4,0.0,0.0,0,0,9.6,-9.54,-1.07,0.09,8.41852,0,nan,nan,3,0,10
42104000,0,473969857,85454856,490916,0,0.25,0.0,0.3,0.4,0.0,0.0,0,0,9.61,-9.55,-1.07,0.09,8.41852,0,nan,nan,3,0,10
42204000,0,473969767,85454839,490914,0,0.25,0.0,0.3,0.4,0.0,0.0,0,0,9.61,-9.55,-1.07,0.1,8.41852,0,nan,nan,3,0,10
42304000,0,473969677,85454826,490906,0,0.25,0.0,0.3,0.4,0.0,0.0,0,0,9.63,-9.57,-1.07,0.1,8.41852,0,nan,nan,3,0,10
42404000,0,473969588,85454810,490914,0,0.25,0.0,0.3,0.4,0.0,0.0,0,0,9.64,-9.58,-1.07,0.1,8.41852,0,nan,nan,3,0,10
42504000,0,473969545,85454803,490916,0,0.25,0.0,0.3,0.4,0.0,0.0,0,0,9.65,-9.59,-1.08,0.1,8.41852,0,nan,nan,3,0,10
42604000,0,473969455,85454791,490883,0,0.25,0.0,0.3,0.4,0.0,0.0,0,0,9.67,-9.61,-1.08,0.11,8.41852,0,nan,nan,3,0,10
42704000,0,473969364,85454774,490870,0,0.25,0.0,0.3,0.4,0.0,0.0,0,0,9.68,-9.62,-1.08,0.11,8.41852,0,nan,nan,3,0,10
42804000,0,473969272,85454760,490846,0,0.25,0.0,0.3,0.4,0.0,0.0,0,0,9.68,-9.62,-1.08,0.11,8.41852,0,nan,nan,3,0,10
42904000,0,473969182,85454744,490845,0,0.25,0.0,0.3,0.4,0.0,0.0,0,0,9.69,-9.63,-1.08,0.11,8.41852,0,nan,nan,3,0,10
43004000,0,473969092,85454728,490832,0,0.25,0.0,0.3,0.4,0.0,0.0,0,0,9.7,-9.64,-1.08,0.11,8.41852,0,nan,nan,3,0,10
43104000,0,473969004,85454714,490812,0,0.25,0.0,0.3,0.4,0.0,0.0,0,0,9.71,-9.65,-1.09,0.11,8.41852,0,nan,nan,3,0,10
43204000,0,473968913,85454699,490799,0,0.25,0.0,0.3,0.4,0.0,0.0,0,0,9.73,-9.67,-1.1,0.11,8.41852,0,nan,nan,3,0,10
43304000,0,473968823,85454684,490776,0,0.25,0.0,0.3,0.4,0.0,0.0,0,0,9.74,-9.68,-1.1,0.11,8.41852,0,nan,nan,3,0,10
43404000,0,473968734,85454669,490775,0,0.25,0.0,0.3,0.4,0.0,0.0,0,0,9.76,-9.69,-1.1,0.1,8.41852,0,nan,nan,3,0,10
43504000,0,473968643,85454653,490784,0,0.25,0.0,0.3,0.4,0.0,0.0,0,0,9.77,-9.7,-1.1,0.1,8.41852,0,nan,nan,3,0,10
43604000,0,473968550,85454639,490743,0,0.25,0.0,0.3,0.4,0.0,0.0,0,0,9.77,-9.71,-1.1,0.1,8.41852,0,nan,nan,3,0,10
43704000,0,473968458,85454621,490758,0,0.25,0.0,0.3,0.4,0.0,0.0,0,0,9.77,-9.71,-1.1,0.1,8.41852,0,nan,nan,3,0,10
43804000,0,473968367,85454608,490747,0,0.25,0.0,0.3,0.4,0.0,0.0,0,0,9.78,-9.72,-1.1,0.09,8.41852,0,nan,nan,3,0,10
43904000,0,473968322,85454601,490737,0,0.25,0.0,0.3,0.4,0.0,0.0,0,0,9.79,-9.72,-1.1,0.09,8.41852,0,nan,nan,3,0,10
44004000,0,473968233,85454583,490716,0,0.25,0.0,0.3,0.4,0.0,0.0,0,0,9.8,-9.74,-1.11,0.09,8.41852,0,nan,nan,3,0,10
44104000,0,473968140,85454568,490701,0,0.25,0.0,0.3,0.4,0.0,0.0,0,0,9.81,-9.75,-1.12,0.09,8.41852,0,nan,nan,3,0,10
44204000,0,473968047,85454552,490696,0,0.25,0.0,0.3,0.4,0.0,0.0,0,0,9.82,-9.76,-1.12,0.09,8.41852,0,nan,nan,3,0,10
44304000,0,473967958,85454538,490690,0,0.25,0.0,0.3,0.4,0.0,0.0,0,0,9.82,-9.75,-1.12,0.08,8.41852,0,nan,nan,3,0,10
44404000,0,473967866,85454521,490695,0,0.25,0.0,0.3,0.4,0.0,0.0,0,0,9.81,-9.75,-1.11,0.08,8.41852,0,nan,nan,3,0,10
44504000,0,473967777,85454506,490688,0,0.25,0.0,0.3,0.4,0.0,0.0,0,0,9.81,-9.75,-1.11,0.07,8.41852,0,nan,nan,3,0,10
44604000,0,473967687,85454492,490669,0,0.25,0.0,0.3,0.4,0.0,0.0,0,0,9.81,-9.74,-1.11,0.07,8.41852,0,nan,nan,3,0,10
44704000,0,473967594,85454479,490658,0,0.25,0.0,0.3,0.4,0.0,0.0,0,0,9.81,-9.74,-1.1,0.06,8.41852,0,nan,nan,3,0,10
44804000,0,473967500,85454463,490660,0,0.25,0.0,0.3,0.4,0.0,0.0,0,0,9.81,-9.75,-1.1,0.06,8.41852,0,nan,nan,3,0,10
44904000,0,473967410,85454448,490641,0,0.25,0.0,0.3,0.4,0.0,0.0,0,0,9.81,-9.75,-1.1,0.06,8.41852,0,nan,nan,3,0,10
45004000,0,473967319,85454433,490629,0,0.25,0.0,0.3,0.4,0.0,0.0,0,0,9.82,-9.76,-1.1,0.05,8.41852,0,nan,nan,3,0,10
45104000,0,473967229,85454416,490637,0,0.25,0.0,0.3,0.4,0.0,0.0,0,0,9.83,-9.77,-1.1,0.05,8.41852,0,nan,nan,3,0,10
45204000,0,473967184,85454408,490649,0,0.25,0.0,0.3,0.4,0.0,0.0,0,0,9.83,-9.77,-1.1,0.04,8.41852,0,nan,nan,3,0,10
45304000,0,473967091,85454394,490637,0,0.25,0.0,0.3,0.4,0.0,0.0,0,0,9.84,-9.78,-1.11,0.04,8.41852,0,nan,nan,3,0,10
45404000,0,473966998,85454378,490613,0,0.25,0.0,0.3,0.4,0.0,0.0,0,0,9.85,-9.79,-1.11,0.04,8.41852,0,nan,nan,3,0,10
45504000,0,473966908,85454363,490627,0,0.25,0.0,0.3,0.4,0.0,0.0,0,0,9.85,-9.79,-1.11,0.03,8.41852,0,nan,nan,3,0,10
45604000,0,473966816,85454347,490620,0,0.25,0.0,0.3,0.4,0.0,0.0,0,0,9.85,-9.79,-1.11,0.03,8.41852,0,nan,nan,3,0,10
45704000,0,473966725,85454331,490609,0,0.25,0.0,0.3,0.4,0.0,0.0,0,0,9.84,-9.78,-1.11,0.02,8.41852,0,nan,nan,3,0,10
45804000,0,473966633,85454315,490605,0,0.25,0.0,0.3,0.4,0.0,0.0,0,0,9.84,-9.78,-1.1,0.02,8.41852,0,nan,nan,3,0,10
45904000,0,473966541,85454303,490599,0,0.25,0.0,0.3,0.4,0.0,0.0,0,0,9.85,-9.79,-1.1,0.02,8.41852,0,nan,nan,3,0,10
46004000,0,473966450,85454285,490591,0,0.25,0.0,0.3,0.4,0.0,0.0,0,0,9.85,-9.79,-1.1,0.01,8.41852,0,nan,nan,3,0,10
46104000,0,473966358,85454271,490586,0,0.25,0.0,0.3,0.4,0.0,0.0,0,0,9.86,-9.8,-1.1,0.01,8.41852,0,nan,nan,3,0,10
46204000,0,473966266,85454256,490590,0,0.25,0.0,0.3,0.4,0.0,0.0,0,0,9.87,-9.8,-1.11,0.01,8.41852,0,nan,nan,3,0,10
46304000,0,473966175,85454239,490603,0,0.25,0.0,0.3,0.4,0.0,0.0,0,0,9.87,-9.81,-1.11,0.01,8.41852,0,nan,nan,3,0,10
46404000,0,473966083,85454223,490615,0,0.25,0.0,0.3,0.4,0.0,0.0,0,0,9.87,-9.81,-1.1,0.01,8.41852,0,nan,nan,3,0,10
46504000,0,473966037,85454216,490598,0,0.25,0.0,0.3,0.4,0.0,0.0,0,0,9.87,-9.81,-1.1,0.01,8.41852,0,nan,nan,3,0,10
46604000,0,473965944,85454200,490608,0,0.25,0.0,0.3,0.4,0.0,0.0,0,0,9.86,-9.8,-1.1,0.01,8.41852,0,nan,nan,3,0,10
46704000,0,473965853,85454185,490606,0,0.25,0.0,0.3,0.4,0.0,0.0,0,0,9.87,-9.8,-1.1,0.0,8.41852,0,nan,nan,3,0,10
46804000,0,473965763,85454169,490598,0,0.25,0.0,0.3,0.4,0.0,0.0,0,0,9.86,-9.8,-1.1,0.0,8.41852,0,nan,nan,3,0,10
46904000,0,473965671,85454154,490593,0,0.25,0.0,0.3,0.4,0.0,0.0,0,0,9.86,-9.8,-1.1,0.0,8.41852,0,nan,nan,3,0,10
47004000,0,473965579,85454139,490587,0,0.25,0.0,0.3,0.4,0.0,0.0,0,0,9.86,-9.8,-1.1,0.0,8.41852,0,nan,nan,3,0,10
47104000,0,473965487,85454126,490594,0,0.25,0.0,0.3,0.4,0.0,0.0,0,0,9.86,-9.8,-1.1,0.0,8.41852,0,nan,nan,3,0,10
47204000,0,473965394,85454109,490595,0,0.25,0.0,0.3,0.4,0.0,0.0,0,0,9.86,-9.79,-1.09,0.0,8.41852,0,nan,nan,3,0,10
47304000,0,473965302,85454094,490610,0,0.25,0.0,0.3,0.4,0.0,0.0,0,0,9.85,-9.79,-1.09,0.0,8.41852,0,nan,nan,3,0,10
47404000,0,473965212,85454078,490593,0,0.25,0.0,0.3,0.4,0.0,0.0,0,0,9.86,-9.8,-1.09,0.0,8.41852,0,nan,nan,3,0,10
47504000,0,473965120,85454064,490598,0,0.25,0.0,0.3,0.4,0.0,0.0,0,0,9.83,-9.77,-1.09,0.0,8.41852,0,nan,nan,3,0,10
47604000,0,473965029,85454049,490596,0,0.25,0.0,0.3,0.4,0.0,0.0,0,0,9.69,-9.63,-1.07,-0.02,8.41852,0,nan,nan,3,0,10
47704000,0,473964983,85454041,490590,0,0.25,0.0,0.3,0.4,0.0,0.0,0,0,9.57,-9.51,-1.06,-0.03,8.41852,0,nan,nan,3,0,10
47804000,0,473964898,85454029,490590,0,0.25,0.0,0.3,0.4,0.0,0.0,0,0,9.26,-9.2,-1.02,0.0,8.41852,0,nan,nan,3,0,10
47904000,0,473964811,85454013,490592,0,0.25,0.0,0.3,0.4,0.0,0.0,0,0,9.01,-8.96,-0.99,0.0,8.41852,0,nan,nan,3,0,10
48004000,0,473964727,85453997,490589,0,0.25,0.0,0.3,0.4,0.0,0.0,0,0,8.93,-8.87,-0.98,0.0,8.41852,0,nan,nan,3,0,10
48104000,0,473964644,85453984,490593,0,0.25,0.0,0.3,0.4,0.0,0.0,0,0,8.88,-8.83,-0.98,0.0,8.41852,0,nan,nan,3,0,10
48204000,0,473964564,85453972,490619,0,0.25,0.0,0.3,0.4,0.0,0.0,0,0,8.74,-8.69,-0.95,-0.02,8.41852,0,nan,nan,3,0,10
48304000,0,473964484,85453960,490605,0,0.25,0.0,0.3,0.4,0.0,0.0,0,0,8.46,-8.41,-0.91,-0.03,8.41852,0,nan,nan,3,0,10
48404000,0,473964406,85453948,490615,0,0.25,0.0,0.3,0.4,0.0,0.0,0,0,8.07,-8.03,-0.84,-0.02,8.41852,0,nan,nan,3,0,10
48504000,0,473964333,85453937,490606,0,0.25,0.0,0.3,0.4,0.0,0.0,0,0,7.62,-7.58,-0.77,0.0,8.40107,0,nan,nan,3,0,10
48604000,0,473964264,85453926,490609,0,0.25,0.0,0.3,0.4,0.0,0.0,0,0,7.15,-7.11,-0.7,0.01,8.40107,0,nan,nan,3,0,10
48704000,0,473964200,85453914,490620,0,0.25,0.0,0.3,0.4,0.0,0.0,0,0,6.71,-6.67,-0.64,0.02,8.40107,0,nan,nan,3,0,10
48804000,0,473964140,85453908,490620,0,0.25,0.0,0.3,0.4,0.0,0.0,0,0,6.31,-6.28,-0.59,0.02,8.40107,0,nan,nan,3,0,10
48904000,0,473964083,85453898,490617,0,0.25,0.0,0.3,0.4,0.0,0.0,0,0,5.96,-5.93,-0.55,0.02,8.40107,0,nan,nan,3,0,10
49004000,0,473964027,85453891,490624,0,0.25,0.0,0.3,0.4,0.0,0.0,0,0,5.75,-5.73,-0.52,0.02,8.40107,0,nan,nan,3,0,10
49104000,0,473964002,85453890,490625,0,0.25,0.0,0.3,0.4,0.0,0.0,0,0,5.69,-5.67,-0.52,0.01,8.40107,0,nan,nan,3,0,10
49204000,0,473963949,85453882,490610,0,0.25,0.0,0.3,0.4,0.0,0.0,0,0,5.53,-5.51,-0.51,0.0,8.40107,0,nan,nan,3,0,10
49304000,0,473963898,85453874,490617,0,0.25,0.0,0.3,0.4,0.0,0.0,0,0,5.33,-5.31,-0.49,0.01,8.40107,0,nan,nan,3,0,10
49404000,0,473963848,85453867,490613,0,0.25,0.0,0.3,0.4,0.0,0.0,0,0,5.23,-5.2,-0.5,0.0,8.40107,0,nan,nan,3,0,10
49504000,0,473963799,85453860,490610,0,0.25,0.0,0.3,0.4,0.0,0.0,0,0,5.31,-5.29,-0.52,-0.03,8.40107,0,nan,nan,3,0,10
49604000,0,473963749,85453853,490611,0,0.25,0.0,0.3,0.4,0.0,0.0,0,0,5.58,-5.55,-0.57,-0.02,8.40107,0,nan,nan,3,0,10
49704000,0,473963696,85453845,490609,0,0.25,0.0,0.3,0.4,0.0,0.0,0,0,5.97,-5.94,-0.62,0.0,8.41852,0,nan,nan,3,0,10
49804000,0,473963638,85453835,490618,0,0.25,0.0,0.3,0.4,0.0,0.0,0,0,6.43,-6.4,-0.68,0.01,8.41852,0,nan,nan,3,0,10
49904000,0,473963575,85453826,490596,0,0.25,0.0,0.3,0.4,0.0,0.0,0,0,6.93,-6.89,-0.75,0.02,8.41852,0,nan,nan,3,0,10
50004000,0,473963509,85453817,490612,0,0.25,0.0,0.3,0.4,0.0,0.0,0,0,7.43,-7.38,-0.81,0.01,8.41852,0,nan,nan,3,0,10
50104000,0,473963437,85453804,490588,0,0.25,0.0,0.3,0.4,0.0,0.0,0,0,7.93,-7.88,-0.88,0.0,8.41852,0,nan,nan,3,0,10
50204000,0,473963361,85453791,490606,0,0.25,0.0,0.3,0.4,0.0,0.0,0,0,8.43,-8.38,-0.94,0.0,8.41852,0,nan,nan,3,0,10
50304000,0,473963322,85453783,490609,0,0.25,0.0,0.3,0.4,0.0,0.0,0,0,8.67,-8.61,-0.97,0.02,8.41852,0,nan,nan,3,0,10
50404000,0,473963239,85453771,490612,0,0.25,0.0,0.3,0.4,0.0,0.0,0,0,9.08,-9.02,-1.03,0.04,8.41852,0,nan,nan,3,0,10
50504000,0,473963153,85453756,490610,0,0.25,0.0,0.3,0.4,0.0,0.0,0,0,9.38,-9.32,-1.07,0.02,8.41852,0,nan,nan,3,0,10
50604000,0,473963065,85453740,490606,0,0.25,0.0,0.3,0.4,0.0,0.0,0,0,9.56,-9.5,-1.09,0.0,8.41852,0,nan,nan,3,0,10
50704000,0,473962978,85453725,490586,0,0.25,0.0,0.3,0.4,0.0,0.0,0,0,9.67,-9.61,-1.1,-0.01,8.41852,0,nan,nan,3,0,10
50804000,0,473962887,85453710,490585,0,0.25,0.0,0.3,0.4,0.0,0.0,0,0,9.74,-9.68,-1.11,-0.01,8.41852,0,nan,nan,3,0,10
50904000,0,473962797,85453693,490584,0,0.25,0.0,0.3,0.4,0.0,0.0,0,0,9.79,-9.73,-1.12,-0.01,8.41852,0,nan,nan,3,0,10
51004000,0,473962703,85453679,490572,0,0.25,0.0,0.3,0.4,0.0,0.0,0,0,9.82,-9.75,-1.12,-0.01,8.41852,0,nan,nan,3,0,10
51104000,0,473962614,85453663,490580,0,0.25,0.0,0.3,0.4,0.0,0.0,0,0,9.74,-9.67,-1.11,-0.03,8.41852,0,nan,nan,3,0,10
51204000,0,473962523,85453648,490599,0,0.25,0.0,0.3,0.4,0.0,0.0,0,0,9.52,-9.45,-1.08,-0.05,8.41852,0,nan,nan,3,0,10
51304000,0,473962435,85453634,490600,0,0.25,0.0,0.3,0.4,0.0,0.0,0,0,9.18,-9.12,-1.03,-0.05,8.41852,0,nan,nan,3,0,10
51404000,0,473962352,85453621,490608,0,0.25,0.0,0.3,0.4,0.0,0.0,0,0,8.76,-8.71,-0.95,-0.04,8.41852,0,nan,nan,3,0,10
51504000,0,473962272,85453608,490598,0,0.25,0.0,0.3,0.4,0.0,0.0,0,0,8.3,-8.25,-0.87,-0.04,8.41852,0,nan,nan,3,0,10
51604000,0,473962198,85453597,490605,0,0.25,0.0,0.3,0.4,0.0,0.0,0,0,7.9,-7.86,-0.8,-0.01,8.40107,0,nan,nan,3,0,10
51704000,0,473962160,85453591,490619,0,0.25,0.0,0.3,0.4,0.0,0.0,0,0,7.8,-7.76,-0.78,-0.02,8.40107,0,nan,nan,3,0,10
51804000,0,473962089,85453580,490617,0,0.25,0.0,0.3,0.4,0.0,0.0,0,0,7.73,-7.69,-0.78,-0.02,8.40107,0,nan,nan,3,0,10
51904000,0,473962018,85453570,490627,0,0.25,0.0,0.3,0.4,0.0,0.0,0,0,7.67,-7.63,-0.78,-0.03,8.40107,0,nan,nan,3,0,10
52004000,0,473961947,85453560,490623,0,0.25,0.0,0.3,0.4,0.0,0.0,0,0,7.54,-7.5,-0.77,-0.04,8.40107,0,nan,nan,3,0,10
52104000,0,473961879,85453549,490627,0,0.25,0.0,0.3,0.4,0.0,0.0,0,0,7.32,-7.28,-0.75,-0.04,8.40107,0,nan,nan,3,0,10
52204000,0,473961812,85453537,490635,0,0.25,0.0,0.3,0.4,0.0,0.0,0,0,7.05,-7.01,-0.71,-0.03,8.40107,0,nan,nan,3,0,10
52304000,0,473961746,85453528,490641,0,0.25,0.0,0.3,0.4,0.0,0.0,0,0,6.75,-6.72,-0.68,-0.03,8.40107,0,nan,nan,3,0,10
52404000,0,473961685,85453518,490655,0,0.25,0.0,0.3,0.4,0.0,0.0,0,0,6.44,-6.41,-0.64,-0.02,8.40107,0,nan,nan,3,0,10
52504000,0,473961626,85453511,490652,0,0.25,0.0,0.3,0.4,0.0,0.0,0,0,6.13,-6.1,-0.6,-0.02,8.40107,0,nan,nan,3,0,10
52604000,0,473961570,85453502,490668,0,0.25,0.0,0.3,0.4,0.0,0.0,0,0,5.81,-5.78,-0.56,-0.02,8.40107,0,nan,nan,3,0,10
52704000,0,473961518,85453493,490653,0,0.25,0.0,0.3,0.4,0.0,0.0,0,0,5.48,-5.46,-0.52,-0.02,8.40107,0,nan,nan,3,0,10
52804000,0,473961470,85453486,490647,0,0.25,0.0,0.3,0.4,0.0,0.0,0,0,5.15,-5.13,-0.48,-0.02,8.40107,0,nan,nan,3,0,10
52904000,0,473961445,85453484,490660,0,0.25,0.0,0.3,0.4,0.0,0.0,0,0,4.99,-4.97,-0.46,-0.02,8.40107,0,nan,nan,3,0,10
53004000,0,473961399,85453479,490673,0,0.25,0.0,0.3,0.4,0.0,0.0,0,0,4.66,-4.64,-0.43,-0.01,8.40107,0,nan,nan,3,0,10
53104000,0,473961358,85453473,490659,0,0.25,0.0,0.3,0.4,0.0,0.0,0,0,4.33,-4.31,-0.39,-0.01,8.40107,0,nan,nan,3,0,10
53204000,0,473961319,85453468,490669,0,0.25,0.0,0.3,0.4,0.0,0.0,0,0,3.99,-3.98,-0.35,0.0,8.40107,0,nan,nan,3,0,10
53304000,0,473961283,85453462,490681,0,0.25,0.0,0.3,0.4,0.0,0.0,0,0,3.66,-3.64,-0.32,0.0,8.40107,0,nan,nan,3,0,10
53404000,0,473961251,85453457,490659,0,0.25,0.0,0.3,0.4,0.0,0.0,0,0,3.32,-3.3,-0.28,0.0,8.38362,0,nan,nan,3,0,10
53504000,0,473961222,85453453,490670,0,0.25,0.0,0.3,0.4,0.0,0.0,0,0,2.97,-2.96,-0.24,0.0,8.38362,0,nan,nan,3,0,10
53604000,0,473961195,85453447,490652,0,0.25,0.0,0.3,0.4,0.0,0.0,0,0,2.63,-2.63,-0.21,0.0,8.38362,0,nan,nan,3,0,10
53704000,0,473961170,85453446,490658,0,0.25,0.0,0.3,0.4,0.0,0.0,0,0,2.29,-2.29,-0.17,0.01,8.38362,0,nan,nan,3,0,10
53804000,0,473961151,85453447,490653,0,0.25,0.0,0.3,0.4,0.0,0.0,0,0,1.95,-1.95,-0.14,0.01,8.38362,0,nan,nan,3,0,10
53904000,0,473961135,85453443,490659,0,0.25,0.0,0.3,0.4,0.0,0.0,0,0,1.61,-1.61,-0.1,0.02,8.36616,0,nan,nan,3,0,10
54004000,0,473961123,85453442,490653,0,0.25,0.0,0.3,0.4,0.0,0.0,0,0,1.27,-1.27,-0.07,0.03,8.36616,0,nan,nan,3,0,10
54104000,0,473961111,85453439,490661,0,0.25,0.0,0.3,0.4,0.0,0.0,0,0,0.93,-0.93,-0.03,0.03,8.34871,0,nan,nan,3,0,10
54204000,0,473961108,85453441,490661,0,0.25,0.0,0.3,0.4,0.0,0.0,0,0,0.76,-0.76,-0.01,0.04,8.33126,0,nan,nan,3,0,10
54304000,0,473961102,85453440,490647,0,0.25,0.0,0.3,0.4,0.0,0.0,0,0,0.42,-0.42,0.01,0.04,3.08914,0,nan,nan,3,0,10
54404000,0,473961100,85453441,490633,0,0.25,0.0,0.3,0.4,0.0,0.0,0,0,0.11,-0.1,0.04,0.06,2.67028,0,nan,nan,3,0,10
54504000,0,473961098,85453442,490631,0,0.25,0.0,0.3,0.4,0.0,0.0,0,0,0.18,0.16,0.07,0.07,0.418867,0,nan,nan,3,0,10
54604000,0,473961101,85453441,490616,0,0.25,0.0,0.3,0.4,0.0,0.0,0,0,0.38,0.37,0.09,0.06,0.244339,0,nan,nan,3,0,10
54704000,0,473961107,85453443,490623,0,0.25,0.0,0.3,0.4,0.0,0.0,0,0,0.52,0.51,0.1,0.06,0.191981,0,nan,nan,3,0,10
54804000,0,473961110,85453445,490614,0,0.25,0.0,0.3,0.4,0.0,0.0,0,0,0.62,0.61,0.11,0.05,0.174528,0,nan,nan,3,0,10
54904000,0,473961116,85453450,490601,0,0.25,0.0,0.3,0.4,0.0,0.0,0,0,0.68,0.67,0.11,0.05,0.157075,0,nan,nan,3,0,10
55004000,0,473961122,85453452,490611,0,0.25,0.0,0.3,0.4,0.0,0.0,0,0,0.72,0.71,0.11,0.04,0.157075,0,nan,nan,3,0,10
55104000,0,473961131,85453452,490610,0,0.25,0.0,0.3,0.4,0.0,0.0,0,0,0.74,0.73,0.11,-0.03,0.139622,0,nan,nan,3,0,10
55204000,0,473961137,85453455,490606,0,0.25,0.0,0.3,0.4,0.0,0.0,0,0,0.74,0.74,0.1,-0.05,0.139622,0,nan,nan,3,0,10
55304000,0,473961145,85453453,490638,0,0.25,0.0,0.3,0.4,0.0,0.0,0,0,0.73,0.72,0.1,-0.39,0.139622,0,nan,nan,3,0,10
55404000,0,473961151,85453456,490708,0,0.25,0.0,0.3,0.4,0.0,0.0,0,0,0.7,0.69,0.09,-0.86,0.122169,0,nan,nan,3,0,10
55504000,0,473961154,85453457,490748,0,0.25,0.0,0.3,0.4,0.0,0.0,0,0,0.68,0.67,0.09,-1.08,0.122169,0,nan,nan,3,0,10
55604000,0,473961161,85453460,490881,0,0.25,0.0,0.3,0.4,0.0,0.0,0,0,0.64,0.63,0.08,-1.44,0.122169,0,nan,nan,3,0,10
55704000,0,473961167,85453461,491027,0,0.25,0.0,0.3,0.4,0.0,0.0,0,0,0.59,0.59,0.08,-1.52,0.122169,0,nan,nan,3,0,10
55804000,0,473961171,85453461,491189,0,0.25,0.0,0.3,0.4,0.0,0.0,0,0,0.54,0.54,0.07,-1.54,0.122169,0,nan,nan,3,0,10
55904000,0,473961177,85453459,491341,0,0.25,0.0,0.3,0.4,0.0,0.0,0,0,0.48,0.47,0.05,-1.56,0.104717,0,nan,nan,3,0,10
56004000,0,473961180,85453462,491520,0,0.25,0.0,0.3,0.4,0.0,0.0,0,0,0.41,0.41,0.04,-1.58,0.0872639,0,nan,nan,3,0,10
56104000,0,473961185,85453461,491693,0,0.25,0.0,0.3,0.4,0.0,0.0,0,0,0.34,0.34,0.02,-1.59,0.0698111,0,nan,nan,3,0,10
