timestamp,roll,pitch,yaw,thrust_body[0],thrust_body[1],thrust_body[2]
1984000,-0.000317819,3.60957,-4.9375e-05,0.0,0.0,-0.08
2012000,-0.00060096,3.61023,-9.34079e-05,0.0,0.0,-0.08
2044000,-0.00142664,3.60962,-0.000221752,0.0,0.0,-0.08
2080000,-0.00243293,3.60997,-0.000378214,0.0,0.0,-0.08
2104000,-0.00354774,3.6113,-0.000551797,0.0,0.0,-0.08
2144000,-0.00409947,3.61083,-0.000637494,0.0,0.0,-0.08
2176000,-0.00406228,3.61085,-0.000631727,0.0,0.0,-0.08
2204000,-0.00325997,3.61153,-0.000507049,0.0,0.0,-0.08
2236000,-0.00231067,3.6111,-0.000359349,0.0,0.0,-0.08
2268000,-0.00209022,3.61145,-0.000325151,0.0,0.0,-0.08
2300000,-0.0022242,3.61205,-0.00034605,0.0,0.0,-0.08
2332000,-0.00120739,3.61253,-0.000187889,0.0,0.0,-0.08
2368000,-0.000724493,3.61197,-0.00011272,0.0,0.0,-0.08
2400000,-0.000283236,3.61187,-4.40329e-05,0.0,0.0,-0.08
2428000,-0.000164313,3.61172,-2.55704e-05,0.0,0.0,-0.08
2460000,-0.00122798,3.61245,-0.000191085,0.0,0.0,-0.08
2492000,-0.00197799,3.61333,-0.000307851,0.0,0.0,-0.08
2528000,-0.0020484,3.61288,-0.000318736,0.0,0.0,-0.08
2560000,-0.00267886,3.61253,-0.000416793,0.0,0.0,-0.08
2588000,-0.00234589,3.61163,-0.000364915,0.0,0.0,-0.08
2616000,-0.00202283,3.61232,-0.000314713,0.0,0.0,-0.08
2652000,-0.00149271,3.61316,-0.000232324,0.0,0.0,-0.08
2684000,-0.000885425,3.61336,-0.000137821,0.0,0.0,-0.08
2720000,-0.0011623,3.61358,-0.000180915,0.0,0.0,-0.08
2748000,-0.00118927,3.61326,-0.000185095,0.0,0.0,-0.08
2780000,-0.00228515,3.61376,-0.000355683,0.0,0.0,-0.08
2812000,-0.00326292,3.61377,-0.000507899,0.0,0.0,-0.08
2848000,-0.00373963,3.61396,-0.000582129,0.0,0.0,-0.08
2880000,-0.00423912,3.6135,-0.000659801,0.0,0.0,-0.08
2908000,-0.00423186,3.61364,-0.000658683,0.0,0.0,-0.08
2940000,-0.0034253,3.61411,-0.000533246,0.0,0.0,-0.08
2972000,-0.00335269,3.61403,-0.000521936,0.0,0.0,-0.08
3004000,-0.00388624,3.61457,-0.000605084,0.0,0.0,-0.08
3036000,-0.0038093,3.61456,-0.000593103,0.0,0.0,-0.08
3072000,-0.00351767,3.61408,-0.000547618,0.0,0.0,-0.08
3104000,-0.00350441,3.61359,-0.000545427,0.0,0.0,-0.08
3136000,-0.00318047,3.6134,-0.000495024,0.0,0.0,-0.08
3164000,-0.00218369,3.61453,-0.000339992,0.0,0.0,-0.08
3200000,-0.00134877,3.61471,-0.000209995,0.0,0.0,-0.08
3228000,-0.000990774,3.61374,-0.000154249,0.0,0.0,-0.08
3260000,-0.00135794,3.61367,-0.00021138,0.0,0.0,-0.08
3292000,0.000362221,3.61385,5.63711e-05,0.0,0.0,-0.08
3328000,0.00125829,3.61371,0.000195824,0.0,0.0,-0.08
3360000,0.000590717,3.61342,9.19551e-05,0.0,0.0,-0.08
3392000,0.00037637,3.61371,5.85839e-05,0.0,0.0,-0.08
3424000,0.000899725,3.61396,0.000140101,0.0,0.0,-0.08
3452000,0.00143685,3.61415,0.000223652,0.0,0.0,-0.08
3484000,0.000326961,3.61386,5.08726e-05,0.0,0.0,-0.08
3520000,-7.69906e-05,3.61351,-1.20029e-05,0.0,0.0,-0.08
3548000,-7.27717e-05,3.61392,-1.13547e-05,0.0,0.0,-0.08
3584000,0.000545008,3.6161,8.48919e-05,0.0,0.0,-0.08
3612000,0.000256877,3.61633,4.0032e-05,0.0,0.0,-0.08
3644000,0.00126999,3.61633,0.000197858,0.0,0.0,-0.08
3676000,0.00177913,3.61409,0.000276983,0.0,0.0,-0.08
3708000,0.00138072,3.61239,0.0002148,0.0,0.0,-0.08
3740000,0.00151307,3.61209,0.000235364,0.0,0.0,-0.08
3772000,0.00305718,3.61202,0.000475578,0.0,0.0,-0.08
3804000,0.00297997,3.61273,0.000463687,0.0,0.0,-0.08
3832000,0.00324435,3.6127,0.000504814,0.0,0.0,-0.08
3868000,0.00332121,3.61302,0.000516884,0.0,0.0,-0.08
3900000,0.00154018,3.61326,0.000239678,0.0,0.0,-0.08
3928000,0.00164298,3.61334,0.000255682,0.0,0.0,-0.08
3960000,0.00146004,3.61244,0.000227138,0.0,0.0,-0.08
3996000,0.00111625,3.61277,0.000173673,0.0,0.0,-0.08
4028000,0.000545589,3.61206,8.48472e-05,0.0,0.0,-0.08
4060000,-0.000136089,3.61156,-2.11671e-05,0.0,0.0,-0.08
4096000,0.000207921,3.61007,3.22759e-05,0.0,0.0,-0.08
4128000,0.00059811,3.60993,9.29832e-05,0.0,0.0,-0.08
4156000,0.000724576,3.6093,0.000112653,0.0,0.0,-0.08
4192000,0.00105585,3.60991,0.000164106,0.0,0.0,-0.08
4224000,0.00149627,3.60998,0.00023257,0.0,0.0,-0.08
4252000,0.00135858,3.61022,0.000211179,0.0,0.0,-0.08
4284000,0.00191921,3.60948,0.000298306,0.0,0.0,-0.08
4316000,0.00252597,3.60914,0.000392586,0.0,0.0,-0.08
4344000,0.00226286,3.60915,0.00035166,0.0,0.0,-0.08
4384000,0.00188588,3.60903,0.000293054,0.0,0.0,-0.08
4412000,0.00244625,3.60762,0.000379957,0.0,0.0,-0.08
4444000,0.00188457,3.60738,0.000292696,0.0,0.0,-0.08
4476000,0.00163566,3.60691,0.000254005,0.0,0.0,-0.08
4504000,0.00149709,3.60586,0.000232391,0.0,0.0,-0.08
4540000,0.00188109,3.60561,0.000291958,0.0,0.0,-0.08
4576000,0.00203387,3.60502,0.000315674,0.0,0.0,-0.08
4604000,0.00192659,3.60637,0.000299156,0.0,0.0,-0.08
4636000,0.00167613,3.6063,0.000260219,0.0,0.0,-0.08
4668000,0.00102499,3.60651,0.0001591,0.0,0.0,-0.08
4700000,0.00160494,3.60598,0.000249177,0.0,0.0,-0.08
4728000,0.00212591,3.60635,0.000330068,0.0,0.0,-0.08
4768000,0.00119176,3.60562,0.000184983,0.0,0.0,-0.08
4796000,0.00136324,3.60511,0.000211604,0.0,0.0,-0.08
4828000,0.00197753,3.60502,0.000306889,0.0,0.0,-0.08
4860000,0.00276499,3.60509,0.000429176,0.0,0.0,-0.08
4892000,0.00240476,3.60533,0.000373341,0.0,0.0,-0.08
4924000,0.0015606,3.60538,0.000242248,0.0,0.0,-0.08
4960000,0.001423,3.60638,0.000220969,0.0,0.0,-0.08
4992000,0.00210268,3.60679,0.000326537,0.0,0.0,-0.08
5020000,0.00208098,3.60691,0.000323161,0.0,0.0,-0.08
5048000,0.00155831,3.60599,0.000241935,0.0,0.0,-0.08
5088000,0.00167704,3.60545,0.000260353,0.0,0.0,-0.08
5120000,0.00126976,3.60458,0.000197031,0.0,0.0,-0.08
5148000,0.000512637,3.60387,7.95498e-05,0.0,0.0,-0.08
5180000,0.000561694,3.60363,8.71494e-05,0.0,0.0,-0.08
5212000,0.000106378,3.60432,1.64956e-05,0.0,0.0,-0.08
5240000,-0.00160434,3.60455,-0.000248954,0.0,0.0,-0.08
5272000,-0.00147723,3.60357,-0.000229172,0.0,0.0,-0.08
5308000,-0.00126887,3.60396,-0.000196852,0.0,0.0,-0.08
5340000,-0.00113389,3.60295,-0.000175864,0.0,0.0,-0.08
5372000,-0.000303715,3.60287,-4.70951e-05,0.0,0.0,-0.08
5408000,-0.000100762,3.60182,-1.56015e-05,0.0,0.0,-0.08
5436000,0.000586409,3.60124,9.08822e-05,0.0,0.0,-0.08
5468000,0.000924859,3.60164,0.000143409,0.0,0.0,-0.08
5500000,0.000837123,3.60115,0.000129752,0.0,0.0,-0.08
5532000,0.000893645,3.60044,0.000138491,0.0,0.0,-0.08
5568000,0.00174586,3.6016,0.00027068,0.0,0.0,-0.08
5596000,0.00192037,3.60161,0.000297703,0.0,0.0,-0.08
5628000,0.00199101,3.60126,0.00030861,0.0,0.0,-0.08
5664000,0.00191854,3.60145,0.000297412,0.0,0.0,-0.08
5696000,0.00142817,3.60183,0.000221372,0.0,0.0,-0.08
5724000,0.00190839,3.60277,0.000295937,0.0,0.0,-0.08
5760000,0.00208718,3.60395,0.000323832,0.0,0.0,-0.08
5792000,0.00221525,3.60373,0.00034368,0.0,0.0,-0.08
5816000,0.00226147,3.60261,0.000350699,0.0,0.0,-0.08
5848000,0.000985941,3.60266,0.000152908,0.0,0.0,-0.08
5884000,0.000439296,3.6026,6.81728e-05,0.0,0.0,-0.08
5920000,-9.05972e-05,3.60343,-1.40369e-05,0.0,0.0,-0.08
5948000,-0.000120755,3.60352,-1.87308e-05,0.0,0.0,-0.08
5984000,-0.00119767,3.60428,-0.000185832,0.0,0.0,-0.08
6008000,-0.00103178,3.60409,-0.000160083,0.0,0.0,-0.08
6048000,-0.00164451,3.60448,-0.000255167,0.0,0.0,-0.08
6076000,-0.00225031,3.60538,-0.000349268,0.0,0.0,-0.08
6108000,-0.000680108,3.60507,-0.000105567,0.0,0.0,-0.08
6140000,-0.00131945,3.60481,-0.000204742,0.0,0.0,-0.08
6172000,-0.00228479,3.60593,-0.000354677,0.0,0.0,-0.08
6204000,-0.00178008,3.60602,-0.000276335,0.0,0.0,-0.08
6240000,-0.00292552,3.60635,-0.000454232,0.0,0.0,-0.08
6268000,-0.00247796,3.60681,-0.00038483,0.0,0.0,-0.08
6300000,-0.00181201,3.60709,-0.000281408,0.0,0.0,-0.08
6332000,-0.00111123,3.60861,-0.000172712,0.0,0.0,-0.08
6364000,-0.000898685,3.60861,-0.000139654,0.0,0.0,-0.08
6400000,-0.00119969,3.60969,-0.000186481,0.0,0.0,-0.08
6428000,-0.000887331,3.61033,-0.000137977,0.0,0.0,-0.08
6464000,-0.00134269,3.61091,-0.00020881,0.0,0.0,-0.08
6496000,-0.000791799,3.61004,-0.000123091,0.0,0.0,-0.08
6528000,-0.00120123,3.61096,-0.000186794,0.0,0.0,-0.08
6560000,-0.00103774,3.6117,-0.000161424,0.0,0.0,-0.08
6588000,-0.00099772,3.61306,-0.000155255,0.0,0.0,-0.08
6620000,-0.00141973,3.61421,-0.000221014,0.0,0.0,-0.08
6648000,-0.0017619,3.6147,-0.000274323,0.0,0.0,-0.08
6680000,-0.001942,3.61521,-0.000302441,0.0,0.0,-0.08
6716000,-0.00171217,3.61501,-0.000266656,0.0,0.0,-0.08
6748000,-0.0017479,3.61578,-0.000272244,0.0,0.0,-0.08
6784000,-0.00290468,3.61466,-0.000452265,0.0,0.0,-0.08
6812000,-0.00385967,3.61393,-0.000600837,0.0,0.0,-0.08
6848000,-0.00395571,3.61255,-0.0006155,0.0,0.0,-0.08
6880000,-0.00451374,3.61363,-0.00070256,0.0,0.0,-0.08
6912000,-0.00439492,3.61299,-0.000683919,0.0,0.0,-0.08
6944000,-0.00422964,3.61374,-0.000658393,0.0,0.0,-0.08
6972000,-0.00395486,3.61407,-0.000615656,0.0,0.0,-0.08
7000000,-0.00391475,3.61541,-0.000609688,0.0,0.0,-0.08
7040000,-0.00272448,3.61569,-0.000424325,0.0,0.0,-0.08
7068000,-0.00317001,3.6165,-0.000493862,0.0,0.0,-0.08
7100000,-0.00420972,3.61642,-0.000655845,0.0,0.0,-0.08
7132000,-0.00449155,3.61631,-0.000699744,0.0,0.0,-0.08
7164000,-0.00432233,3.61616,-0.000673369,0.0,0.0,-0.08
7200000,-0.00343375,3.61612,-0.000534922,0.0,0.0,-0.08
7228000,-0.00360092,3.61577,-0.000560917,0.0,0.0,-0.08
7260000,-0.00258628,3.61706,-0.00040298,0.0,0.0,-0.08
7292000,-0.00346399,3.61572,-0.000539571,0.0,0.0,-0.08
7328000,-0.00300331,3.61555,-0.000467777,0.0,0.0,-0.08
7356000,-0.00340139,3.61611,-0.000529848,0.0,0.0,-0.08
7392000,-0.0034635,3.61672,-0.000539638,0.0,0.0,-0.08
7420000,-0.0041024,3.61702,-0.00063926,0.0,0.0,-0.08
7452000,-0.00430809,3.61792,-0.000671513,0.0,0.0,-0.08
7484000,-0.00481615,3.61755,-0.000750616,0.0,0.0,-0.08
7512000,-0.00464895,3.61763,-0.000724554,0.0,0.0,-0.08
7548000,-0.00438526,3.6183,-0.00068365,0.0,0.0,-0.08
7580000,-0.00453942,3.61749,-0.000707522,0.0,0.0,-0.08
7612000,-0.00382456,3.61707,-0.000595987,0.0,0.0,-0.08
7648000,-0.00280065,3.6167,-0.000436373,0.0,0.0,-0.08
7676000,-0.00286879,3.6171,-0.000447057,0.0,0.0,-0.08
7708000,-0.00240628,3.61645,-0.000374906,0.0,0.0,-0.08
7744000,-0.00292194,3.6165,-0.00045526,0.0,0.0,-0.08
7772000,-0.00217167,3.61685,-0.000338338,0.0,0.0,-0.08
7804000,-0.000620037,3.61732,-9.66489e-05,0.0,0.0,-0.08
7836000,-0.000222975,3.61744,-3.47346e-05,0.0,0.0,-0.08
7868000,-0.000729242,3.61649,-0.000113614,0.0,0.0,-0.08
7904000,-0.0012552,3.61544,-0.000195511,0.0,0.0,-0.08
7932000,-0.00165974,3.61538,-0.000258476,0.0,0.0,-0.08
7964000,-0.000637555,3.61415,-9.92641e-05,0.0,0.0,-0.08
7996000,-0.000433842,3.61409,-6.75693e-05,0.0,0.0,-0.08
8028000,0.000471806,3.61462,7.34925e-05,0.0,0.0,-0.08
8064000,0.00166979,3.6154,0.000260018,0.0,0.0,-0.08
8092000,0.00164397,3.61462,0.000255972,0.0,0.0,-0.08
8124000,0.00199707,3.61478,0.000310935,0.0,0.0,-0.08
8156000,0.00133284,3.61436,0.000207514,0.0,0.0,-0.08
8188000,0.00166805,3.61451,0.000259683,0.0,0.0,-0.08
8220000,0.00134575,3.6143,0.000209503,0.0,0.0,-0.08
8252000,0.000783306,3.61371,0.000121906,0.0,0.0,-0.08
8284000,0.000631621,3.61353,9.8303e-05,0.0,0.0,-0.08
8316000,5.31692e-05,3.61409,8.27014e-06,0.0,0.0,-0.08
8352000,0.000983465,3.61337,0.000153042,0.0,0.0,-0.08
8384000,0.00116191,3.61317,0.000180826,0.0,0.0,-0.08
8412000,0.00130637,3.61258,0.000203267,0.0,0.0,-0.08
8440000,0.00179573,3.61363,0.000279531,0.0,0.0,-0.08
8476000,0.00226635,3.61377,0.000352778,0.0,0.0,-0.08
8512000,0.00387051,3.6148,0.00060267,0.0,0.0,-0.08
8540000,0.00365347,3.61466,0.000568874,0.0,0.0,-0.08
8572000,0.00371665,3.61501,0.000578754,0.0,0.0,-0.08
8604000,0.00340651,3.61484,0.000530452,0.0,0.0,-0.08
8636000,0.00350594,3.61428,0.000545852,0.0,0.0,-0.08
8668000,0.00332482,3.61366,0.00051751,0.0,0.0,-0.08
8700000,0.00387798,3.61376,0.000603653,0.0,0.0,-0.08
8736000,0.00396042,3.61306,0.000616305,0.0,0.0,-0.08
8764000,0.00434616,3.61303,0.000676341,0.0,0.0,-0.08
8796000,0.00467627,3.61351,0.000727817,0.0,0.0,-0.08
8832000,0.00437878,3.61267,0.000681326,0.0,0.0,-0.08
8860000,0.00375358,3.61213,0.000583939,0.0,0.0,-0.08
8892000,0.00355953,3.61215,0.000553742,0.0,0.0,-0.08
8924000,0.00384727,3.61102,0.000598244,0.0,0.0,-0.08
8960000,0.00376276,3.61046,0.00058499,0.0,0.0,-0.08
8984000,0.00451817,3.6103,0.000702448,0.0,0.0,-0.08
9020000,0.00489354,3.61008,0.000760742,0.0,0.0,-0.08
9052000,0.00416368,3.60974,0.000647239,0.0,0.0,-0.08
9084000,0.00339304,3.61023,0.000527546,0.0,0.0,-0.08
9116000,0.00295935,3.6094,0.000459954,0.0,0.0,-0.08
9152000,0.00269774,3.60892,0.000419229,0.0,0.0,-0.08
9184000,0.00239622,3.60916,0.00037238,0.0,0.0,-0.08
9212000,0.00253193,3.60827,0.000393391,0.0,0.0,-0.08
9244000,0.001793,3.60831,0.00027857,0.0,0.0,-0.08
9276000,0.00256362,3.60896,0.000398397,0.0,0.0,-0.08
9312000,0.00327472,3.60855,0.000508815,0.0,0.0,-0.08
9340000,0.00320649,3.60793,0.000498153,0.0,0.0,-0.08
9372000,0.00462426,3.60738,0.000718251,0.0,0.0,-0.08
9404000,0.00402785,3.60746,0.000625603,0.0,0.0,-0.08
9436000,0.00418296,3.60829,0.000649922,0.0,0.0,-0.08
9468000,0.00520711,3.60766,0.000808842,0.0,0.0,-0.08
9500000,0.0049906,3.6076,0.000775181,0.0,0.0,-0.08
9528000,0.00496495,3.60747,0.000771157,0.0,0.0,-0.08
9568000,0.00405881,3.60707,0.000630341,0.0,0.0,-0.08
9600000,0.00414068,3.60705,0.000643082,0.0,0.0,-0.08
9624000,0.00448222,3.60656,0.000696011,0.0,0.0,-0.08
9664000,0.00477081,3.6056,0.000740558,0.0,0.0,-0.08
9696000,0.00441273,3.60539,0.000684924,0.0,0.0,-0.08
9724000,0.00481267,3.60439,0.000746682,0.0,0.0,-0.08
9756000,0.00436421,3.60414,0.000677124,0.0,0.0,-0.08
9792000,0.00446795,3.60513,0.000693418,0.0,0.0,-0.08
9820000,0.00421078,3.6052,0.000653543,0.0,0.0,-0.08
9856000,0.00488263,3.60614,0.000758082,0.0,0.0,-0.08
9888000,0.00400378,3.60627,0.000621624,0.0,0.0,-0.08
9916000,0.00411771,3.60666,0.000639416,0.0,0.0,-0.08
9948000,0.00352352,3.60669,0.000547148,0.0,0.0,-0.08
9980000,0.00351169,3.60736,0.00054545,0.0,0.0,-0.08
10016000,0.00264527,3.60864,0.000410981,0.0,0.0,-0.08
10044000,0.00284685,3.60885,0.000442408,0.0,0.0,-0.08
10076000,0.00281667,3.609,0.000437737,0.0,0.0,-0.08
10108000,0.00201262,3.60978,0.000312835,0.0,0.0,-0.08
10140000,0.00223314,3.60946,0.000347055,0.0,0.0,-0.08
10172000,0.00255318,3.60872,0.000396743,0.0,0.0,-0.08
10204000,0.00345488,3.60885,0.000536889,0.0,0.0,-0.08
10232000,0.00314854,3.60857,0.000489257,0.0,0.0,-0.08
10268000,0.00330569,3.60914,0.000513777,0.0,0.0,-0.08
10300000,0.00310727,3.60883,0.00048282,0.0,0.0,-0.08
10332000,0.00124957,3.60966,0.000194214,0.0,0.0,-0.08
10360000,0.000263611,3.60945,4.09931e-05,0.0,0.0,-0.08
10396000,0.000765966,3.60986,0.000119068,0.0,0.0,-0.08
10428000,0.000542549,3.61034,8.43331e-05,0.0,0.0,-0.08
10464000,0.00056489,3.61067,8.78423e-05,0.0,0.0,-0.08
10496000,0.000113899,3.61029,1.77249e-05,0.0,0.0,-0.08
10524000,-0.000551725,3.6104,-8.58307e-05,0.0,0.0,-0.08
10556000,-0.000793543,3.61058,-0.000123382,0.0,0.0,-0.08
10588000,-1.71941e-05,3.60969,-2.65986e-06,0.0,0.0,-0.08
10624000,-0.000896875,3.60964,-0.000139408,0.0,0.0,-0.08
10648000,-0.000967568,3.61053,-0.000150427,0.0,0.0,-0.08
10688000,-0.00100043,3.61072,-0.000155568,0.0,0.0,-0.08
10720000,-0.00104598,3.6114,-0.000162654,0.0,0.0,-0.08
10744000,-0.000780322,3.6104,-0.000121303,0.0,0.0,-0.08
10780000,-0.000875959,3.60982,-0.000136189,0.0,0.0,-0.08
10812000,-0.000961723,3.6094,-0.000149511,0.0,0.0,-0.08
10844000,-0.00169456,3.6085,-0.000263304,0.0,0.0,-0.08
10880000,-0.0027492,3.60866,-0.000427209,0.0,0.0,-0.08
10908000,-0.00304818,3.60911,-0.0004737,0.0,0.0,-0.08
10940000,-0.00318594,3.60946,-0.000495203,0.0,0.0,-0.08
10972000,-0.00315716,3.60943,-0.000490732,0.0,0.0,-0.08
11004000,-0.00319613,3.61114,-0.00049708,0.0,0.0,-0.08
11036000,-0.0025723,3.61072,-0.000399984,0.0,0.0,-0.08
11068000,-0.00301447,3.61104,-0.000468783,0.0,0.0,-0.08
11100000,-0.00288791,3.61004,-0.000448979,0.0,0.0,-0.08
11132000,-0.00317249,3.61084,-0.000493348,0.0,0.0,-0.08
11164000,-0.00253255,3.61094,-0.00039386,0.0,0.0,-0.08
11192000,-0.00320242,3.61121,-0.000498042,0.0,0.0,-0.08
11224000,-0.00423031,3.61113,-0.000657901,0.0,0.0,-0.08
11260000,-0.00459318,3.6112,-0.000714362,0.0,0.0,-0.08
11292000,-0.00540809,3.61113,-0.000841051,0.0,0.0,-0.08
11328000,-0.00602188,3.61179,-0.000936739,0.0,0.0,-0.08
11360000,-0.00651704,3.61251,-0.00101399,0.0,0.0,-0.08
11388000,-0.00630415,3.61211,-0.000980727,0.0,0.0,-0.08
11420000,-0.00666372,3.6122,-0.00103679,0.0,0.0,-0.08
11456000,-0.00684156,3.61246,-0.00106446,0.0,0.0,-0.08
11488000,-0.0071918,3.61287,-0.00111911,0.0,0.0,-0.08
11516000,-0.00657589,3.61219,-0.00102306,0.0,0.0,-0.08
11552000,-0.00773271,3.61382,-0.00120366,0.0,0.0,-0.08
11580000,-0.00764574,3.61352,-0.00119001,0.0,0.0,-0.08
11612000,-0.00852565,3.61505,-0.00132763,0.0,0.0,-0.08
11640000,-0.00887557,3.61386,-0.00138165,0.0,0.0,-0.08
11676000,-0.00849391,3.6133,-0.00132193,0.0,0.0,-0.08
11712000,-0.00829323,3.61372,-0.00129088,0.0,0.0,-0.08
11740000,-0.00730164,3.61412,-0.0011367,0.0,0.0,-0.08
11772000,-0.00638361,3.61318,-0.000993446,0.0,0.0,-0.08
11808000,-0.00684853,3.614,-0.00106611,0.0,0.0,-0.08
11832000,-0.00700717,3.61324,-0.00109052,0.0,0.0,-0.08
11868000,-0.00877195,3.61265,-0.00136495,0.0,0.0,-0.08
11900000,-0.00708316,3.61305,-0.00110225,0.0,0.0,-0.08
11928000,-0.00653332,3.61267,-0.00101653,0.0,0.0,-0.08
11964000,-0.00525888,3.61231,-0.000818186,0.0,0.0,-0.08
11996000,-0.00556258,3.61183,-0.000865325,0.0,0.0,-0.08
12028000,-0.0050848,3.61241,-0.00079114,0.0,0.0,-0.08
12064000,-0.00467724,3.61196,-0.000727572,0.0,0.0,-0.08
12092000,-0.00409155,3.61193,-0.000636466,0.0,0.0,-0.08
12124000,-0.0032261,3.61163,-0.000501797,0.0,0.0,-0.08
12160000,-0.00381622,3.61106,-0.000593483,0.0,0.0,-0.08
12188000,-0.00376379,3.6112,-0.000585392,0.0,0.0,-0.08
12220000,-0.00463482,3.61217,-0.000721067,0.0,0.0,-0.08
12252000,-0.00404452,3.6113,-0.000629,0.0,0.0,-0.08
12288000,-0.00403072,3.61094,-0.00062681,0.0,0.0,-0.08
12316000,-0.00428954,3.61132,-0.000667132,0.0,0.0,-0.08
12348000,-0.00455479,3.61177,-0.000708506,0.0,0.0,-0.08
12384000,-0.00476387,3.61185,-0.000741027,0.0,0.0,-0.08
12412000,-0.0053869,3.61166,-0.0008379,0.0,0.0,-0.08
12444000,-0.00410152,3.61175,-0.000637986,0.0,0.0,-0.08
12472000,-0.0038634,3.61075,-0.000600792,0.0,0.0,-0.08
12512000,-0.00397774,3.6108,-0.000618562,0.0,0.0,-0.08
12540000,-0.00439215,3.61108,-0.000683025,0.0,0.0,-0.08
12576000,-0.00490442,3.61136,-0.000762798,0.0,0.0,-0.08
12608000,-0.00505613,3.61117,-0.000786334,0.0,0.0,-0.08
12640000,-0.00497408,3.61152,-0.000773683,0.0,0.0,-0.08
12668000,-0.00361895,3.6122,-0.000562951,0.0,0.0,-0.08
12700000,-0.00339415,3.61151,-0.000527903,0.0,0.0,-0.08
12736000,-0.00407877,3.61148,-0.000634387,0.0,0.0,-0.08
12760000,-0.00355498,3.61074,-0.000552781,0.0,0.0,-0.08
12800000,-0.00372422,3.61057,-0.000579067,0.0,0.0,-0.08
12828000,-0.00322603,3.6098,-0.000501484,0.0,0.0,-0.08
12864000,-0.00336347,3.60937,-0.00052274,0.0,0.0,-0.08
12888000,-0.00418461,3.60963,-0.000650458,0.0,0.0,-0.08
12924000,-0.00381014,3.60983,-0.000592299,0.0,0.0,-0.08
12956000,-0.00365745,3.60991,-0.000568561,0.0,0.0,-0.08
12992000,-0.00318552,3.60896,-0.000495091,0.0,0.0,-0.08
13020000,-0.00320217,3.60919,-0.000497684,0.0,0.0,-0.08
13052000,-0.00367772,3.6089,-0.000571579,0.0,0.0,-0.08
13080000,-0.00318144,3.60968,-0.000494532,0.0,0.0,-0.08
13112000,-0.00226084,3.61026,-0.000351503,0.0,0.0,-0.08
13148000,-0.00250238,3.61093,-0.000389166,0.0,0.0,-0.08
13184000,-0.0022913,3.6124,-0.000356488,0.0,0.0,-0.08
13216000,-0.00278478,3.61213,-0.000433266,0.0,0.0,-0.08
13244000,-0.00304619,3.61203,-0.000473879,0.0,0.0,-0.08
13276000,-0.00333594,3.6121,-0.000518985,0.0,0.0,-0.08
13308000,-0.00319632,3.61273,-0.000497349,0.0,0.0,-0.08
13336000,-0.00297318,3.61361,-0.000462793,0.0,0.0,-0.08
13376000,-0.00400958,3.61354,-0.000624038,0.0,0.0,-0.08
13404000,-0.00272478,3.61242,-0.000423945,0.0,0.0,-0.08
13436000,-0.00306227,3.61152,-0.000476271,0.0,0.0,-0.08
13468000,-0.00349925,3.61174,-0.00054431,0.0,0.0,-0.08
13500000,-0.00291363,3.61166,-0.000453182,0.0,0.0,-0.08
13532000,-0.00291829,3.61174,-0.000453986,0.0,0.0,-0.08
13564000,-0.00240904,3.61198,-0.000374772,0.0,0.0,-0.08
13596000,-0.00203123,3.61301,-0.000316098,0.0,0.0,-0.08
13632000,-0.00176813,3.61348,-0.000275217,0.0,0.0,-0.08
13660000,-0.00215183,3.61349,-0.000334918,0.0,0.0,-0.08
13696000,-0.00217938,3.61341,-0.000339165,0.0,0.0,-0.08
13724000,-0.00216142,3.61369,-0.000336416,0.0,0.0,-0.08
13760000,-0.00166439,3.61465,-0.000259168,0.0,0.0,-0.08
13788000,-0.00159716,3.61477,-0.000248708,0.0,0.0,-0.08
13820000,-0.00245769,3.61535,-0.000382774,0.0,0.0,-0.08
13848000,-0.00259788,3.61551,-0.000404634,0.0,0.0,-0.08
13884000,-0.00209687,3.61452,-0.000326447,0.0,0.0,-0.08
13916000,-0.00178558,3.61452,-0.000278033,0.0,0.0,-0.08
13948000,-0.00205833,3.61621,-0.00032068,0.0,0.0,-0.08
13980000,-0.00136754,3.61553,-0.00021299,0.0,0.0,-0.08
14012000,-0.000321485,3.61671,-5.00679e-05,0.0,0.0,-0.08
14048000,-0.000575289,3.61658,-8.96081e-05,0.0,0.0,-0.08
14076000,-0.000673424,3.61623,-0.000104897,0.0,0.0,-0.08
14108000,-0.00161877,3.61719,-0.000252306,0.0,0.0,-0.08
14140000,-0.00144084,3.61708,-0.000224501,0.0,0.0,-0.08
14176000,-0.00101895,3.61687,-0.000158787,0.0,0.0,-0.08
14208000,-0.00103076,3.61697,-0.00016062,0.0,0.0,-0.08
14236000,-0.00158819,3.61684,-0.000247456,0.0,0.0,-0.08
14264000,-0.00171233,3.6173,-0.000266835,0.0,0.0,-0.08
14300000,-0.00126656,3.6191,-0.0001975,0.0,0.0,-0.08
14332000,-0.00145108,3.61831,-0.000226222,0.0,0.0,-0.08
14368000,0.00010588,3.61774,1.64956e-05,0.0,0.0,-0.08
14396000,0.000156658,3.61692,2.43858e-05,0.0,0.0,-0.08
14428000,0.000247188,3.61737,3.85344e-05,0.0,0.0,-0.08
14456000,0.000778791,3.61695,0.000121348,0.0,0.0,-0.08
14492000,0.00101569,3.61701,0.00015825,0.0,0.0,-0.08
14524000,0.000902591,3.61701,0.00014066,0.0,0.0,-0.08
14560000,0.000407277,3.61748,6.35013e-05,0.0,0.0,-0.08
14588000,0.00149258,3.61733,0.000232548,0.0,0.0,-0.08
14620000,0.0013775,3.6173,0.000214666,0.0,0.0,-0.08
14652000,0.000554614,3.61678,8.63895e-05,0.0,0.0,-0.08
14684000,0.000685673,3.61668,0.000106864,0.0,0.0,-0.08
14720000,0.00089312,3.61529,0.00013905,0.0,0.0,-0.08
14748000,9.28659e-05,3.6155,1.44169e-05,0.0,0.0,-0.08
14784000,0.000369888,3.61481,5.75781e-05,0.0,0.0,-0.08
14816000,-0.000315562,3.61502,-4.91515e-05,0.0,0.0,-0.08
14844000,9.93758e-05,3.61489,1.54674e-05,0.0,0.0,-0.08
14880000,-0.000674676,3.61526,-0.000105076,0.0,0.0,-0.08
14908000,4.90509e-05,3.61613,7.59959e-06,0.0,0.0,-0.08
14940000,0.000920897,3.61647,0.000143476,0.0,0.0,-0.08
14972000,0.00193269,3.61557,0.000301033,0.0,0.0,-0.08
15008000,0.00197072,3.61566,0.000306934,0.0,0.0,-0.08
15036000,0.00249343,3.61594,0.000388406,0.0,0.0,-0.08
15068000,0.00226148,3.61494,0.000352174,0.0,0.0,-0.08
15100000,0.00272957,3.61524,0.000425108,0.0,0.0,-0.08
15132000,0.0020074,3.61565,0.000312679,0.0,0.0,-0.08
15164000,0.00167274,3.61515,0.000260487,0.0,0.0,-0.08
15196000,0.0022536,3.61605,0.000351056,0.0,0.0,-0.08
15228000,0.0020427,3.61615,0.000318222,0.0,0.0,-0.08
15260000,0.00183986,3.61688,0.000286661,0.0,0.0,-0.08
15292000,0.00212967,3.6176,0.000331923,0.0,0.0,-0.08
15324000,0.00281185,3.61784,0.000438273,0.0,0.0,-0.08
15360000,0.00287853,3.61779,0.000448689,0.0,0.0,-0.08
15392000,0.00336832,3.6169,0.000524886,0.0,0.0,-0.08
15420000,0.00380184,3.61696,0.000592433,0.0,0.0,-0.08
15448000,0.00472886,3.61732,0.000736959,0.0,0.0,-0.08
15484000,0.00483978,3.61738,0.000754282,0.0,0.0,-0.08
15520000,0.00512454,3.61746,0.000798672,0.0,0.0,-0.08
15548000,0.00393094,3.61687,0.000612527,0.0,0.0,-0.08
15580000,0.00411176,3.61657,0.000640623,0.0,0.0,-0.08
15612000,0.0046647,3.6172,0.000726879,0.0,0.0,-0.08
15644000,0.00486261,3.61655,0.000757635,0.0,0.0,-0.08
15676000,0.00430367,3.61664,0.000670552,0.0,0.0,-0.08
15708000,0.00318783,3.61767,0.000496879,0.0,0.0,-0.08
15740000,0.00305375,3.6179,0.000475958,0.0,0.0,-0.08
15772000,0.00266676,3.61806,0.000415698,0.0,0.0,-0.08
15800000,0.0027385,3.61822,0.000426918,0.0,0.0,-0.08
15836000,0.00256204,3.61812,0.000399403,0.0,0.0,-0.08
15872000,0.00294928,3.61817,0.000459753,0.0,0.0,-0.08
15904000,0.00265892,3.61991,0.000414714,0.0,0.0,-0.08
15928000,0.00181753,3.61925,0.000283442,0.0,0.0,-0.08
15964000,0.00185274,3.61829,0.000288829,0.0,0.0,-0.08
16000000,0.00177742,3.618,0.00027705,0.0,0.0,-0.08
16028000,0.00117694,3.6177,0.000183418,0.0,0.0,-0.08
16060000,0.00127374,3.61601,0.000198461,0.0,0.0,-0.08
16092000,0.00133765,3.61574,0.000208363,0.0,0.0,-0.08
16124000,0.00136564,3.61586,0.000212722,0.0,0.0,-0.08
16156000,0.00109191,3.61551,0.00017003,0.0,0.0,-0.08
16188000,0.00136032,3.61531,0.000211827,0.0,0.0,-0.08
16220000,0.000981314,3.61553,0.000152841,0.0,0.0,-0.08
16252000,0.00119062,3.61593,0.00018543,0.0,0.0,-0.08
16280000,0.00106542,3.61687,0.000165984,0.0,0.0,-0.08
16312000,0.000802467,3.61719,0.000125058,0.0,0.0,-0.08
16348000,0.00109083,3.61721,0.000170007,0.0,0.0,-0.08
16380000,0.0024011,3.61812,0.000374325,0.0,0.0,-0.08
16412000,0.00266042,3.61892,0.000414826,0.0,0.0,-0.08
16444000,0.00121629,3.61778,0.000189565,0.0,0.0,-0.08
16476000,0.00161773,3.61699,0.000252105,0.0,0.0,-0.08
16508000,0.00133907,3.6166,0.000208654,0.0,0.0,-0.08
16540000,0.00190361,3.61597,0.000296541,0.0,0.0,-0.08
16568000,0.00226433,3.61675,0.000352845,0.0,0.0,-0.08
16604000,0.00287311,3.61644,0.000447616,0.0,0.0,-0.08
16632000,0.00233858,3.61674,0.0003644,0.0,0.0,-0.08
16672000,0.00213197,3.61654,0.000332192,0.0,0.0,-0.08
16700000,0.00104066,3.61576,0.000162117,0.0,0.0,-0.08
16736000,0.00123128,3.61524,0.000191733,0.0,0.0,-0.08
16764000,0.00142021,3.61563,0.000221193,0.0,0.0,-0.08
16796000,0.00187444,3.61511,0.000291891,0.0,0.0,-0.08
16828000,0.00126785,3.61548,0.000197455,0.0,0.0,-0.08
16856000,0.00109112,3.61507,0.000169918,0.0,0.0,-0.08
16896000,9.54866e-05,3.61455,1.47969e-05,0.0,0.0,-0.08
16924000,-5.94389e-05,3.61556,-9.27597e-06,0.0,0.0,-0.08
16956000,-0.000789028,3.6156,-0.000122845,0.0,0.0,-0.08
16988000,-0.00184121,3.61624,-0.000286885,0.0,0.0,-0.08
17024000,-0.00199388,3.61611,-0.000310622,0.0,0.0,-0.08
17052000,-0.00214409,3.61678,-0.000334091,0.0,0.0,-0.08
17084000,-0.00232874,3.61643,-0.000362791,0.0,0.0,-0.08
17112000,-0.00339659,3.61673,-0.0005292,0.0,0.0,-0.08
17148000,-0.00367088,3.61672,-0.000571981,0.0,0.0,-0.08
17176000,-0.00383904,3.61681,-0.000598155,0.0,0.0,-0.08
17212000,-0.00318333,3.61601,-0.000495896,0.0,0.0,-0.08
17244000,-0.00250216,3.61628,-0.000389814,0.0,0.0,-0.08
17276000,-0.00289033,3.61689,-0.000450388,0.0,0.0,-0.08
17304000,-0.00349426,3.61725,-0.000544533,0.0,0.0,-0.08
17344000,-0.00470881,3.61665,-0.000733674,0.0,0.0,-0.08
17368000,-0.00404383,3.6159,-0.000629917,0.0,0.0,-0.08
17404000,-0.00382471,3.61526,-0.000595652,0.0,0.0,-0.08
17440000,-0.00372511,3.61527,-0.000580117,0.0,0.0,-0.08
17472000,-0.00348767,3.61557,-0.000543214,0.0,0.0,-0.08
17500000,-0.00347822,3.61513,-0.000541672,0.0,0.0,-0.08
17532000,-0.00252751,3.61448,-0.000393547,0.0,0.0,-0.08
17564000,-0.00230694,3.61355,-0.000359058,0.0,0.0,-0.08
17600000,-0.00255338,3.61421,-0.000397526,0.0,0.0,-0.08
17628000,-0.00260436,3.61349,-0.000405371,0.0,0.0,-0.08
17664000,-0.000599675,3.61242,-9.33409e-05,0.0,0.0,-0.08
17692000,-0.000683332,3.61197,-0.000106327,0.0,0.0,-0.08
17724000,-0.000661232,3.61253,-0.000102885,0.0,0.0,-0.08
17756000,-0.00154844,3.61206,-0.000240885,0.0,0.0,-0.08
17792000,-0.00152149,3.6126,-0.00023675,0.0,0.0,-0.08
17824000,-0.00177887,3.6135,-0.000276916,0.0,0.0,-0.08
17852000,-0.00232824,3.61334,-0.000362366,0.0,0.0,-0.08
17884000,-0.00218144,3.6127,-0.000339411,0.0,0.0,-0.08
17916000,-0.00133987,3.61259,-0.000208497,0.0,0.0,-0.08
17944000,-0.00177103,3.61283,-0.000275597,0.0,0.0,-0.08
17980000,-0.00106613,3.61295,-0.000165895,0.0,0.0,-0.08
18012000,-0.000145191,3.61177,-2.25976e-05,0.0,0.0,-0.08
18044000,-2.48831e-05,3.61168,-3.86685e-06,0.0,0.0,-0.08
18076000,5.07552e-05,3.61244,7.86781e-06,0.0,0.0,-0.08
18108000,0.000233788,3.61249,3.63663e-05,0.0,0.0,-0.08
18136000,0.000540599,3.61225,8.41096e-05,0.0,0.0,-0.08
18172000,0.000117045,3.61189,1.81943e-05,0.0,0.0,-0.08
18204000,-3.93726e-05,3.61181,-6.12438e-06,0.0,0.0,-0.08
18236000,0.000143878,3.612,2.23741e-05,0.0,0.0,-0.08
18272000,0.000772074,3.61227,0.000120118,0.0,0.0,-0.08
18304000,0.00133121,3.61168,0.000207067,0.0,0.0,-0.08
18332000,0.00185219,3.61262,0.000288203,0.0,0.0,-0.08
18364000,0.0013857,3.61264,0.00021556,0.0,0.0,-0.08
18396000,0.00135654,3.6129,0.00021109,0.0,0.0,-0.08
18428000,0.00164605,3.61223,0.000256062,0.0,0.0,-0.08
18460000,0.00131038,3.612,0.000203826,0.0,0.0,-0.08
18492000,0.00294198,3.61273,0.000457764,0.0,0.0,-0.08
18524000,0.00253419,3.61265,0.000394329,0.0,0.0,-0.08
18556000,0.00265342,3.61071,0.000412546,0.0,0.0,-0.08
18588000,0.0030806,3.61076,0.000479065,0.0,0.0,-0.08
18624000,0.0022083,3.61032,0.000343323,0.0,0.0,-0.08
18656000,0.0018087,3.61037,0.000281207,0.0,0.0,-0.08
18684000,0.0021662,3.61113,0.000336885,0.0,0.0,-0.08
18712000,0.0035034,3.61073,0.000544779,0.0,0.0,-0.08
18748000,0.00410926,3.61027,0.000638857,0.0,0.0,-0.08
18780000,0.00447869,3.61067,0.000696436,0.0,0.0,-0.08
18816000,0.00480832,3.60977,0.000747442,0.0,0.0,-0.08
18848000,0.00564129,3.61101,0.000877328,0.0,0.0,-0.08
18876000,0.00611367,3.61145,0.000950888,0.0,0.0,-0.08
18908000,0.00655057,3.6118,0.00101893,0.0,0.0,-0.08
18940000,0.00642315,3.61157,0.000999011,0.0,0.0,-0.08
18976000,0.00610396,3.61046,0.000949055,0.0,0.0,-0.08
19000000,0.00751488,3.60995,0.00116821,0.0,0.0,-0.08
19040000,0.00848012,3.61042,0.00131851,0.0,0.0,-0.08
19068000,0.00874312,3.61061,0.00135948,0.0,0.0,-0.08
19100000,0.00932496,3.61038,0.00144978,0.0,0.0,-0.08
19132000,0.00970614,3.61036,0.0015091,0.0,0.0,-0.08
19168000,0.00898445,3.61128,0.0013973,0.0,0.0,-0.08
19196000,0.00935334,3.60966,0.00145387,0.0,0.0,-0.08
19228000,0.00979801,3.60897,0.00152262,0.0,0.0,-0.08
19260000,0.00995483,3.60846,0.00154674,0.0,0.0,-0.08
19296000,0.00963014,3.60925,0.00149669,0.0,0.0,-0.08
19324000,0.00871072,3.60715,0.00135288,0.0,0.0,-0.08
19356000,0.00887012,3.60629,0.00137718,0.0,0.0,-0.08
19388000,0.00933495,3.60549,0.00144897,0.0,0.0,-0.08
19420000,0.00885415,3.6057,0.00137445,0.0,0.0,-0.08
19456000,0.00842301,3.60559,0.00130749,0.0,0.0,-0.08
19480000,0.00853143,3.60685,0.00132485,0.0,0.0,-0.08
19512000,0.00859405,3.60625,0.00133431,0.0,0.0,-0.08
19548000,0.00902277,3.60621,0.00140087,0.0,0.0,-0.08
19580000,0.00907316,3.606,0.00140858,0.0,0.0,-0.08
19612000,0.00821585,3.60609,0.00127552,0.0,0.0,-0.08
19644000,0.00850073,3.60601,0.00131969,0.0,0.0,-0.08
19676000,0.00865284,3.60671,0.00134365,0.0,0.0,-0.08
19704000,0.00815271,3.60757,0.00126638,0.0,0.0,-0.08
19744000,0.00777162,3.60777,0.00120725,0.0,0.0,-0.08
19772000,0.00796484,3.60761,0.0012372,0.0,0.0,-0.08
19804000,0.00779433,3.60663,0.00121031,0.0,0.0,-0.08
19836000,0.00792885,3.60765,0.00123162,0.0,0.0,-0.08
19868000,0.00809568,3.60865,0.00125796,0.0,0.0,-0.08
19904000,0.0088159,3.60877,0.00136993,0.0,0.0,-0.08
19932000,0.00923343,3.60832,0.00143459,0.0,0.0,-0.08
19964000,0.00940584,3.60844,0.00146144,0.0,0.0,-0.08
19996000,0.00968263,3.60903,0.00150475,0.0,0.0,-0.08
20028000,0.0102314,3.60908,0.00159006,0.0,0.0,-0.08
20060000,0.0101673,3.60899,0.00158005,0.0,0.0,-0.08
20088000,0.00947946,3.61007,0.00147369,0.0,0.0,-0.08
20128000,0.00994754,3.60937,0.0015461,0.0,0.0,-0.08
20156000,0.0105822,3.60919,0.00164463,0.0,0.0,-0.08
20192000,0.0108973,3.60851,0.00169322,0.0,0.0,-0.08
20220000,0.0108314,3.60826,0.00168283,0.0,0.0,-0.08
20256000,0.0103323,3.60814,0.00160523,0.0,0.0,-0.08
20284000,0.0102158,3.60738,0.00158672,0.0,0.0,-0.08
20320000,0.0102119,3.60615,0.00158546,0.0,0.0,-0.08
20348000,0.0102556,3.60473,0.00159147,0.0,0.0,-0.08
20380000,0.0108387,3.60505,0.00168214,0.0,0.0,-0.08
20408000,0.01153,3.60543,0.00178966,0.0,0.0,-0.08
20448000,0.0102171,3.6043,0.00158526,0.0,0.0,-0.08
20480000,0.010268,3.60488,0.00159348,0.0,0.0,-0.08
20508000,0.00963441,3.60503,0.00149523,0.0,0.0,-0.08
20540000,0.00913655,3.60438,0.00141765,0.0,0.0,-0.08
20572000,0.0087403,3.60463,0.00135628,0.0,0.0,-0.08
20604000,0.00869993,3.60495,0.00135016,0.0,0.0,-0.08
20640000,0.00846652,3.6052,0.00131405,0.0,0.0,-0.08
20668000,0.00810722,3.60502,0.00125821,0.0,0.0,-0.08
20700000,0.0075887,3.6044,0.00117749,0.0,0.0,-0.08
20736000,0.00714313,3.60595,0.00110893,0.0,0.0,-0.08
20768000,0.00644037,3.60708,0.00100022,0.0,0.0,-0.08
20796000,0.00545098,3.60615,0.000846295,0.0,0.0,-0.08
20824000,0.00501632,3.60551,0.000778642,0.0,0.0,-0.08
20860000,0.00427884,3.60541,0.000664149,0.0,0.0,-0.08
20888000,0.00402406,3.60421,0.000624346,0.0,0.0,-0.08
20924000,0.0033985,3.60383,0.000527222,0.0,0.0,-0.08
20960000,0.00217667,3.60343,0.000337629,0.0,0.0,-0.08
20984000,0.00296065,3.60347,0.000459239,0.0,0.0,-0.08
21020000,0.00342712,3.60288,0.00053149,0.0,0.0,-0.08
21052000,0.00400215,3.60347,0.000620793,0.0,0.0,-0.08
21084000,0.00417668,3.60457,0.000648104,0.0,0.0,-0.08
21116000,0.00403001,3.60465,0.000625364,0.0,0.0,-0.08
21152000,0.00382499,3.60379,0.000593376,0.0,0.0,-0.08
21184000,0.00453345,3.60313,0.000703122,0.0,0.0,-0.08
21208000,0.00416638,3.60368,0.000646315,0.0,0.0,-0.08
21248000,0.00326556,3.60433,0.000506683,0.0,0.0,-0.08
21280000,0.00309254,3.60525,0.000479985,0.0,0.0,-0.08
21304000,0.00279071,3.60569,0.000433203,0.0,0.0,-0.08
21344000,0.00211614,3.60672,0.000328607,0.0,0.0,-0.08
21376000,0.00224091,3.60818,0.000348152,0.0,0.0,-0.08
21404000,0.00206257,3.60865,0.000320497,0.0,0.0,-0.08
21436000,0.00276495,3.60865,0.000429638,0.0,0.0,-0.08
21464000,0.00291965,3.60958,0.000453817,0.0,0.0,-0.08
21496000,0.00340699,3.6081,0.000529303,0.0,0.0,-0.08
21532000,0.00303641,3.60773,0.000471672,0.0,0.0,-0.08
21564000,0.00315301,3.60783,0.000489798,0.0,0.0,-0.08
21596000,0.00359377,3.60776,0.00055826,0.0,0.0,-0.08
21628000,0.00268113,3.60821,0.000416551,0.0,0.0,-0.08
21656000,0.00249953,3.60815,0.000388327,0.0,0.0,-0.08
21692000,0.00191538,3.6084,0.000297599,0.0,0.0,-0.08
21728000,0.0016555,3.60743,0.000257136,0.0,0.0,-0.08
21760000,0.000711452,3.60729,0.0001105,0.0,0.0,-0.08
21788000,0.00120523,3.60644,0.000187136,0.0,0.0,-0.08
21820000,0.00104239,3.60605,0.000161832,0.0,0.0,-0.08
21852000,0.00188099,3.6062,0.000292041,0.0,0.0,-0.08
21884000,0.00207128,3.60607,0.000321569,0.0,0.0,-0.08
21920000,0.00198412,3.60595,0.000308027,0.0,0.0,-0.08
21952000,0.000995345,3.60511,0.000154478,0.0,0.0,-0.08
21980000,0.000801318,3.60599,0.000124403,0.0,0.0,-0.08
22012000,0.000569524,3.6062,8.84249e-05,0.0,0.0,-0.08
22044000,0.00102379,3.60533,0.000158901,0.0,0.0,-0.08
22076000,0.000141526,3.60613,2.19704e-05,0.0,0.0,-0.08
22112000,0.000525418,3.60591,8.15685e-05,0.0,0.0,-0.08
22140000,0.00124699,3.60518,0.000193538,0.0,0.0,-0.08
22172000,0.000899486,3.60572,0.00013963,0.0,0.0,-0.08
22204000,0.00146498,3.60586,0.000227425,0.0,0.0,-0.08
22236000,0.00157036,3.60601,0.000243796,0.0,0.0,-0.08
22268000,0.00109842,3.60613,0.000170534,0.0,0.0,-0.08
22300000,0.00111304,3.60672,0.00017284,0.0,0.0,-0.08
22336000,0.00205916,3.60716,0.000319805,0.0,0.0,-0.08
22364000,0.000968619,3.60758,0.000150457,0.0,0.0,-0.08
22396000,0.000732628,3.60708,0.000113779,0.0,0.0,-0.08
22428000,0.000161387,3.606,2.50549e-05,0.0,0.0,-0.08
22460000,0.000102331,3.60539,1.58837e-05,0.0,0.0,-0.08
22492000,-0.000709397,3.60508,-0.000110098,0.0,0.0,-0.08
22524000,-0.000558701,3.60501,-8.67066e-05,0.0,0.0,-0.08
22560000,-0.000392877,3.60571,-6.09867e-05,0.0,0.0,-0.08
22588000,-0.000723843,3.60617,-0.00011238,0.0,0.0,-0.08
22620000,-0.000413382,3.60593,-6.41746e-05,0.0,0.0,-0.08
22656000,-0.000519925,3.60704,-8.07429e-05,0.0,0.0,-0.08
22688000,-0.000879665,3.60823,-0.000136673,0.0,0.0,-0.08
22720000,-0.000648719,3.60767,-0.000100767,0.0,0.0,-0.08
22744000,-0.000308249,3.60748,-4.78774e-05,0.0,0.0,-0.08
22784000,-0.00109285,3.60864,-0.000169817,0.0,0.0,-0.08
22816000,-0.00177317,3.60834,-0.000275499,0.0,0.0,-0.08
22844000,-0.00128345,3.60996,-0.00019952,0.0,0.0,-0.08
22876000,-0.00218807,3.61024,-0.00034018,0.0,0.0,-0.08
22904000,-0.0014425,3.61051,-0.000224283,0.0,0.0,-0.08
22944000,0.000276764,3.61134,4.30411e-05,0.0,0.0,-0.08
22972000,0.000347136,3.61077,5.39795e-05,0.0,0.0,-0.08
23004000,3.91924e-06,3.61044,6.09085e-07,0.0,0.0,-0.08
23036000,-0.00160383,3.61005,-0.000249336,0.0,0.0,-0.08
23068000,-0.00113786,3.60969,-0.000176872,0.0,0.0,-0.08
23100000,-0.00124226,3.60986,-0.000193113,0.0,0.0,-0.08
23136000,-0.000811552,3.60953,-0.000126145,0.0,0.0,-0.08
23164000,-0.000627652,3.60989,-9.75681e-05,0.0,0.0,-0.08
23196000,-0.000518187,3.60983,-8.05501e-05,0.0,0.0,-0.08
23224000,-0.00170901,3.61026,-0.000265706,0.0,0.0,-0.08
23260000,-0.00203132,3.61056,-0.000315844,0.0,0.0,-0.08
23292000,-0.00230151,3.61061,-0.000357863,0.0,0.0,-0.08
23328000,-0.00207571,3.61097,-0.00032279,0.0,0.0,-0.08
23352000,-0.00254114,3.61103,-0.000395176,0.0,0.0,-0.08
23388000,-0.00253872,3.60954,-0.000394598,0.0,0.0,-0.08
23420000,-0.00120116,3.60883,-0.000186659,0.0,0.0,-0.08
23452000,-0.00158612,3.60871,-0.000246461,0.0,0.0,-0.08
23488000,-0.00165032,3.60832,-0.000256408,0.0,0.0,-0.08
23516000,-0.00157725,3.60833,-0.000245056,0.0,0.0,-0.08
23548000,-0.00263297,3.60773,-0.000408998,0.0,0.0,-0.08
23580000,-0.00258817,3.60759,-0.000402024,0.0,0.0,-0.08
23612000,-0.00253884,3.60781,-0.000394385,0.0,0.0,-0.08
23648000,-0.00317028,3.60843,-0.000492585,0.0,0.0,-0.08
23676000,-0.00382101,3.60742,-0.000593486,0.0,0.0,-0.08
23708000,-0.00376135,3.60719,-0.000584174,0.0,0.0,-0.08
23740000,-0.0047354,3.60599,-0.000735154,0.0,0.0,-0.08
23772000,-0.00473756,3.60504,-0.000735255,0.0,0.0,-0.08
23804000,-0.00390445,3.607,-0.000606366,0.0,0.0,-0.08
23840000,-0.00242732,3.60773,-0.000377057,0.0,0.0,-0.08
23868000,-0.00199168,3.60828,-0.00030944,0.0,0.0,-0.08
23900000,-0.0022258,3.60905,-0.00034591,0.0,0.0,-0.08
23932000,-0.00224442,3.6078,-0.000348651,0.0,0.0,-0.08
23964000,-0.00220332,3.60682,-0.000342155,0.0,0.0,-0.08
24000000,-0.0029033,3.60703,-0.000450888,0.0,0.0,-0.08
24032000,-0.00281181,3.6074,-0.000436731,0.0,0.0,-0.08
24064000,-0.00251518,3.60757,-0.000390683,0.0,0.0,-0.08
24096000,-0.00220617,3.60715,-0.000342635,0.0,0.0,-0.08
24124000,-0.00169611,3.60703,-0.000263404,0.0,0.0,-0.08
24156000,-0.0013686,3.60756,-0.000212587,0.0,0.0,-0.08
24192000,-0.00160942,3.60742,-0.000249976,0.0,0.0,-0.08
24220000,-0.00178744,3.60679,-0.000277567,0.0,0.0,-0.08
24256000,-0.00191059,3.60666,-0.000296683,0.0,0.0,-0.08
24284000,-0.00217498,3.60603,-0.000337665,0.0,0.0,-0.08
24320000,-0.00207413,3.60467,-0.000321857,0.0,0.0,-0.08
24348000,-0.00216379,3.60496,-0.000335807,0.0,0.0,-0.08
24380000,-0.00180109,3.60451,-0.000279472,0.0,0.0,-0.08
24412000,-0.00121745,3.60421,-0.000188895,0.0,0.0,-0.08
24440000,-0.000970108,3.60399,-0.0001505,0.0,0.0,-0.08
24472000,-0.000747202,3.6036,-0.000115902,0.0,0.0,-0.08
24512000,-0.000316163,3.60324,-4.90341e-05,0.0,0.0,-0.08
24540000,-0.000261521,3.60315,-4.05516e-05,0.0,0.0,-0.08
24572000,-0.00135152,3.60308,-0.000209606,0.0,0.0,-0.08
24604000,-0.00154203,3.60239,-0.000239102,0.0,0.0,-0.08
24636000,-0.00189886,3.60266,-0.000294456,0.0,0.0,-0.08
24668000,-0.00108734,3.60228,-0.000168594,0.0,0.0,-0.08
24700000,-0.000370901,3.60318,-5.7525e-05,0.0,0.0,-0.08
24732000,-0.000652177,3.60306,-0.000101144,0.0,0.0,-0.08
24764000,-0.00182491,3.60372,-0.000283096,0.0,0.0,-0.08
24796000,-0.0016389,3.60361,-0.000254226,0.0,0.0,-0.08
24828000,-0.000981013,3.604,-0.000152196,0.0,0.0,-0.08
24860000,-0.000849201,3.60464,-0.000131775,0.0,0.0,-0.08
24892000,-0.000786279,3.6037,-0.000121965,0.0,0.0,-0.08
24924000,-0.00139439,3.60364,-0.000216303,0.0,0.0,-0.08
24960000,-0.000862145,3.60441,-0.000133775,0.0,0.0,-0.08
24988000,-6.16789e-05,3.60521,-9.56934e-06,0.0,0.0,-0.08
25020000,-0.000307972,3.60673,-4.78271e-05,0.0,0.0,-0.08
25052000,0.000219034,3.60706,3.40138e-05,0.0,0.0,-0.08
25084000,0.00105479,3.60808,0.000163869,0.0,0.0,-0.08
25120000,0.000754696,3.60793,0.000117238,0.0,0.0,-0.08
25148000,0.00139557,3.60747,0.000216767,0.0,0.0,-0.08
25184000,0.00168148,3.60725,0.000261158,0.0,0.0,-0.08
25216000,0.000929845,3.60846,0.000144476,0.0,0.0,-0.08
25244000,0.000862149,3.60816,0.000133946,0.0,0.0,-0.08
25276000,0.000727899,3.60786,0.000113072,0.0,0.0,-0.08
25312000,6.87232e-05,3.60899,1.06813e-05,0.0,0.0,-0.08
25336000,-0.000876739,3.60958,-0.000136287,0.0,0.0,-0.08
25372000,-0.000563259,3.60997,-8.75629e-05,0.0,0.0,-0.08
25404000,-0.000779595,3.61025,-0.000121205,0.0,0.0,-0.08
25436000,-0.000407645,3.60981,-6.33672e-05,0.0,0.0,-0.08
25468000,-0.00132924,3.60958,-0.000206614,0.0,0.0,-0.08
25504000,-0.000681017,3.61003,-0.000105872,0.0,0.0,-0.08
25532000,-0.00111382,3.60971,-0.000173137,0.0,0.0,-0.08
25568000,-0.000676611,3.60902,-0.000105148,0.0,0.0,-0.08
25596000,-0.00103335,3.60955,-0.00016062,0.0,0.0,-0.08
25624000,-0.00139021,3.61022,-0.000216139,0.0,0.0,-0.08
25664000,-0.000958637,3.61009,-0.00014903,0.0,0.0,-0.08
25692000,0.000322221,3.61085,5.0107e-05,0.0,0.0,-0.08
25728000,0.000489466,3.61045,-0.000158052,0.0,0.0,-0.08
25756000,0.00125372,3.61141,-0.000131635,0.0,0.0,-0.08
25784000,0.000948069,3.61225,-0.000152159,0.0,0.0,-0.08
25820000,0.00153,3.61066,-1.55708e-05,0.0,0.0,-0.08
25852000,0.00321562,3.61174,-0.000107652,0.0,0.0,-0.08
25884000,0.00296946,3.61132,-0.000291967,0.0,0.0,-0.08
25920000,0.00390824,3.61115,-0.00074338,0.0,0.0,-0.08
25952000,0.00467146,3.61218,-0.000704566,0.0,0.0,-0.08
25980000,0.00471671,3.61217,-0.000821751,0.0,0.0,-0.08
26012000,0.00503539,3.61235,-0.00117945,0.0,0.0,-0.08
26044000,0.006062,3.61249,-0.00147485,0.0,0.0,-0.08
26076000,0.00664796,3.61254,-0.00160118,0.0,0.0,-0.08
26104000,0.00626105,3.61177,-0.00180646,0.0,0.0,-0.08
26144000,0.00635222,3.61112,-0.00188603,0.0,0.0,-0.08
26172000,0.00631334,3.61139,-0.00214605,0.0,0.0,-0.08
26208000,0.00717244,3.61213,-0.00217212,0.0,0.0,-0.08
26240000,0.00737542,3.61211,-0.00241105,0.0,0.0,-0.08
26264000,0.00669537,3.61146,-0.00222185,0.0,0.0,-0.08
26304000,0.00534255,3.61217,-0.00173112,0.0,0.0,-0.08
26332000,0.00453039,3.61075,-0.00141811,0.0,0.0,-0.08
26360000,0.00522488,3.61008,-0.00116136,0.0,0.0,-0.08
26400000,0.00386231,3.60994,-0.0006889,0.0,0.0,-0.08
26432000,0.0040841,3.61089,-0.000861092,0.0,0.0,-0.08
26460000,0.00426676,3.6103,-0.00106668,0.0,0.0,-0.08
26496000,0.00347551,3.60993,-0.000914069,0.0,0.0,-0.08
26524000,0.00343225,3.60919,-0.000283976,0.0,0.0,-0.08
26556000,0.00388352,3.60826,-0.000398219,0.0,0.0,-0.08
26584000,0.00407671,3.60745,-6.76587e-05,0.0,0.0,-0.08
26620000,0.00396168,3.60659,3.71151e-05,0.0,0.0,-0.08
26652000,0.00383982,3.60512,0.000190345,0.0,0.0,-0.08
26684000,0.00473402,3.60431,-0.000169027,0.0,0.0,-0.08
26716000,0.0051167,3.60433,-0.000742871,0.0,0.0,-0.08
26748000,0.00621553,3.60503,-0.00141104,0.0,0.0,-0.08
26780000,0.00723036,3.60458,-0.00177126,0.0,0.0,-0.08
26812000,0.00762861,3.60426,-0.00198348,0.0,0.0,-0.08
26844000,0.00812343,3.60424,-0.00241282,0.0,0.0,-0.08
26876000,0.00804524,3.60467,-0.0020372,0.0,0.0,-0.08
26908000,0.00768345,3.60506,-0.00199123,0.0,0.0,-0.08
26940000,0.00690252,3.60439,-0.00222035,0.0,0.0,-0.08
26972000,0.00701502,3.60467,-0.00231436,0.0,0.0,-0.08
27008000,0.00819892,3.60545,-0.00233592,0.0,0.0,-0.08
27040000,0.00725441,3.60583,-0.00218353,0.0,0.0,-0.08
27072000,0.006948,3.60503,-0.00255032,0.0,0.0,-0.08
27096000,0.00720076,3.60547,-0.0024405,0.0,0.0,-0.08
27136000,0.00793672,3.6046,-0.0031229,0.0,0.0,-0.08
27168000,0.0072209,3.60509,-0.00275139,0.0,0.0,-0.08
27196000,0.00782144,3.60548,-0.00304847,0.0,0.0,-0.08
27232000,0.00826011,3.60579,-0.00342173,0.0,0.0,-0.08
27264000,0.00884815,3.60523,-0.00330718,0.0,0.0,-0.08
27288000,0.00967079,3.6059,-0.00381659,0.0,0.0,-0.08
27324000,0.00990985,3.60636,-0.004344,0.0,0.0,-0.08
27356000,0.00938036,3.60646,-0.00410609,0.0,0.0,-0.08
27392000,0.00849934,3.60602,-0.00385707,0.0,0.0,-0.08
27420000,0.00831275,3.60672,-0.00392299,0.0,0.0,-0.08
27456000,0.00834433,3.60714,-0.00367403,0.0,0.0,-0.08
27484000,0.0088595,3.60664,-0.00373378,0.0,0.0,-0.08
27520000,0.0079432,3.60715,-0.00365668,0.0,0.0,-0.08
27548000,0.00817659,3.60709,-0.00370313,0.0,0.0,-0.08
27580000,0.00854515,3.60735,-0.00409484,0.0,0.0,-0.08
27616000,0.00773804,3.60667,-0.0040712,0.0,0.0,-0.08
27644000,0.0080073,3.60758,-0.00387356,0.0,0.0,-0.08
27672000,0.00687935,3.60738,-0.00435162,0.0,0.0,-0.08
27712000,0.00701095,3.60769,-0.00388037,0.0,0.0,-0.08
27740000,0.00661188,3.60752,-0.00334803,0.0,0.0,-0.08
27772000,0.00660989,3.60721,-0.00349739,0.0,0.0,-0.08
27808000,0.00694093,3.60699,-0.00369472,0.0,0.0,-0.08
27840000,0.00655625,3.60633,-0.00365271,0.0,0.0,-0.08
27868000,0.0071433,3.60616,-0.0033568,0.0,0.0,-0.08
27900000,0.00699029,3.60638,-0.00338256,0.0,0.0,-0.08
27932000,0.00759776,3.60709,-0.00323595,0.0,0.0,-0.08
27964000,0.00837207,3.60685,-0.00355005,0.0,0.0,-0.08
27996000,0.00846932,3.60678,-0.00347221,0.0,0.0,-0.08
28032000,0.00873768,3.6074,-0.00354527,0.0,0.0,-0.08
28060000,0.00933264,3.60829,-0.00336309,0.0,0.0,-0.08
28092000,0.00971289,3.60774,-0.00342806,0.0,0.0,-0.08
28124000,0.00908526,3.60773,-0.00352163,0.0,0.0,-0.08
28160000,0.00799972,3.60765,-0.00332133,0.0,0.0,-0.08
28192000,0.00784345,3.60738,-0.00312585,0.0,0.0,-0.08
28220000,0.00706981,3.60658,-0.00321104,0.0,0.0,-0.08
28252000,0.00847943,3.60771,-0.00362308,0.0,0.0,-0.08
28288000,0.00793017,3.6077,-0.00343913,0.0,0.0,-0.08
28320000,0.00733478,3.60756,-0.00325622,0.0,0.0,-0.08
28348000,0.00762602,3.6077,-0.00328506,0.0,0.0,-0.08
28384000,0.00604384,3.60731,-0.00293185,0.0,0.0,-0.08
28412000,0.0062236,3.60695,-0.00302965,0.0,0.0,-0.08
28440000,0.00590252,3.60673,-0.00287484,0.0,0.0,-0.08
28476000,0.00580124,3.60716,-0.00276757,0.0,0.0,-0.08
28508000,0.00682528,3.6081,-0.00283529,0.0,0.0,-0.08
28540000,0.00674986,3.60826,-0.00305132,0.0,0.0,-0.08
28568000,0.00667006,3.60896,-0.00329097,0.0,0.0,-0.08
28608000,0.007402,3.60864,-0.00350211,0.0,0.0,-0.08
28636000,0.0067818,3.60911,-0.00362076,0.0,0.0,-0.08
28668000,0.00679843,3.60855,-0.00338531,0.0,0.0,-0.08
28700000,0.00632448,3.6092,-0.0030571,0.0,0.0,-0.08
28732000,0.00689988,3.60852,-0.00338347,0.0,0.0,-0.08
28768000,0.00742736,3.60906,-0.0033163,0.0,0.0,-0.08
28800000,0.0074801,3.60858,-0.00318893,0.0,0.0,-0.08
28832000,0.00621623,3.60803,-0.00294462,0.0,0.0,-0.08
28860000,0.00640469,3.60821,-0.00325123,0.0,0.0,-0.08
28892000,0.00651096,3.60772,-0.00315835,0.0,0.0,-0.08
28928000,0.0055504,3.60884,-0.00347827,0.0,0.0,-0.08
28960000,0.00577565,3.60908,-0.00327719,0.0,0.0,-0.08
28984000,0.00577614,3.60941,-0.0033189,0.0,0.0,-0.08
29020000,0.00524969,3.6091,-0.003305,0.0,0.0,-0.08
29052000,0.00545199,3.60939,-0.00356722,0.0,0.0,-0.08
29084000,0.00553506,3.6099,-0.00314285,0.0,0.0,-0.08
29120000,0.00502657,3.61121,-0.00297655,0.0,0.0,-0.08
29148000,0.00550328,3.61085,-0.00319475,0.0,0.0,-0.08
29180000,0.00605462,3.6117,-0.0029685,0.0,0.0,-0.08
29212000,0.00616133,3.61346,-0.00320815,0.0,0.0,-0.08
29244000,0.00614824,3.6113,-0.0031679,0.0,0.0,-0.08
29280000,0.00582298,3.61105,-0.00321575,0.0,0.0,-0.08
29308000,0.00584657,3.61012,-0.00306889,0.0,0.0,-0.08
29340000,0.00490109,3.61106,-0.00247376,0.0,0.0,-0.08
29372000,0.00543437,3.61061,-0.00250536,0.0,0.0,-0.08
29404000,0.00564274,3.61027,-0.00235782,0.0,0.0,-0.08
29440000,0.00569585,3.61016,-0.00274934,0.0,0.0,-0.08
29464000,0.00597156,3.61043,-0.00211646,0.0,0.0,-0.08
29500000,0.00578075,3.61022,-0.00178896,0.0,0.0,-0.08
29536000,0.00499736,3.61029,-0.00161115,0.0,0.0,-0.08
29560000,0.00498486,3.61062,-0.0015424,0.0,0.0,-0.08
29596000,0.00570616,3.6107,-0.00234568,0.0,0.0,-0.08
29628000,0.00608624,3.61064,-0.0022436,0.0,0.0,-0.08
29660000,0.00566449,3.61134,-0.00193623,0.0,0.0,-0.08
29692000,0.00568194,3.61182,-0.00198535,0.0,0.0,-0.08
29724000,0.00321226,0.00378769,-8.98344e-05,0.0,0.0,-0.0
29756000,0.00219899,0.00313437,0.000104335,0.0,0.0,-0.0
29788000,0.00226356,0.00414366,1.27181e-05,0.0,0.0,-0.0
29820000,0.00226481,0.0038546,0.000299499,0.0,0.0,-0.0
29852000,0.00227247,0.00388155,5.91315e-05,0.0,0.0,-0.0
29884000,0.00207858,0.00390401,-3.82969e-05,0.0,0.0,-0.0
29916000,0.00261896,0.00357393,-1.93315e-05,0.0,0.0,-0.0
29948000,0.00198114,0.00402234,5.00679e-05,0.0,0.0,-0.0
29980000,0.00225185,0.00301576,0.000168719,0.0,0.0,-0.0
30012000,0.00204642,0.00257461,-1.91443e-05,0.0,0.0,-0.0
30044000,0.00144803,0.00197535,0.000102801,0.0,0.0,-0.0
30072000,0.000507133,0.00282434,0.000202077,0.0,0.0,-0.0
30108000,0.00085281,0.00303842,2.36845e-05,0.0,0.0,-0.0
30140000,0.00128539,0.00295265,0.000324704,0.0,0.0,-0.0
30172000,0.00219687,0.00269111,0.000229597,0.0,0.0,-0.0
30208000,0.00209627,0.00361164,-3.86909e-05,0.0,0.0,-0.0
30236000,0.00205004,0.00438516,-0.000105643,0.0,0.0,-0.0
30268000,0.00189755,0.00385756,0.000179281,0.0,0.0,-0.0
30300000,0.000679874,0.0030499,7.11763e-05,0.0,0.0,-0.0
30332000,-0.000459013,0.00238103,6.1227e-05,0.0,0.0,-0.0
30364000,0.000144563,0.00260096,5.49126e-05,0.0,0.0,-0.0
30396000,0.000230996,0.00229844,5.14928e-06,0.0,0.0,-0.0
30432000,-0.000585817,0.0018303,-5.30016e-05,0.0,0.0,-0.0
30464000,-0.00100097,0.00154005,-5.86733e-08,0.0,0.0,-0.0
30492000,-0.000246238,0.00236614,5.26663e-05,0.0,0.0,-0.0
30524000,0.000702743,0.0036077,6.89551e-06,0.0,0.0,-0.0
30556000,0.000489367,0.00305818,0.000262999,0.0,0.0,-0.0
30584000,0.00113532,0.00310148,0.000113536,0.0,0.0,-0.0
30624000,0.00106192,0.00285706,0.000147854,0.0,0.0,-0.0
30652000,0.00218825,0.00262485,-0.000104746,0.0,0.0,-0.0
30688000,0.00175631,0.00343016,2.34693e-07,0.0,0.0,-0.0
30720000,0.00167966,0.00346533,-1.50874e-06,0.0,0.0,-0.0
30744000,0.00158011,0.00266969,-1.02147e-05,0.0,0.0,-0.0
30784000,0.0017478,0.00287022,1.95578e-07,0.0,0.0,-0.0
30812000,0.00247146,0.00265291,-3.4282e-06,0.0,0.0,-0.0
30844000,0.00262715,0.00363358,0.000494574,0.0,0.0,-0.0
30880000,0.002173,0.00449987,3.77186e-07,0.0,0.0,-0.0
30908000,0.00319606,0.00471025,6.75609e-05,0.0,0.0,-0.0
30940000,0.00371874,0.00447789,-2.83336e-05,0.0,0.0,-0.0
30972000,0.00316669,0.00411553,4.24124e-05,0.0,0.0,-0.0
31004000,0.00329049,0.00566417,-1.00918e-05,0.0,0.0,-0.0
31036000,0.00334923,0.00524096,9.6445e-05,0.0,0.0,-0.0
31068000,0.00267812,0.00641505,1.54842e-05,0.0,0.0,-0.0
31096000,0.00348965,0.00590076,-5.30295e-06,0.0,0.0,-0.0
31132000,0.00299057,0.00600716,-0.000175377,0.0,0.0,-0.0
31168000,0.00336067,0.00625944,1.84039e-05,0.0,0.0,-0.0
31196000,0.00311651,0.00643818,5.43902e-05,0.0,0.0,-0.0
31228000,0.00336987,0.00636726,0.000165389,0.0,0.0,-0.0
31260000,0.00236288,0.0060681,-4.11244e-05,0.0,0.0,-0.0
31288000,0.00165874,0.00600561,0.000109448,0.0,0.0,-0.0
31328000,0.000259393,0.00600841,6.14673e-08,0.0,0.0,-0.0
31356000,0.000424936,0.00541583,2.65986e-05,0.0,0.0,-0.0
31388000,-0.000344269,0.00609613,0.000157493,0.0,0.0,-0.0
31424000,-0.000353871,0.0069207,0.000334268,0.0,0.0,-0.0
31452000,-0.00046424,0.00772584,-1.23661e-05,0.0,0.0,-0.0
31480000,-0.000786198,0.0074884,-8.39364e-05,0.0,0.0,-0.0
31516000,2.56624e-05,0.0066446,0.000223822,0.0,0.0,-0.0
31548000,-0.0012453,0.00695436,-1.4998e-05,0.0,0.0,-0.0
31580000,-0.00230868,0.00785403,9.09185e-05,0.0,0.0,-0.0
31608000,-0.000460716,0.00744103,0.000290936,0.0,0.0,-0.0
31644000,9.87464e-06,0.00880487,9.4858e-05,0.0,0.0,-0.0
31680000,-0.000492466,0.00776273,0.000316028,0.0,0.0,-0.0
31712000,-0.00126675,0.00811428,5.70975e-05,0.0,0.0,-0.0
31740000,-0.00220763,0.00690433,-5.66058e-05,0.0,0.0,-0.0
31768000,-0.00232147,0.00745067,1.54367e-05,0.0,0.0,-0.0
31800000,-0.00197375,0.00734135,-0.000145468,0.0,0.0,-0.0
31840000,-0.00130594,0.00738239,-8.84486e-05,0.0,0.0,-0.0
31868000,-0.0022005,0.00749079,-6.93351e-05,0.0,0.0,-0.0
31904000,-0.000669158,0.00811667,-2.06754e-07,0.0,0.0,-0.0
31932000,-0.000831498,0.00840264,-0.000159267,0.0,0.0,-0.0
31964000,-0.000115898,0.00804564,-5.8162e-05,0.0,0.0,-0.0
31996000,-0.00213261,1.26141,2.96468e-05,0.0,0.0,-0.522969
32028000,-0.00220703,1.1641,3.71234e-05,0.0,0.0,-0.540988
32060000,-0.00215541,0.996272,-5.00958e-06,0.0,0.0,-0.54239
32092000,-0.00280516,0.803691,-0.000112133,0.0,0.0,-0.544418
32124000,-0.0016288,0.623531,-2.38884e-05,0.0,0.0,-0.560034
32156000,-0.000695079,0.477492,2.59588e-05,0.0,0.0,-0.562205
32192000,-0.000632671,0.35377,-0.000185327,0.0,0.0,-0.564941
32216000,1.19791e-07,0.274285,6.86618e-05,0.0,0.0,-0.574893
32252000,-0.00168507,0.206594,-4.94057e-05,0.0,0.0,-0.575761
32280000,-0.00258478,0.160295,6.97765e-05,0.0,0.0,-0.584072
32316000,-0.0022055,0.122339,-9.07369e-05,0.0,0.0,-0.61077
32348000,-0.00138725,0.0878914,-0.000162265,0.0,0.0,-0.616997
32380000,-0.00156885,0.0706393,0.000308119,0.0,0.0,-0.6231
32416000,-0.00156721,0.0516951,4.17139e-06,0.0,0.0,-0.636168
32444000,-0.000726756,0.0377364,0.000121758,0.0,0.0,-0.642179
32476000,-0.000978692,0.0309845,0.000181183,0.0,0.0,-0.646196
32512000,-0.000294339,0.0248444,3.98699e-06,0.0,0.0,-0.651131
32540000,-0.000770205,0.0189727,9.44808e-05,0.0,0.0,-0.651961
32572000,-0.0045434,3.41745,0.0022318,0.0,0.0,-0.87081
32604000,-0.00427029,3.00865,0.00211328,0.0,0.0,-0.769134
32640000,-0.00173512,2.47512,0.00160677,0.0,0.0,-0.630591
32668000,-0.000972238,2.05972,0.00122419,0.0,0.0,-0.566951
32700000,-0.0016973,1.58787,0.00141301,0.0,0.0,-0.543077
32736000,-0.00207754,1.18924,0.00157343,0.0,0.0,-0.557237
32764000,-0.00125042,0.920565,0.00130552,0.0,0.0,-0.572319
32792000,-0.00309675,0.702795,0.00124037,0.0,0.0,-0.599797
32828000,-0.0034828,0.530845,0.000798902,0.0,0.0,-0.618212
32860000,-0.00262513,0.400936,0.000672581,0.0,0.0,-0.631121
32892000,-0.00421935,0.293557,0.000242743,0.0,0.0,-0.651034
32924000,-0.00302977,0.213874,-4.52343e-05,0.0,0.0,-0.458354
32956000,-0.00450571,0.157194,7.18608e-05,0.0,0.0,-0.471052
32988000,-0.00191908,0.123329,-0.000464869,0.0,0.0,-0.261907
33020000,-0.000453689,0.0891362,-0.000828425,0.0,0.0,-0.262919
33052000,-0.00100683,0.0742714,-0.000838668,0.0,0.0,-0.381887
33088000,-0.0011003,0.0559462,-0.000921015,0.0,0.0,-0.561262
33116000,0.0015828,0.0472387,-0.00122318,0.0,0.0,-0.51484
33148000,0.00117606,0.039804,-0.000899054,0.0,0.0,-0.55561
33180000,0.00085249,0.0350007,-0.000672106,0.0,0.0,-0.539923
33212000,0.000762732,0.0316583,-0.000287262,0.0,0.0,-0.435689
33240000,-0.00228549,0.0282769,-8.65543e-05,0.0,0.0,-0.483544
33276000,-0.00377008,0.0256863,0.000355921,0.0,0.0,-0.579781
33312000,-0.00705279,0.0238856,0.000387509,0.0,0.0,-0.621561
33344000,-0.00497525,0.0217112,0.000528513,0.0,0.0,-0.641846
33368000,-0.00646946,0.020359,0.00109556,0.0,0.0,-0.650891
33404000,-0.00706131,0.020383,0.000605338,0.0,0.0,-0.603297
33436000,-0.00397797,0.0203898,0.000390725,0.0,0.0,-0.617602
33468000,-0.0034943,-0.0485162,0.000525453,0.0,0.0,-0.614822
33496000,0.000629649,-0.602339,-1.03433e-05,0.0,0.0,-0.589954
33536000,0.00380768,-1.02296,-0.000218159,0.0,0.0,-0.58753
33568000,0.00500457,-1.45001,-0.001498,0.0,0.0,-0.580083
33596000,0.0089065,-1.90719,-0.0016644,0.0,0.0,-0.658776
33628000,0.00734276,-1.89078,-0.00152485,0.0,0.0,-0.651
33664000,0.00095877,-1.98028,-0.00252791,0.0,0.0,-0.621874
33696000,-0.0037104,-2.01445,-0.00274795,0.0,0.0,-0.738704
33724000,-0.0529855,-1.98372,0.0837617,0.0,0.0,-0.845953
33756000,-0.0693262,-1.96395,0.139185,0.0,0.0,-0.983405
33788000,-0.0413754,-2.13323,0.144026,0.0,0.0,-1.0
33824000,-0.0271379,-1.68366,0.146083,0.0,0.0,-1.0
33852000,-0.0755187,-1.13553,0.147135,0.0,0.0,-0.85863
33888000,-0.103164,-0.758395,0.147759,0.0,0.0,-0.707943
33920000,-0.164331,-0.250695,0.212422,0.0,0.0,-0.593057
33948000,-0.190312,0.0201764,0.213657,0.0,0.0,-0.555672
33980000,-0.232745,0.254432,0.216969,0.0,0.0,-0.528892
34012000,-0.264422,0.364073,0.217834,0.0,0.0,-0.517348
34040000,-0.312062,0.420514,0.22331,0.0,0.0,-0.508965
34080000,-0.319851,0.384031,0.222066,0.0,0.0,-0.508498
34108000,-0.318926,0.316025,0.219354,0.0,0.0,-0.510072
34140000,-0.335033,0.205957,0.218382,0.0,0.0,-0.512184
34168000,-0.338318,0.114158,0.2172,0.0,0.0,-0.513807
34204000,-0.309779,0.0298002,0.148363,0.0,0.0,-0.515838
34236000,-0.322031,-0.0535271,0.148627,0.0,0.0,-0.519026
34268000,-0.282,-0.131264,0.142625,0.0,0.0,-0.520054
34300000,-0.270635,-0.18498,0.13661,0.0,0.0,-0.521944
34336000,-0.266928,-0.234999,0.139701,0.0,0.0,-0.523613
34360000,-0.24954,-0.232006,0.137119,0.0,0.0,-0.523581
34400000,-0.256344,-0.233789,0.136127,0.0,0.0,-0.525812
34428000,-0.244587,-0.220979,0.136576,0.0,0.0,-0.52591
34460000,-0.202584,-0.212204,0.13677,0.0,0.0,-0.52542
34492000,-0.207385,-0.15969,-0.0177101,0.0,0.0,-0.502754
34528000,-1.07105,0.585893,0.042422,0.0,0.0,-0.244116
34556000,-1.95661,1.53428,0.214355,0.0,0.0,-0.163137
34588000,-1.92303,1.6978,0.273742,0.0,0.0,-0.154993
34620000,0.292917,-0.191384,-0.0348195,0.0,0.0,-0.386683
34656000,0.508001,-0.189671,-0.0300682,0.0,0.0,-0.302655
34684000,0.309149,0.213602,0.0168728,0.0,0.0,-0.183881
34716000,0.147564,0.560208,0.0597874,0.0,0.0,-0.150798
34748000,1.09766,-0.667943,-0.0757799,0.0,0.0,-0.33832
34780000,1.25344,-0.908945,-0.0971281,0.0,0.0,-0.419676
34812000,1.41627,-1.12967,-0.11231,0.0,0.0,-0.482902
34844000,1.43991,-1.16569,-0.114029,0.0,0.0,-0.50525
34876000,1.29353,-1.05128,-0.112763,0.0,0.0,-0.512631
34908000,1.07201,-0.870205,-0.108877,0.0,0.0,-0.51318
34940000,0.922007,-0.735004,-0.103488,0.0,0.0,-0.509481
34976000,0.646057,-0.495277,-0.0982347,0.0,0.0,-0.494125
35004000,0.461113,-0.34038,-0.0916018,0.0,0.0,-0.493451
35040000,0.263183,-0.173195,-0.0818026,0.0,0.0,-0.493514
35068000,0.128142,-0.0776899,-0.0713355,0.0,0.0,-0.494069
35104000,-0.0233827,0.0241337,-0.0593123,0.0,0.0,-0.493524
35132000,-0.0858438,0.0671074,-0.0484448,0.0,0.0,-0.49296
35164000,-0.126356,0.0993302,-0.0362297,0.0,0.0,-0.492847
35196000,-0.154828,0.112337,-0.0216424,0.0,0.0,-0.493601
35228000,-0.159105,0.125326,-0.00575736,0.0,0.0,-0.493747
35260000,-0.146513,0.131392,0.0055414,0.0,0.0,-0.493641
35292000,-0.128219,0.10676,0.0215866,0.0,0.0,-0.493648
35328000,-0.0996395,0.0946435,0.0377584,0.0,0.0,-0.49384
35352000,-0.0704177,0.0873598,0.0490861,0.0,0.0,-0.493817
35388000,-0.0338406,0.0642348,0.0624306,0.0,0.0,-0.493954
35420000,-0.00645347,0.0527219,0.0747139,0.0,0.0,-0.494323
35452000,0.00583701,0.0402537,0.0867019,0.0,0.0,-0.494516
35484000,0.0190806,0.0152981,0.0963459,0.0,0.0,-0.494695
35516000,0.0236191,0.00826898,0.107451,0.0,0.0,-0.495281
35548000,0.0179334,0.00754742,0.114561,0.0,0.0,-0.495246
35580000,0.027945,-0.00232959,0.121638,0.0,0.0,-0.495211
35616000,0.0205568,-0.00342062,0.129333,0.0,0.0,-0.495101
35644000,0.0174579,0.00364575,0.132535,0.0,0.0,-0.494992
35676000,0.00937561,0.00425608,0.136523,0.0,0.0,-0.494839
35708000,0.00911479,-0.00616774,0.139457,0.0,0.0,-0.494824
35744000,0.00767841,-0.00957008,0.141113,0.0,0.0,-0.495022
35776000,0.00695559,-0.0186212,0.14084,0.0,0.0,-0.495332
35804000,0.00453663,-0.0216008,0.140358,0.0,0.0,-0.49556
35836000,0.00642045,-0.01579,0.139016,0.0,0.0,-0.496015
35868000,0.00463793,-0.018497,0.136073,0.0,0.0,-0.495591
35900000,0.00646798,-0.0298745,0.133686,0.0,0.0,-0.49517
35932000,0.00951927,-0.0296744,0.128969,0.0,0.0,-0.494983
35964000,0.0101802,-0.0239015,0.124346,0.0,0.0,-0.495063
35996000,0.0171278,-0.0358408,0.119081,0.0,0.0,-0.494883
36028000,0.0187786,-0.0415355,0.113047,0.0,0.0,-0.494779
36060000,0.0138229,-0.0292047,0.107662,0.0,0.0,-0.494574
36096000,0.0163845,-0.0326946,0.101914,0.0,0.0,-0.494227
36120000,0.0199111,-0.030775,0.0968341,0.0,0.0,-0.493887
36156000,0.0154956,-0.0118414,0.090314,0.0,0.0,-0.493802
36184000,0.0183429,-0.00472914,0.0851802,0.0,0.0,-0.493873
36220000,0.0173304,0.00840542,0.0786926,0.0,0.0,-0.493788
36256000,0.0156331,0.0354938,0.0713422,0.0,0.0,-0.492789
36284000,0.0159158,0.0428812,0.0658016,0.0,0.0,-0.492408
36320000,0.0152875,0.0398222,0.0575995,0.0,0.0,-0.493133
36348000,0.0222413,0.0388038,0.050695,0.0,0.0,-0.493231
36380000,0.0323657,0.030881,0.0447763,0.0,0.0,-0.493048
36412000,0.0296651,0.0261227,0.0381408,0.0,0.0,-0.492774
36448000,0.0300474,0.0304663,0.0306437,0.0,0.0,-0.492848
36476000,0.0246874,0.0273893,0.026162,0.0,0.0,-0.492734
36512000,0.0227966,0.0292921,0.0198674,0.0,0.0,-0.49183
36544000,0.0193514,0.0363813,0.0145719,0.0,0.0,-0.492035
36572000,0.0159956,0.0385517,0.0108153,0.0,0.0,-0.492696
36604000,0.0146575,0.026722,0.00669833,0.0,0.0,-0.492929
36636000,0.0161888,0.021946,0.00233325,0.0,0.0,-0.49343
36664000,0.0201578,0.0206859,-0.00191988,0.0,0.0,-0.493407
36700000,0.0241257,0.00321673,-0.00443007,0.0,0.0,-0.493499
36728000,0.027305,-0.0118586,-0.00642161,0.0,0.0,-0.493418
36764000,0.0225065,-0.0133489,-0.00822182,0.0,0.0,-0.493183
36796000,0.0189616,-0.0173382,-0.00959332,0.0,0.0,-0.493429
36828000,0.014686,-0.00587632,-0.0105305,0.0,0.0,-0.493262
