%timestamp,rollspeed,pitchspeed,yawspeed,q[0],q[1],q[2],q[3],delta_q_reset[0],delta_q_reset[1],delta_q_reset[2],delta_q_reset[3],quat_reset_counter
1952000,0.00152821,-0.00262167,0.00982956,0.999812,2.13429e-05,-7.94013e-05,-0.0193616,0.99981,-1.43984e-06,-2.24649e-07,-0.0194671,1
1980000,-0.00998522,0.0048898,0.013563,0.999811,2.74485e-05,-9.70112e-05,-0.0194179,0.99981,-1.43984e-06,-2.24649e-07,-0.0194671,1
2012000,-0.00389093,0.00516825,-0.00156936,0.999811,4.48396e-05,-0.000146122,-0.0194433,0.99981,-1.43984e-06,-2.24649e-07,-0.0194671,1
2044000,-0.00365445,0.0091719,-0.000769433,0.999811,0.000124141,-8.71423e-05,-0.0194587,0.99981,-1.43984e-06,-2.24649e-07,-0.0194671,1
2076000,0.00455795,-0.00365557,0.0170714,0.99981,0.000221913,-0.000135264,-0.0194676,0.99981,-1.43984e-06,-2.24649e-07,-0.0194671,1
2108000,0.00137024,-0.00900257,0.00954965,0.999813,0.000326406,-0.000274429,-0.0193119,0.99981,-1.43984e-06,-2.24649e-07,-0.0194671,1
2140000,0.00637684,0.0230482,-0.00684897,0.999815,0.00037427,-0.000213559,-0.0192477,0.99981,-1.43984e-06,-2.24649e-07,-0.0194671,1
2176000,0.00347572,-0.00483472,-0.00212791,0.999815,0.00037903,-0.000227559,-0.0192173,0.99981,-1.43984e-06,-2.24649e-07,-0.0194671,1
2204000,0.00579767,-0.000469319,0.0130967,0.999816,0.000308658,-0.000276423,-0.0191784,0.99981,-1.43984e-06,-2.24649e-07,-0.0194671,1
2236000,-0.0072266,0.00656695,0.00714426,0.999817,0.000195892,-0.00022243,-0.0191202,0.99981,-1.43984e-06,-2.24649e-07,-0.0194671,1
2268000,-0.0123868,-0.00636456,-0.00037464,0.999818,0.000164046,-0.00027827,-0.0190555,0.99981,-1.43984e-06,-2.24649e-07,-0.0194671,1
2300000,-0.00351375,-0.00700124,-0.00128391,0.99982,0.000193034,-0.00033222,-0.0189427,0.99981,-1.43984e-06,-2.24649e-07,-0.0194671,1
2332000,-0.00766916,0.00207528,-0.0022415,0.999822,9.03535e-05,-0.000353445,-0.018853,0.99981,-1.43984e-06,-2.24649e-07,-0.0194671,1
2364000,-0.00149827,0.0061186,-0.00201211,0.999821,6.10686e-05,-0.000307401,-0.0188916,0.99981,-1.43984e-06,-2.24649e-07,-0.0194671,1
2400000,-0.0036765,0.0108238,0.00330324,0.999823,1.4178e-05,-0.000276584,-0.0187899,0.99981,-1.43984e-06,-2.24649e-07,-0.0194671,1
2428000,0.0022815,-6.76182e-05,0.00716342,0.999825,1.48852e-05,-0.000285045,-0.0187223,0.99981,-1.43984e-06,-2.24649e-07,-0.0194671,1
2460000,0.00158409,-0.00422532,0.00177929,0.999824,0.000110178,-0.000358951,-0.0187443,0.99981,-1.43984e-06,-2.24649e-07,-0.0194671,1
2492000,0.00477402,-0.0020429,-0.00976062,0.999825,0.00017458,-0.000428235,-0.0187146,0.99981,-1.43984e-06,-2.24649e-07,-0.0194671,1
2528000,0.0121009,0.00702462,-0.00510635,0.999824,0.00020643,-0.000375887,-0.0187721,0.99981,-1.43984e-06,-2.24649e-07,-0.0194671,1
2556000,0.00749832,0.00177226,-0.00416035,0.999823,0.000240522,-0.00035951,-0.0187943,0.99981,-1.43984e-06,-2.24649e-07,-0.0194671,1
2588000,0.00616737,-0.0002614,-0.00696429,0.999823,0.000211272,-0.000279919,-0.0188002,0.99981,-1.43984e-06,-2.24649e-07,-0.0194671,1
2620000,-0.0161825,-0.0056909,0.0107605,0.999823,0.000147783,-0.000350467,-0.0187857,0.99981,-1.43984e-06,-2.24649e-07,-0.0194671,1
2652000,-0.00154122,0.00448805,-0.00579811,0.999824,0.000130056,-0.000412662,-0.0187507,0.99981,-1.43984e-06,-2.24649e-07,-0.0194671,1
2688000,0.000578183,0.00223064,0.00224857,0.999825,7.49292e-05,-0.000424014,-0.0186892,0.99981,-1.43984e-06,-2.24649e-07,-0.0194671,1
2720000,-0.00677125,0.00563789,-0.0124078,0.999827,8.55987e-05,-0.000437219,-0.0185811,0.99981,-1.43984e-06,-2.24649e-07,-0.0194671,1
2748000,0.00787897,0.00449026,0.0103167,0.999828,0.000117833,-0.000411372,-0.0185573,0.99981,-1.43984e-06,-2.24649e-07,-0.0194671,1
2780000,-0.00203652,0.0127788,-0.00608774,0.999827,0.00019864,-0.000440281,-0.0185921,0.99981,-1.43984e-06,-2.24649e-07,-0.0194671,1
2812000,0.00729564,-0.00118971,-0.0109869,0.999826,0.000292478,-0.000468965,-0.0186332,0.99981,-1.43984e-06,-2.24649e-07,-0.0194671,1
2848000,-0.00998806,-0.00428579,0.00578172,0.999826,0.000315964,-0.000494147,-0.018642,0.99981,-1.43984e-06,-2.24649e-07,-0.0194671,1
2876000,0.00681075,-0.00229202,-0.00818697,0.999828,0.000383034,-0.00044698,-0.0185623,0.99981,-1.43984e-06,-2.24649e-07,-0.0194671,1
2908000,-0.0115454,-0.00278768,0.00912945,0.999827,0.000358883,-0.000463661,-0.0185839,0.99981,-1.43984e-06,-2.24649e-07,-0.0194671,1
2940000,-0.00171196,-0.0155679,-0.000858798,0.999826,0.00030692,-0.000498841,-0.0186288,0.99981,-1.43984e-06,-2.24649e-07,-0.0194671,1
2972000,-0.0129733,-0.0154483,0.00403182,0.999826,0.000273787,-0.000521627,-0.0186376,0.99981,-1.43984e-06,-2.24649e-07,-0.0194671,1
3004000,-0.00301748,0.000481243,0.00385475,0.999827,0.000342674,-0.000538645,-0.0186087,0.99981,-1.43984e-06,-2.24649e-07,-0.0194671,1
3036000,-0.0111314,0.00810866,-0.00215821,0.999828,0.000319706,-0.000521605,-0.0185565,0.99981,-1.43984e-06,-2.24649e-07,-0.0194671,1
3072000,0.000504817,0.00912993,-0.000640133,0.999827,0.000316861,-0.000477688,-0.0185703,0.99981,-1.43984e-06,-2.24649e-07,-0.0194671,1
3100000,0.0025379,-0.00208458,0.0071484,0.999827,0.000315082,-0.00045344,-0.0185787,0.99981,-1.43984e-06,-2.24649e-07,-0.0194671,1
3132000,-0.00758878,-0.00629619,0.00124591,0.999827,0.000285491,-0.000435908,-0.0186023,0.99981,-1.43984e-06,-2.24649e-07,-0.0194671,1
3164000,-0.000676741,0.0020848,0.00601808,0.999826,0.000190363,-0.000528612,-0.0186377,0.99981,-1.43984e-06,-2.24649e-07,-0.0194671,1
3196000,0.000133971,-0.00177861,0.000151333,0.999826,0.000114308,-0.000547746,-0.0186418,0.99981,-1.43984e-06,-2.24649e-07,-0.0194671,1
3228000,-0.000184642,-0.00251714,-0.00474064,0.999826,8.23853e-05,-0.000467234,-0.01862,0.99981,-1.43984e-06,-2.24649e-07,-0.0194671,1
3260000,-0.00269975,-0.00175268,0.00601032,0.999829,0.000111422,-0.00045985,-0.0184907,0.99981,-1.43984e-06,-2.24649e-07,-0.0194671,1
3292000,-0.00228648,0.00750756,0.0167052,0.99983,-4.6457e-05,-0.000454362,-0.0184534,0.99981,-1.43984e-06,-2.24649e-07,-0.0194671,1
3324000,-0.00322207,0.000158984,0.00326855,0.999829,-0.000124593,-0.000455963,-0.0184963,0.99981,-1.43984e-06,-2.24649e-07,-0.0194671,1
3356000,-0.00191619,0.00428033,0.0142224,0.999829,-6.24979e-05,-0.000431102,-0.0184791,0.99981,-1.43984e-06,-2.24649e-07,-0.0194671,1
3388000,0.00269643,0.00122349,0.0151294,0.99983,-4.31689e-05,-0.000456965,-0.0184341,0.99981,-1.43984e-06,-2.24649e-07,-0.0194671,1
3420000,-0.00630851,-0.00132081,-0.00996004,0.999832,-9.18303e-05,-0.000478069,-0.0183425,0.99981,-1.43984e-06,-2.24649e-07,-0.0194671,1
3452000,0.00385365,0.0136474,0.0160494,0.999834,-0.000133554,-0.000466478,-0.0182244,0.99981,-1.43984e-06,-2.24649e-07,-0.0194671,1
3484000,0.000137146,0.00380908,0.00194703,0.999835,-3.84135e-05,-0.000462676,-0.0181639,0.99981,-1.43984e-06,-2.24649e-07,-0.0194671,1
3516000,-0.00242958,0.0040453,0.0012685,0.999836,-8.75123e-07,-0.000440694,-0.0181112,0.99981,-1.43984e-06,-2.24649e-07,-0.0194671,1
3548000,-0.0282621,-0.0115336,-0.00881311,0.999837,-5.89333e-05,-0.000498377,-0.0180715,0.99981,-1.43984e-06,-2.24649e-07,-0.0194671,1
3584000,-0.00430976,-0.00415808,-0.00564722,0.999834,-7.13202e-05,-0.00067402,-0.0181879,0.99981,-1.43984e-06,-2.24649e-07,-0.0194671,1
3612000,-0.0101916,0.00444126,0.00418655,0.999834,-5.6582e-05,-0.000676671,-0.0182134,0.99981,-1.43984e-06,-2.24649e-07,-0.0194671,1
3644000,-0.00668249,-0.00185805,0.00783377,0.999835,-0.000143302,-0.000687498,-0.0181679,0.99981,-1.43984e-06,-2.24649e-07,-0.0194671,1
3676000,0.00378412,0.0133186,0.0031717,0.999836,-0.000165199,-0.000461151,-0.018104,0.99981,-1.43984e-06,-2.24649e-07,-0.0194671,1
3708000,0.00350846,-0.00670969,-0.00103698,0.999837,-0.000126994,-0.000353848,-0.0180278,0.99981,-1.43984e-06,-2.24649e-07,-0.0194671,1
3740000,-0.0140239,-0.00531158,-0.00142304,0.999836,-0.000173771,-0.000323955,-0.0181132,0.99981,-1.43984e-06,-2.24649e-07,-0.0194671,1
3772000,-0.00552788,-0.0157352,0.0031503,0.999834,-0.000299566,-0.000335753,-0.0182355,0.99981,-1.43984e-06,-2.24649e-07,-0.0194671,1
3804000,0.000708461,-0.000281505,0.00727253,0.999834,-0.000280565,-0.000367586,-0.0181954,0.99981,-1.43984e-06,-2.24649e-07,-0.0194671,1
3836000,0.0111091,-0.00252235,0.00127177,0.999834,-0.000284183,-0.000369084,-0.0182019,0.99981,-1.43984e-06,-2.24649e-07,-0.0194671,1
3868000,0.00817597,0.00772826,0.00967006,0.999834,-0.000297308,-0.000376677,-0.0182265,0.99981,-1.43984e-06,-2.24649e-07,-0.0194671,1
3900000,0.0014479,0.00480183,-0.00693955,0.999834,-0.000149734,-0.000415518,-0.0181908,0.99981,-1.43984e-06,-2.24649e-07,-0.0194671,1
3932000,0.00429922,-0.00890699,-0.00119537,0.999833,-0.000151325,-0.000440448,-0.0182958,0.99981,-1.43984e-06,-2.24649e-07,-0.0194671,1
3968000,0.00284177,-0.00256094,-0.00183285,0.999832,-0.000141931,-0.000357226,-0.0183391,0.99981,-1.43984e-06,-2.24649e-07,-0.0194671,1
4000000,-0.0110167,0.00790701,-0.00530943,0.999831,-0.000131834,-0.000357068,-0.0183986,0.99981,-1.43984e-06,-2.24649e-07,-0.0194671,1
4028000,0.0115163,-0.0106987,-0.000978292,0.99983,-3.36575e-05,-0.000333677,-0.0184099,0.99981,-1.43984e-06,-2.24649e-07,-0.0194671,1
4060000,-0.00404954,-0.0060932,0.0037776,0.999831,-9.19357e-07,-0.000282071,-0.0184051,0.99981,-1.43984e-06,-2.24649e-07,-0.0194671,1
4092000,0.000503746,0.0104062,0.0015536,0.999831,-1.84338e-05,-0.000158742,-0.0184069,0.99981,-1.43984e-06,-2.24649e-07,-0.0194671,1
4124000,-0.00566672,0.00715379,-0.00144566,0.99983,-5.75389e-05,-0.000126838,-0.0184389,0.99981,-1.43984e-06,-2.24649e-07,-0.0194671,1
4156000,-0.00634057,-0.00970093,-0.00216043,0.99983,-8.13449e-05,-8.94562e-05,-0.0184434,0.99981,-1.43984e-06,-2.24649e-07,-0.0194671,1
4192000,-0.00983931,-0.0030626,0.00652738,0.999829,-0.000119644,-0.000129459,-0.0184786,0.99981,-1.43984e-06,-2.24649e-07,-0.0194671,1
4220000,-0.00480019,-0.00444346,0.0124374,0.99983,-0.000147899,-0.000111893,-0.0184106,0.99981,-1.43984e-06,-2.24649e-07,-0.0194671,1
4252000,0.00831501,4.09185e-05,-0.012226,0.999828,-0.000111604,-0.000149739,-0.0185594,0.99981,-1.43984e-06,-2.24649e-07,-0.0194671,1
4284000,-0.0133976,0.00721265,0.00895301,0.999826,-0.000178707,-8.48711e-05,-0.0186283,0.99981,-1.43984e-06,-2.24649e-07,-0.0194671,1
4316000,0.0143433,0.01449,0.0044829,0.999826,-0.00020492,-2.5153e-05,-0.018664,0.99981,-1.43984e-06,-2.24649e-07,-0.0194671,1
4348000,-0.00195999,-0.00129552,-0.00124934,0.999825,-0.000213824,-5.74584e-05,-0.0186824,0.99981,-1.43984e-06,-2.24649e-07,-0.0194671,1
4384000,-0.00466819,0.010474,-0.00243762,0.999825,-0.000183783,-2.41857e-05,-0.0187086,0.99981,-1.43984e-06,-2.24649e-07,-0.0194671,1
4412000,0.0110957,0.00899366,0.0143421,0.999826,-0.000224282,7.83648e-05,-0.0186522,0.99981,-1.43984e-06,-2.24649e-07,-0.0194671,1
4444000,0.0126518,0.0063399,0.000948608,0.999828,-0.000146437,0.000111152,-0.0185541,0.99981,-1.43984e-06,-2.24649e-07,-0.0194671,1
4480000,-0.00300971,0.0135546,0.000171574,0.999827,-0.000153698,0.000167282,-0.0185981,0.99981,-1.43984e-06,-2.24649e-07,-0.0194671,1
4508000,0.00388775,0.00509447,-0.00110633,0.999827,-0.00012571,0.00024134,-0.0185923,0.99981,-1.43984e-06,-2.24649e-07,-0.0194671,1
4540000,-0.0116464,-0.00279509,-0.000204464,0.999827,-0.000168848,0.000253478,-0.0186004,0.99981,-1.43984e-06,-2.24649e-07,-0.0194671,1
4572000,-0.00121355,-0.0060694,0.000936748,0.999825,-0.000181955,0.000304829,-0.0187144,0.99981,-1.43984e-06,-2.24649e-07,-0.0194671,1
4604000,-0.00863926,-0.00673968,-6.94825e-05,0.999823,-0.000191541,0.000174234,-0.0187835,0.99981,-1.43984e-06,-2.24649e-07,-0.0194671,1
4636000,-0.00447686,0.00384867,0.00622685,0.999824,-0.000159592,0.000200623,-0.0187455,0.99981,-1.43984e-06,-2.24649e-07,-0.0194671,1
4668000,0.00727842,-0.0105961,-0.00454989,0.999824,-9.1322e-05,0.000173437,-0.0187744,0.99981,-1.43984e-06,-2.24649e-07,-0.0194671,1
4700000,-0.00913524,0.00880036,0.0100175,0.999824,-0.000143964,0.000220109,-0.018756,0.99981,-1.43984e-06,-2.24649e-07,-0.0194671,1
4732000,0.000289263,-0.001007,-0.00236727,0.999824,-0.000191762,0.000187101,-0.018752,0.99981,-1.43984e-06,-2.24649e-07,-0.0194671,1
4768000,-0.00435625,-0.0110773,-0.000904642,0.999824,-0.000105253,0.000251229,-0.018738,0.99981,-1.43984e-06,-2.24649e-07,-0.0194671,1
4796000,-0.00356189,0.000839017,-0.00484231,0.999824,-0.000126978,0.000297826,-0.0187454,0.99981,-1.43984e-06,-2.24649e-07,-0.0194671,1
4828000,-0.010042,-0.00892338,-0.00920969,0.999824,-0.000176731,0.00030521,-0.0187603,0.99981,-1.43984e-06,-2.24649e-07,-0.0194671,1
4860000,0.013036,-0.00425507,0.00724021,0.999824,-0.000249487,0.00029969,-0.0187808,0.99981,-1.43984e-06,-2.24649e-07,-0.0194671,1
4892000,-0.00645811,-0.00590831,0.0135047,0.999824,-0.000229397,0.000267199,-0.0187288,0.99981,-1.43984e-06,-2.24649e-07,-0.0194671,1
4924000,-0.00379943,-0.0033003,0.0113063,0.999825,-0.000146179,0.000266297,-0.0187124,0.99981,-1.43984e-06,-2.24649e-07,-0.0194671,1
4956000,0.0059571,0.00514863,-0.00217728,0.999826,-0.000127852,0.000185225,-0.0186339,0.99981,-1.43984e-06,-2.24649e-07,-0.0194671,1
4988000,-0.00900094,-0.00321077,-0.00606302,0.999825,-0.000191213,0.000150402,-0.0186988,0.99981,-1.43984e-06,-2.24649e-07,-0.0194671,1
5020000,-0.00417652,0.000866311,0.00621737,0.999826,-0.000197275,0.000141355,-0.0186694,0.99981,-1.43984e-06,-2.24649e-07,-0.0194671,1
5052000,-0.000695995,0.00897262,-0.0034719,0.999826,-0.000140286,0.00023738,-0.0186553,0.99981,-1.43984e-06,-2.24649e-07,-0.0194671,1
5084000,-0.00172225,0.000527793,-0.00887746,0.999825,-0.000149747,0.000266821,-0.018714,0.99981,-1.43984e-06,-2.24649e-07,-0.0194671,1
5120000,0.00453696,0.00818932,-0.00738876,0.999824,-0.000100876,0.000357918,-0.0187504,0.99981,-1.43984e-06,-2.24649e-07,-0.0194671,1
5148000,0.00716925,0.00425689,0.00157029,0.999825,-3.97619e-05,0.000403213,-0.0186851,0.99981,-1.43984e-06,-2.24649e-07,-0.0194671,1
5180000,0.00212515,0.00200612,-0.00800848,0.999825,-4.38914e-05,0.000423864,-0.0187074,0.99981,-1.43984e-06,-2.24649e-07,-0.0194671,1
5212000,0.0197878,0.000336858,0.0134658,0.999824,3.71336e-05,0.000362339,-0.0187281,0.99981,-1.43984e-06,-2.24649e-07,-0.0194671,1
5244000,1.21213e-05,0.00636838,0.000433582,0.999824,0.000155212,0.000352421,-0.0187328,0.99981,-1.43984e-06,-2.24649e-07,-0.0194671,1
5276000,-0.00356223,0.00310045,0.00696086,0.999824,0.000137868,0.000431293,-0.0187567,0.99981,-1.43984e-06,-2.24649e-07,-0.0194671,1
5308000,0.00344004,-0.00927119,-0.00452754,0.999823,0.000131554,0.000372995,-0.0187919,0.99981,-1.43984e-06,-2.24649e-07,-0.0194671,1
5344000,-0.00133302,0.00711595,0.000749263,0.999822,0.000111898,0.000494106,-0.0188578,0.99981,-1.43984e-06,-2.24649e-07,-0.0194671,1
5372000,0.012409,0.00194541,-0.00113532,0.999822,6.27555e-05,0.00049131,-0.0188628,0.99981,-1.43984e-06,-2.24649e-07,-0.0194671,1
5404000,-0.0072433,-0.00261391,0.00196241,0.999822,2.02474e-05,0.00058056,-0.0188583,0.99981,-1.43984e-06,-2.24649e-07,-0.0194671,1
5436000,0.00656683,-0.0015949,0.00792134,0.999823,-2.84161e-05,0.000628471,-0.0188057,0.99981,-1.43984e-06,-2.24649e-07,-0.0194671,1
5468000,-0.00350403,0.00534623,-0.00984608,0.999822,-8.01864e-05,0.000608073,-0.0188508,0.99981,-1.43984e-06,-2.24649e-07,-0.0194671,1
5500000,0.00444314,0.0047231,0.00638068,0.999823,-5.53971e-05,0.000649158,-0.0188187,0.99981,-1.43984e-06,-2.24649e-07,-0.0194671,1
5532000,-0.00710155,0.00831359,0.004604,0.999823,-8.23659e-05,0.000719038,-0.0187724,0.99981,-1.43984e-06,-2.24649e-07,-0.0194671,1
5564000,0.00568415,-0.017147,-0.000233336,0.999824,-0.000149731,0.000603164,-0.018766,0.99981,-1.43984e-06,-2.24649e-07,-0.0194671,1
5596000,0.000199521,0.0141918,0.00133679,0.999824,-0.000165853,0.000602904,-0.0187281,0.99981,-1.43984e-06,-2.24649e-07,-0.0194671,1
5628000,0.00265445,0.0114916,0.00143287,0.999824,-0.000165261,0.000655008,-0.018754,0.99981,-1.43984e-06,-2.24649e-07,-0.0194671,1
5660000,-0.00238308,-0.0027133,-0.00312501,0.999822,-0.000165372,0.000616288,-0.0188306,0.99981,-1.43984e-06,-2.24649e-07,-0.0194671,1
5692000,-0.00745284,-0.00367802,-0.00652572,0.999821,-0.000120743,0.000582432,-0.0188837,0.99981,-1.43984e-06,-2.24649e-07,-0.0194671,1
5728000,0.00321757,-0.00924079,0.0109722,0.999824,-0.000159752,0.000481598,-0.018774,0.99981,-1.43984e-06,-2.24649e-07,-0.0194671,1
5760000,-0.00135293,-0.0022406,-0.00825969,0.999822,-0.000187029,0.000393055,-0.0188586,0.99981,-1.43984e-06,-2.24649e-07,-0.0194671,1
5788000,-0.00164801,0.0103203,-0.00812502,0.999821,-0.000196473,0.000417891,-0.0189162,0.99981,-1.43984e-06,-2.24649e-07,-0.0194671,1
5820000,0.000284169,0.00587767,-0.00807623,0.999817,-0.000197204,0.000526482,-0.0191086,0.99981,-1.43984e-06,-2.24649e-07,-0.0194671,1
5852000,-0.00119822,0.00215985,0.00193583,0.999817,-8.27643e-05,0.000512543,-0.0191118,0.99981,-1.43984e-06,-2.24649e-07,-0.0194671,1
5884000,0.00527042,0.0134385,0.00137232,0.999816,-3.06963e-05,0.000513434,-0.0191474,0.99981,-1.43984e-06,-2.24649e-07,-0.0194671,1
5920000,-0.00473473,-0.000621525,-0.00386046,0.999819,8.02914e-06,0.000437313,-0.0190411,0.99981,-1.43984e-06,-2.24649e-07,-0.0194671,1
5948000,-0.00262888,-0.00191382,-0.00061403,0.999818,1.93904e-05,0.000432437,-0.0190737,0.99981,-1.43984e-06,-2.24649e-07,-0.0194671,1
5980000,-0.00157011,0.00438004,-0.00196136,0.999817,0.000117462,0.000364229,-0.0191115,0.99981,-1.43984e-06,-2.24649e-07,-0.0194671,1
6012000,-0.00224123,-0.013072,-0.00762104,0.999816,9.82313e-05,0.000353038,-0.0191646,0.99981,-1.43984e-06,-2.24649e-07,-0.0194671,1
6044000,0.0126099,-0.00788868,-0.00754037,0.999815,0.000158376,0.000345998,-0.0192083,0.99981,-1.43984e-06,-2.24649e-07,-0.0194671,1
6076000,-0.000679729,0.00375487,-0.00837462,0.999813,0.000212282,0.000271768,-0.0193054,0.99981,-1.43984e-06,-2.24649e-07,-0.0194671,1
6108000,0.00212776,0.00416624,0.0067544,0.999813,7.36078e-05,0.000302186,-0.0193339,0.99981,-1.43984e-06,-2.24649e-07,-0.0194671,1
6140000,-0.00203913,0.00308644,0.00453368,0.999815,0.000127832,0.000317082,-0.019213,0.99981,-1.43984e-06,-2.24649e-07,-0.0194671,1
6172000,0.0160372,-0.00620502,-0.00237751,0.999816,0.000215008,0.000217934,-0.0191906,0.99981,-1.43984e-06,-2.24649e-07,-0.0194671,1
6204000,-0.0115507,0.00844193,-0.0124226,0.999815,0.000146268,0.000226363,-0.0192238,0.99981,-1.43984e-06,-2.24649e-07,-0.0194671,1
6236000,0.00952651,0.0086763,0.00352611,0.999813,0.000273431,0.000180075,-0.0193228,0.99981,-1.43984e-06,-2.24649e-07,-0.0194671,1
6268000,-0.00918006,-0.00236347,0.00346608,0.999815,0.000213618,0.000134411,-0.0192534,0.99981,-1.43984e-06,-2.24649e-07,-0.0194671,1
6300000,-0.0162275,0.000103393,0.0103442,0.999815,0.000137743,0.000116443,-0.0192397,0.99981,-1.43984e-06,-2.24649e-07,-0.0194671,1
6332000,0.00276921,0.00366403,0.000937837,0.999816,0.000108637,-9.19186e-06,-0.0191863,0.99981,-1.43984e-06,-2.24649e-07,-0.0194671,1
6364000,0.0034334,-0.000955431,-0.00307363,0.999816,9.01589e-05,-1.75171e-05,-0.0191581,0.99981,-1.43984e-06,-2.24649e-07,-0.0194671,1
6400000,0.0062045,-0.00590174,-0.00291236,0.999815,0.000121444,-0.000123011,-0.0192495,0.99981,-1.43984e-06,-2.24649e-07,-0.0194671,1
6428000,-0.002305,0.000568955,0.00552637,0.999813,7.47536e-05,-0.000165007,-0.0193201,0.99981,-1.43984e-06,-2.24649e-07,-0.0194671,1
6460000,-0.00251017,-0.00146439,0.0111642,0.999815,0.00011978,-0.000215846,-0.0192285,0.99981,-1.43984e-06,-2.24649e-07,-0.0194671,1
6492000,0.00454498,0.0109906,0.0133752,0.999816,7.04219e-05,-0.000138512,-0.0191904,0.99981,-1.43984e-06,-2.24649e-07,-0.0194671,1
6528000,-0.00127542,-0.00353056,-0.00229315,0.999816,0.000104502,-0.00022898,-0.0191778,0.99981,-1.43984e-06,-2.24649e-07,-0.0194671,1
6556000,-0.00658602,-0.00712214,0.0123633,0.999817,9.03697e-05,-0.000283587,-0.0191032,0.99981,-1.43984e-06,-2.24649e-07,-0.0194671,1
6592000,-0.00429007,-0.0196691,0.00472744,0.999816,7.54715e-05,-0.000444201,-0.0191693,0.99981,-1.43984e-06,-2.24649e-07,-0.0194671,1
6620000,-0.00293281,0.00139927,0.0107901,0.999815,0.00012136,-0.000504308,-0.019245,0.99981,-1.43984e-06,-2.24649e-07,-0.0194671,1
6652000,0.00784263,0.00270485,-0.00307782,0.999813,0.000168247,-0.000544302,-0.0193187,0.99981,-1.43984e-06,-2.24649e-07,-0.0194671,1
6684000,0.00506599,0.00583672,0.00293448,0.999814,0.000178522,-0.000583157,-0.0192958,0.99981,-1.43984e-06,-2.24649e-07,-0.0194671,1
6716000,-0.00979269,0.000289979,-0.00220166,0.999815,0.000127731,-0.000575006,-0.0192434,0.99981,-1.43984e-06,-2.24649e-07,-0.0194671,1
6748000,0.00720254,0.0157258,-0.00195312,0.999814,0.000164243,-0.000612689,-0.0192624,0.99981,-1.43984e-06,-2.24649e-07,-0.0194671,1
6784000,0.0019168,0.0104416,-0.0108319,0.999815,0.000257679,-0.000545759,-0.0192194,0.99981,-1.43984e-06,-2.24649e-07,-0.0194671,1
6816000,0.0034071,0.00719594,-0.00183503,0.999816,0.000354245,-0.000471378,-0.019146,0.99981,-1.43984e-06,-2.24649e-07,-0.0194671,1
6844000,-0.000188692,0.016784,0.0181376,0.999817,0.000358205,-0.000363267,-0.0191143,0.99981,-1.43984e-06,-2.24649e-07,-0.0194671,1
6880000,-0.00115501,-0.00235798,-0.0050552,0.999816,0.000405495,-0.000465332,-0.0191516,0.99981,-1.43984e-06,-2.24649e-07,-0.0194671,1
6912000,-0.000270606,0.000770442,0.000926954,0.999817,0.000398005,-0.000402311,-0.0191383,0.99981,-1.43984e-06,-2.24649e-07,-0.0194671,1
6940000,-0.00394242,-0.00532548,0.0109011,0.999818,0.000381532,-0.000468074,-0.0190838,0.99981,-1.43984e-06,-2.24649e-07,-0.0194671,1
6972000,-0.0104513,-0.00312751,0.00660653,0.999817,0.000334438,-0.000503532,-0.0191108,0.99981,-1.43984e-06,-2.24649e-07,-0.0194671,1
7004000,-0.00550389,0.004548,0.00210786,0.999819,0.000338693,-0.000605142,-0.0190291,0.99981,-1.43984e-06,-2.24649e-07,-0.0194671,1
7040000,-0.0133895,-0.00197628,7.36597e-05,0.999819,0.00023947,-0.000635335,-0.0189969,0.99981,-1.43984e-06,-2.24649e-07,-0.0194671,1
7068000,-0.00228082,-0.0119347,0.000569398,0.999819,0.000273872,-0.000732715,-0.0189974,0.99981,-1.43984e-06,-2.24649e-07,-0.0194671,1
7100000,-0.000941993,0.0128431,-0.00355629,0.99982,0.000373589,-0.000677688,-0.0189611,0.99981,-1.43984e-06,-2.24649e-07,-0.0194671,1
7132000,0.00631035,0.00537943,-0.00543758,0.999819,0.000401521,-0.000692972,-0.0190202,0.99981,-1.43984e-06,-2.24649e-07,-0.0194671,1
7164000,-0.0101468,-0.0066676,-0.00921421,0.99982,0.00038622,-0.00067925,-0.0189294,0.99981,-1.43984e-06,-2.24649e-07,-0.0194671,1
7200000,0.000127758,0.00673978,-0.00114539,0.999821,0.00030428,-0.000674461,-0.0189114,0.99981,-1.43984e-06,-2.24649e-07,-0.0194671,1
7228000,0.00939337,0.00431512,0.0113862,0.999822,0.00032034,-0.000643833,-0.0188252,0.99981,-1.43984e-06,-2.24649e-07,-0.0194671,1
7260000,-0.00550163,0.00267488,0.00627131,0.999823,0.000213032,-0.000750586,-0.0188166,0.99981,-1.43984e-06,-2.24649e-07,-0.0194671,1
7292000,0.00174092,-0.00424955,0.00520783,0.999825,0.000310516,-0.00064854,-0.0187152,0.99981,-1.43984e-06,-2.24649e-07,-0.0194671,1
7324000,-0.00811811,0.00123761,-0.00728786,0.999824,0.000265582,-0.000623381,-0.0187711,0.99981,-1.43984e-06,-2.24649e-07,-0.0194671,1
7356000,-0.00271099,0.00274321,0.00940536,0.999824,0.000301423,-0.000673525,-0.0187373,0.99981,-1.43984e-06,-2.24649e-07,-0.0194671,1
7388000,0.0027242,0.0015999,-0.00138635,0.999824,0.000306187,-0.000726454,-0.0187274,0.99981,-1.43984e-06,-2.24649e-07,-0.0194671,1
7420000,0.00488952,0.00398798,0.0050295,0.999825,0.000364713,-0.000754227,-0.018664,0.99981,-1.43984e-06,-2.24649e-07,-0.0194671,1
7456000,0.00815747,-0.00257979,0.0104715,0.999826,0.000397673,-0.000838904,-0.01864,0.99981,-1.43984e-06,-2.24649e-07,-0.0194671,1
7484000,-0.0107882,0.0138366,-0.00115268,0.999827,0.000407933,-0.00077451,-0.0186003,0.99981,-1.43984e-06,-2.24649e-07,-0.0194671,1
7516000,-0.00545269,-0.00744321,0.0023285,0.999827,0.000402184,-0.000823524,-0.0185966,0.99981,-1.43984e-06,-2.24649e-07,-0.0194671,1
7548000,-0.00318604,-0.00406314,-0.00818251,0.999826,0.000388821,-0.00086641,-0.0186042,0.99981,-1.43984e-06,-2.24649e-07,-0.0194671,1
7580000,0.00438714,0.00377047,0.00796125,0.999827,0.000404385,-0.000795805,-0.0185603,0.99981,-1.43984e-06,-2.24649e-07,-0.0194671,1
7612000,-0.00648268,-0.00084533,-0.00500344,0.999826,0.000325147,-0.000759669,-0.0186047,0.99981,-1.43984e-06,-2.24649e-07,-0.0194671,1
7644000,0.00167725,0.00502814,0.00952269,0.999826,0.000245099,-0.00072402,-0.0186318,0.99981,-1.43984e-06,-2.24649e-07,-0.0194671,1
7676000,-0.00542081,-0.00818041,-0.00273557,0.999827,0.000238698,-0.000775425,-0.0185882,0.99981,-1.43984e-06,-2.24649e-07,-0.0194671,1
7708000,0.0034504,0.0037284,-0.00663074,0.999825,0.000215205,-0.000694187,-0.0186751,0.99981,-1.43984e-06,-2.24649e-07,-0.0194671,1
7740000,0.00320697,-0.000611202,-0.00750449,0.999825,0.000256581,-0.000706194,-0.0186958,0.99981,-1.43984e-06,-2.24649e-07,-0.0194671,1
7772000,-0.00164464,0.00672305,0.00193971,0.999826,0.000186778,-0.000735999,-0.0186605,0.99981,-1.43984e-06,-2.24649e-07,-0.0194671,1
7804000,-0.0043149,-0.00815709,-0.00340125,0.999826,4.28044e-05,-0.000774441,-0.0186516,0.99981,-1.43984e-06,-2.24649e-07,-0.0194671,1
7836000,0.00415585,-0.00159789,0.00772225,0.999825,1.32777e-05,-0.000787561,-0.0186605,0.99981,-1.43984e-06,-2.24649e-07,-0.0194671,1
7868000,0.00141313,0.00105755,-0.00246902,0.999827,5.62087e-05,-0.000699948,-0.0186026,0.99981,-1.43984e-06,-2.24649e-07,-0.0194671,1
7900000,0.0098868,0.00188885,0.000602072,0.999828,0.000104562,-0.000610628,-0.0185428,0.99981,-1.43984e-06,-2.24649e-07,-0.0194671,1
7932000,-0.0094542,0.00296522,0.00610598,0.999828,0.000122228,-0.000600325,-0.0185625,0.99981,-1.43984e-06,-2.24649e-07,-0.0194671,1
7964000,-0.0032764,0.00587492,0.00291392,0.999827,4.96014e-05,-0.000497353,-0.0186104,0.99981,-1.43984e-06,-2.24649e-07,-0.0194671,1
8000000,-0.00346559,0.00111642,-0.00114974,0.999827,3.26108e-05,-0.000503976,-0.0185701,0.99981,-1.43984e-06,-2.24649e-07,-0.0194671,1
8028000,-0.00679396,-0.0057337,-0.0028472,0.999828,-5.35069e-05,-0.000536249,-0.0185509,0.99981,-1.43984e-06,-2.24649e-07,-0.0194671,1
8064000,-0.00421726,-0.00197212,0.0157089,0.999828,-0.00017474,-0.000605863,-0.0185461,0.99981,-1.43984e-06,-2.24649e-07,-0.0194671,1
8092000,0.00321777,-0.0102126,-0.00483544,0.999828,-0.000161673,-0.000534764,-0.0185141,0.99981,-1.43984e-06,-2.24649e-07,-0.0194671,1
8124000,0.0126717,-0.0021092,0.00494648,0.999831,-0.000170084,-0.000551809,-0.0183998,0.99981,-1.43984e-06,-2.24649e-07,-0.0194671,1
8156000,-0.000694177,0.00648576,-0.00551138,0.999829,-0.000134512,-0.000498448,-0.0184945,0.99981,-1.43984e-06,-2.24649e-07,-0.0194671,1
8192000,-0.0003021,-0.00614033,0.00397186,0.999829,-0.000165414,-0.000536573,-0.0185016,0.99981,-1.43984e-06,-2.24649e-07,-0.0194671,1
8224000,-0.00126742,0.00375167,-0.00437314,0.999829,-0.000136834,-0.000498564,-0.0184868,0.99981,-1.43984e-06,-2.24649e-07,-0.0194671,1
8252000,0.00835821,-0.00385415,-0.00337173,0.999828,-6.50234e-05,-0.000463762,-0.0185181,0.99981,-1.43984e-06,-2.24649e-07,-0.0194671,1
8284000,-0.00386182,-0.000699881,0.00922165,0.99983,-6.64561e-05,-0.00044137,-0.0184577,0.99981,-1.43984e-06,-2.24649e-07,-0.0194671,1
8316000,0.0071336,-0.000736447,-0.00243542,0.999832,-5.0985e-07,-0.000491877,-0.0183305,0.99981,-1.43984e-06,-2.24649e-07,-0.0194671,1
8348000,-0.00942642,-0.000586837,0.00135942,0.999832,-9.8602e-05,-0.000426223,-0.0183302,0.99981,-1.43984e-06,-2.24649e-07,-0.0194671,1
8384000,-0.00411334,0.00223012,-0.00678807,0.999832,-0.000123693,-0.000402971,-0.0183291,0.99981,-1.43984e-06,-2.24649e-07,-0.0194671,1
8412000,-0.00575235,-0.00253121,9.30902e-05,0.999831,-0.000139535,-0.000360544,-0.0183617,0.99981,-1.43984e-06,-2.24649e-07,-0.0194671,1
8444000,0.00827415,0.00289552,-0.00373432,0.999832,-0.000158108,-0.000440794,-0.0183046,0.99981,-1.43984e-06,-2.24649e-07,-0.0194671,1
8480000,-0.00716688,0.000396507,0.00395162,0.999833,-0.000232677,-0.000457439,-0.0182557,0.99981,-1.43984e-06,-2.24649e-07,-0.0194671,1
8508000,-0.00539366,0.00190618,0.00308366,0.999833,-0.0003673,-0.000546682,-0.0182381,0.99981,-1.43984e-06,-2.24649e-07,-0.0194671,1
8540000,0.00586255,-0.00482466,-0.0057597,0.999832,-0.000336234,-0.000543688,-0.0183073,0.99981,-1.43984e-06,-2.24649e-07,-0.0194671,1
8572000,-0.00876127,-0.000486038,0.000502202,0.999833,-0.000371663,-0.000564646,-0.018289,0.99981,-1.43984e-06,-2.24649e-07,-0.0194671,1
8604000,0.0046426,-0.00406977,-0.00493964,0.999831,-0.000316084,-0.00055809,-0.018378,0.99981,-1.43984e-06,-2.24649e-07,-0.0194671,1
8636000,-0.00815039,0.00149171,0.00950949,0.999832,-0.000332858,-0.000502033,-0.0183184,0.99981,-1.43984e-06,-2.24649e-07,-0.0194671,1
8668000,0.00362556,0.00133343,-0.00381838,0.999832,-0.000308342,-0.000443701,-0.0183073,0.99981,-1.43984e-06,-2.24649e-07,-0.0194671,1
8700000,-0.00626872,0.00544421,-0.00434382,0.999831,-0.000379178,-0.000443068,-0.0183678,0.99981,-1.43984e-06,-2.24649e-07,-0.0194671,1
8732000,0.000666017,0.00909518,0.00935819,0.99983,-0.000372847,-0.000394077,-0.0184109,0.99981,-1.43984e-06,-2.24649e-07,-0.0194671,1
8764000,-0.00623101,0.000660686,-0.00187719,0.99983,-0.0004084,-0.000390834,-0.0184187,0.99981,-1.43984e-06,-2.24649e-07,-0.0194671,1
8796000,-0.00604736,-0.00455707,-0.00399232,0.99983,-0.000452236,-0.000440247,-0.0184177,0.99981,-1.43984e-06,-2.24649e-07,-0.0194671,1
8832000,0.00755382,0.00332033,0.0089204,0.999831,-0.000410817,-0.000359885,-0.0183776,0.99981,-1.43984e-06,-2.24649e-07,-0.0194671,1
8860000,0.0096306,0.00870876,0.00218071,0.99983,-0.000352247,-0.000312961,-0.0184254,0.99981,-1.43984e-06,-2.24649e-07,-0.0194671,1
8892000,0.00418544,-0.00255765,0.0015644,0.99983,-0.000326258,-0.000319275,-0.0184049,0.99981,-1.43984e-06,-2.24649e-07,-0.0194671,1
8924000,0.00474563,0.00140455,0.00607216,0.99983,-0.000349662,-0.000212639,-0.0184186,0.99981,-1.43984e-06,-2.24649e-07,-0.0194671,1
8960000,0.00666504,0.0159818,-0.00655935,0.999829,-0.000336498,-0.000134459,-0.0184678,0.99981,-1.43984e-06,-2.24649e-07,-0.0194671,1
8988000,-0.00971524,-0.00401022,0.00636035,0.99983,-0.000439397,-0.000158739,-0.0184508,0.99981,-1.43984e-06,-2.24649e-07,-0.0194671,1
9020000,0.00740609,-0.000197708,0.00654721,0.999831,-0.00043924,-0.000132058,-0.0183826,0.99981,-1.43984e-06,-2.24649e-07,-0.0194671,1
9052000,0.0106447,0.00136492,-0.000929801,0.999831,-0.00036475,-0.000100724,-0.0183879,0.99981,-1.43984e-06,-2.24649e-07,-0.0194671,1
9084000,-0.0009933,0.0132097,0.00761049,0.999832,-0.000317236,-0.000120526,-0.0183241,0.99981,-1.43984e-06,-2.24649e-07,-0.0194671,1
9116000,-0.00352702,-0.000739371,-0.0018349,0.999832,-0.00028141,-7.65727e-05,-0.0183053,0.99981,-1.43984e-06,-2.24649e-07,-0.0194671,1
9152000,-0.00159167,0.000665475,0.00477737,0.999834,-0.000252515,-3.27882e-05,-0.0182428,0.99981,-1.43984e-06,-2.24649e-07,-0.0194671,1
9184000,0.00837119,0.00470592,-0.0141763,0.999833,-0.000204973,-4.62743e-05,-0.0182614,0.99981,-1.43984e-06,-2.24649e-07,-0.0194671,1
9212000,0.00189305,0.00929219,-0.0101026,0.999833,-0.000228811,4.1438e-05,-0.0182617,0.99981,-1.43984e-06,-2.24649e-07,-0.0194671,1
9244000,-0.000162066,-0.00125966,0.00324383,0.999832,-0.000165136,1.51522e-05,-0.0182986,0.99981,-1.43984e-06,-2.24649e-07,-0.0194671,1
9276000,0.000583004,-0.00485141,0.00213578,0.999834,-0.000235898,-4.77972e-05,-0.0182372,0.99981,-1.43984e-06,-2.24649e-07,-0.0194671,1
9308000,-0.00131158,-0.00466225,0.00484588,0.999833,-0.000302229,-1.08883e-06,-0.0182898,0.99981,-1.43984e-06,-2.24649e-07,-0.0194671,1
9340000,-0.00299842,-0.000465562,-0.00278751,0.999833,-0.000300448,5.20894e-05,-0.0182972,0.99981,-1.43984e-06,-2.24649e-07,-0.0194671,1
9372000,-0.0189353,0.00594782,0.00165135,0.99983,-0.000424818,0.000103414,-0.0184143,0.99981,-1.43984e-06,-2.24649e-07,-0.0194671,1
9404000,-0.00369114,-0.000149224,0.00113424,0.999831,-0.000369933,9.54544e-05,-0.0183779,0.99981,-1.43984e-06,-2.24649e-07,-0.0194671,1
9440000,-0.0170075,0.000586397,0.0084821,0.999832,-0.000418976,2.53397e-05,-0.0183332,0.99981,-1.43984e-06,-2.24649e-07,-0.0194671,1
9472000,0.00713597,-0.000535435,0.00450391,0.999833,-0.000464783,8.778e-05,-0.0182933,0.99981,-1.43984e-06,-2.24649e-07,-0.0194671,1
9500000,-0.00587324,0.005798,0.00158329,0.999834,-0.000469846,9.64048e-05,-0.0182075,0.99981,-1.43984e-06,-2.24649e-07,-0.0194671,1
9532000,0.000166501,0.00663455,-0.0168279,0.999832,-0.000455145,0.000109626,-0.018296,0.99981,-1.43984e-06,-2.24649e-07,-0.0194671,1
9564000,0.0031784,0.00252584,0.00699073,0.999833,-0.000372168,0.00012966,-0.0182509,0.99981,-1.43984e-06,-2.24649e-07,-0.0194671,1
9596000,-0.00623437,0.00710728,0.0201209,0.999833,-0.000379689,0.0001315,-0.0182489,0.99981,-1.43984e-06,-2.24649e-07,-0.0194671,1
9628000,-0.0192462,-0.00281909,-0.00299827,0.999833,-0.000448282,0.000169495,-0.01825,0.99981,-1.43984e-06,-2.24649e-07,-0.0194671,1
9664000,-0.0145921,-0.00589568,0.010442,0.999833,-0.000464104,0.00024823,-0.0182397,0.99981,-1.43984e-06,-2.24649e-07,-0.0194671,1
9692000,0.00282176,0.00231004,0.015443,0.999834,-0.000402115,0.000276152,-0.018226,0.99981,-1.43984e-06,-2.24649e-07,-0.0194671,1
9724000,0.00992332,-0.00197242,-0.00567708,0.999834,-0.000416879,0.000360415,-0.0182336,0.99981,-1.43984e-06,-2.24649e-07,-0.0194671,1
9756000,0.00718011,-0.00306336,0.00102739,0.999833,-0.000395603,0.000385339,-0.0182687,0.99981,-1.43984e-06,-2.24649e-07,-0.0194671,1
9792000,0.00752215,-0.0118115,-0.00799859,0.999833,-0.00039145,0.000275321,-0.0182385,0.99981,-1.43984e-06,-2.24649e-07,-0.0194671,1
9820000,-0.0106596,-0.000962928,-0.00491011,0.999832,-0.000403727,0.000291618,-0.0183026,0.99981,-1.43984e-06,-2.24649e-07,-0.0194671,1
9852000,-0.00383749,0.00539065,-0.00481593,0.999832,-0.000446652,0.000211375,-0.0183413,0.99981,-1.43984e-06,-2.24649e-07,-0.0194671,1
9884000,0.0137854,-0.0019274,0.00138803,0.999833,-0.000365794,0.000199378,-0.0182686,0.99981,-1.43984e-06,-2.24649e-07,-0.0194671,1
9916000,0.00594113,-0.00438839,0.0113086,0.999834,-0.00036446,0.000155967,-0.0181957,0.99981,-1.43984e-06,-2.24649e-07,-0.0194671,1
9952000,-0.00388403,-0.00725768,-0.00776471,0.999834,-0.000329489,0.000147013,-0.0182326,0.99981,-1.43984e-06,-2.24649e-07,-0.0194671,1
9980000,-0.00542435,-0.00793658,0.0130333,0.999834,-0.000332572,8.72023e-05,-0.0181936,0.99981,-1.43984e-06,-2.24649e-07,-0.0194671,1
10012000,0.00340858,-0.0126347,0.000117008,0.999835,-0.00024431,-1.0517e-05,-0.0181824,0.99981,-1.43984e-06,-2.24649e-07,-0.0194671,1
10044000,-0.00504491,0.0107888,0.000730352,0.999834,-0.000272186,-6.93673e-06,-0.0182131,0.99981,-1.43984e-06,-2.24649e-07,-0.0194671,1
10076000,-0.00725919,-0.000338943,-0.00107889,0.999833,-0.000274493,-4.2492e-05,-0.0182631,0.99981,-1.43984e-06,-2.24649e-07,-0.0194671,1
10108000,0.00128986,0.0114871,0.00799944,0.999834,-0.000183992,-8.81382e-05,-0.0182291,0.99981,-1.43984e-06,-2.24649e-07,-0.0194671,1
10140000,-0.00121612,0.000915154,0.00406658,0.999833,-0.000209239,-8.11455e-05,-0.0182457,0.99981,-1.43984e-06,-2.24649e-07,-0.0194671,1
10172000,-0.00411831,-0.0104106,0.00441863,0.999835,-0.000243742,-3.81149e-05,-0.0181818,0.99981,-1.43984e-06,-2.24649e-07,-0.0194671,1
10204000,-0.000489685,0.0045371,0.00140015,0.999833,-0.000319361,-1.85682e-05,-0.0182529,0.99981,-1.43984e-06,-2.24649e-07,-0.0194671,1
10236000,-0.00125107,-0.0142128,0.00617153,0.999834,-0.000292867,-3.19104e-05,-0.0182229,0.99981,-1.43984e-06,-2.24649e-07,-0.0194671,1
10268000,0.00906917,0.0047845,-0.00765544,0.999832,-0.000286921,-4.37319e-05,-0.0183001,0.99981,-1.43984e-06,-2.24649e-07,-0.0194671,1
10300000,-0.0051384,-0.00825883,0.00555955,0.999832,-0.000297033,-4.30256e-05,-0.0183107,0.99981,-1.43984e-06,-2.24649e-07,-0.0194671,1
10332000,0.00692473,0.00906606,-0.0117505,0.999833,-0.000102235,-8.4255e-05,-0.0182574,0.99981,-1.43984e-06,-2.24649e-07,-0.0194671,1
10364000,-0.00952826,-0.00276655,-0.00771825,0.99983,-4.42534e-05,-9.05178e-05,-0.0184219,0.99981,-1.43984e-06,-2.24649e-07,-0.0194671,1
10396000,0.00412148,-0.00930159,0.00139294,0.999831,-6.42475e-05,-0.000139814,-0.0183744,0.99981,-1.43984e-06,-2.24649e-07,-0.0194671,1
10428000,0.00258638,-0.00315978,0.00315827,0.999831,-4.72315e-05,-0.000169628,-0.0183668,0.99981,-1.43984e-06,-2.24649e-07,-0.0194671,1
10464000,0.00364628,0.00406473,0.00889432,0.999831,-4.74912e-05,-0.000183816,-0.0183848,0.99981,-1.43984e-06,-2.24649e-07,-0.0194671,1
10496000,0.0171947,-0.000239601,-0.0117846,0.99983,2.16984e-05,-0.000160216,-0.0184178,0.99981,-1.43984e-06,-2.24649e-07,-0.0194671,1
10528000,-0.00644345,-0.00297939,-0.00370561,0.99983,3.55251e-05,-0.000175647,-0.0184487,0.99981,-1.43984e-06,-2.24649e-07,-0.0194671,1
10556000,-0.00762813,0.0103991,-0.000235351,0.99983,5.56517e-05,-0.000165354,-0.0184369,0.99981,-1.43984e-06,-2.24649e-07,-0.0194671,1
10588000,-0.00360157,-0.000597068,-0.00845096,0.999828,-3.8824e-07,-0.000106415,-0.0185599,0.99981,-1.43984e-06,-2.24649e-07,-0.0194671,1
10624000,0.00523537,0.0120641,-0.00593765,0.999825,9.24302e-05,-8.0144e-05,-0.0186847,0.99981,-1.43984e-06,-2.24649e-07,-0.0194671,1
10652000,-0.00466181,0.00055927,-0.000153189,0.999825,7.72599e-05,-0.000181288,-0.018686,0.99981,-1.43984e-06,-2.24649e-07,-0.0194671,1
10684000,0.00228913,-0.000271512,-0.00332529,0.999826,8.86295e-05,-0.000198654,-0.0186706,0.99981,-1.43984e-06,-2.24649e-07,-0.0194671,1
10720000,-0.0139525,0.00183309,0.00768898,0.999826,6.45178e-05,-0.000254573,-0.0186306,0.99981,-1.43984e-06,-2.24649e-07,-0.0194671,1
10748000,0.00300685,0.0025052,-0.0100754,0.999826,7.55812e-05,-0.000165384,-0.0186553,0.99981,-1.43984e-06,-2.24649e-07,-0.0194671,1
10780000,0.00235348,0.0101781,0.00821221,0.999827,8.43389e-05,-9.95357e-05,-0.0185889,0.99981,-1.43984e-06,-2.24649e-07,-0.0194671,1
10812000,-0.00171315,0.000908018,0.00658901,0.999827,8.44286e-05,-8.15483e-05,-0.0185905,0.99981,-1.43984e-06,-2.24649e-07,-0.0194671,1
10844000,0.0036915,0.00190224,-0.000876219,0.999829,0.000164307,-2.72454e-06,-0.0184877,0.99981,-1.43984e-06,-2.24649e-07,-0.0194671,1
10880000,0.0114356,0.00287162,-0.00495965,0.999828,0.000253313,-2.16976e-05,-0.0185444,0.99981,-1.43984e-06,-2.24649e-07,-0.0194671,1
10908000,-0.00121335,0.0113169,-0.00311849,0.999828,0.000278747,-3.89368e-05,-0.0185661,0.99981,-1.43984e-06,-2.24649e-07,-0.0194671,1
10940000,0.00404843,-0.00312727,-0.00998813,0.999828,0.000292338,-9.15324e-05,-0.018534,0.99981,-1.43984e-06,-2.24649e-07,-0.0194671,1
10972000,0.00724185,-0.00588195,0.00514243,0.999829,0.000304557,-0.000101988,-0.0184906,0.99981,-1.43984e-06,-2.24649e-07,-0.0194671,1
11004000,0.00241422,-0.000271508,0.0121883,0.999831,0.000290621,-0.000238592,-0.0183749,0.99981,-1.43984e-06,-2.24649e-07,-0.0194671,1
11036000,0.00566096,-0.00719434,0.0145923,0.999833,0.000245363,-0.000216321,-0.0182596,0.99981,-1.43984e-06,-2.24649e-07,-0.0194671,1
11068000,0.00308964,0.000670588,-0.0085026,0.999832,0.000280783,-0.000229353,-0.0183406,0.99981,-1.43984e-06,-2.24649e-07,-0.0194671,1
11100000,0.00755185,-0.0100149,-0.00331775,0.999832,0.000279217,-0.000162672,-0.0183261,0.99981,-1.43984e-06,-2.24649e-07,-0.0194671,1
11132000,0.00394304,-0.0133769,0.00096586,0.999832,0.000296892,-0.000239637,-0.0183143,0.99981,-1.43984e-06,-2.24649e-07,-0.0194671,1
11168000,0.0137527,-0.00798225,-0.00833704,0.999832,0.000257474,-0.000236779,-0.0183405,0.99981,-1.43984e-06,-2.24649e-07,-0.0194671,1
11196000,0.00144873,0.000420781,0.00726253,0.999831,0.000294529,-0.000244482,-0.0183805,0.99981,-1.43984e-06,-2.24649e-07,-0.0194671,1
11228000,-0.00299816,-0.00949628,-0.00866688,0.99983,0.000380259,-0.000259075,-0.0184438,0.99981,-1.43984e-06,-2.24649e-07,-0.0194671,1
11260000,0.0130218,-0.0015102,-0.00544196,0.99983,0.000419401,-0.000246705,-0.018451,0.99981,-1.43984e-06,-2.24649e-07,-0.0194671,1
11292000,0.00174967,-0.00439542,-0.00702573,0.999828,0.000498601,-0.000250628,-0.0185322,0.99981,-1.43984e-06,-2.24649e-07,-0.0194671,1
11328000,-0.00256982,-0.00654738,-0.00213236,0.99983,0.00055031,-0.000300049,-0.0184346,0.99981,-1.43984e-06,-2.24649e-07,-0.0194671,1
11360000,-0.000273413,0.00244176,0.00173275,0.99983,0.000594955,-0.000359299,-0.0184343,0.99981,-1.43984e-06,-2.24649e-07,-0.0194671,1
11388000,0.00365986,0.0104527,0.0022144,0.999831,0.000584095,-0.000308637,-0.0183843,0.99981,-1.43984e-06,-2.24649e-07,-0.0194671,1
11420000,-0.00225419,-0.00236324,-0.00152751,0.99983,0.000604818,-0.000342254,-0.0184025,0.99981,-1.43984e-06,-2.24649e-07,-0.0194671,1
11452000,-0.00100736,-0.00112721,-0.00753011,0.999831,0.0006249,-0.000360484,-0.0183867,0.99981,-1.43984e-06,-2.24649e-07,-0.0194671,1
11488000,-0.00212925,-0.00352684,-0.00822127,0.99983,0.00065267,-0.000404312,-0.0184012,0.99981,-1.43984e-06,-2.24649e-07,-0.0194671,1
11516000,-0.012646,-0.00542722,-0.00574239,0.99983,0.000600815,-0.000335759,-0.0184107,0.99981,-1.43984e-06,-2.24649e-07,-0.0194671,1
11552000,0.00689407,-8.31425e-05,0.0112245,0.999831,0.000719206,-0.000481877,-0.0183871,0.99981,-1.43984e-06,-2.24649e-07,-0.0194671,1
11580000,0.00305678,0.00152474,-0.0012139,0.999832,0.000697493,-0.000453785,-0.0183259,0.99981,-1.43984e-06,-2.24649e-07,-0.0194671,1
11612000,-0.00112278,0.0088307,0.00313914,0.999831,0.000774751,-0.000572464,-0.0183488,0.99981,-1.43984e-06,-2.24649e-07,-0.0194671,1
11644000,-0.0106481,-0.0117676,-0.00433796,0.999832,0.000789112,-0.000509631,-0.0183185,0.99981,-1.43984e-06,-2.24649e-07,-0.0194671,1
11676000,-0.00995629,-0.00114868,0.00134456,0.999832,0.000756495,-0.000438446,-0.0183313,0.99981,-1.43984e-06,-2.24649e-07,-0.0194671,1
11712000,-0.00715981,0.00491446,0.00606865,0.999832,0.000743101,-0.000462939,-0.0183154,0.99981,-1.43984e-06,-2.24649e-07,-0.0194671,1
11740000,-0.0126492,0.00423846,0.00237292,0.999832,0.000639955,-0.00049771,-0.0182992,0.99981,-1.43984e-06,-2.24649e-07,-0.0194671,1
11772000,0.0056635,-0.0102056,0.0105835,0.999833,0.000592769,-0.000443108,-0.0182685,0.99981,-1.43984e-06,-2.24649e-07,-0.0194671,1
11804000,0.00253025,-0.00371809,-0.00405836,0.999835,0.000623242,-0.000494973,-0.0181643,0.99981,-1.43984e-06,-2.24649e-07,-0.0194671,1
11840000,0.02441,-0.00535028,-0.000846466,0.999835,0.00071455,-0.000439084,-0.0181653,0.99981,-1.43984e-06,-2.24649e-07,-0.0194671,1
11868000,-0.00723132,0.0104747,-0.00568732,0.999835,0.000802837,-0.000380073,-0.0181318,0.99981,-1.43984e-06,-2.24649e-07,-0.0194671,1
11900000,-0.0147801,-0.00360949,-0.00711139,0.999835,0.000616859,-0.000418706,-0.0181462,0.99981,-1.43984e-06,-2.24649e-07,-0.0194671,1
11932000,-0.00922697,-0.00087602,0.0143407,0.999835,0.000577842,-0.000379509,-0.0181537,0.99981,-1.43984e-06,-2.24649e-07,-0.0194671,1
11968000,0.000736931,-0.00616155,-0.0060521,0.999835,0.000480512,-0.000357185,-0.0181696,0.99981,-1.43984e-06,-2.24649e-07,-0.0194671,1
11996000,-0.00628588,0.00581524,-0.00298905,0.999833,0.000495628,-0.000291244,-0.0182598,0.99981,-1.43984e-06,-2.24649e-07,-0.0194671,1
12028000,-0.00302498,0.000714865,-0.0105032,0.999833,0.000456949,-0.000351231,-0.0182612,0.99981,-1.43984e-06,-2.24649e-07,-0.0194671,1
12060000,0.00106635,0.00435399,-0.00710344,0.999832,0.000425997,-0.000312795,-0.0183297,0.99981,-1.43984e-06,-2.24649e-07,-0.0194671,1
12092000,0.00307928,-0.00344906,-0.00475146,0.99983,0.000377978,-0.00031634,-0.0184122,0.99981,-1.43984e-06,-2.24649e-07,-0.0194671,1
12124000,-0.0174334,-0.0015901,0.00255891,0.999832,0.000292609,-0.000281538,-0.0183525,0.99981,-1.43984e-06,-2.24649e-07,-0.0194671,1
12160000,0.00610559,0.0029593,0.00364359,0.999833,0.000347987,-0.000232891,-0.0182424,0.99981,-1.43984e-06,-2.24649e-07,-0.0194671,1
12188000,0.0126634,-0.0119711,-0.00379988,0.999833,0.000367666,-0.000269711,-0.0182881,0.99981,-1.43984e-06,-2.24649e-07,-0.0194671,1
12220000,0.00017832,0.00972445,-0.0047349,0.999833,0.000422316,-0.000312103,-0.0182794,0.99981,-1.43984e-06,-2.24649e-07,-0.0194671,1
12252000,-0.00474029,0.000163847,-0.0105552,0.999833,0.000358991,-0.000253721,-0.0182761,0.99981,-1.43984e-06,-2.24649e-07,-0.0194671,1
12288000,-0.00413809,0.00192442,-0.000899339,0.999831,0.000367944,-0.000222726,-0.0183504,0.99981,-1.43984e-06,-2.24649e-07,-0.0194671,1
12316000,-0.00333625,0.00358403,-0.00593666,0.999831,0.000391226,-0.000256112,-0.0183671,0.99981,-1.43984e-06,-2.24649e-07,-0.0194671,1
12348000,0.00154861,-0.00193183,-0.0020201,0.999832,0.000415001,-0.00029564,-0.018336,0.99981,-1.43984e-06,-2.24649e-07,-0.0194671,1
12380000,-0.00341226,-0.00671737,-0.00434535,0.999831,0.000434147,-0.000303306,-0.0183942,0.99981,-1.43984e-06,-2.24649e-07,-0.0194671,1
12412000,-0.0111038,-0.00205835,-0.00162264,0.99983,0.000469273,-0.000291263,-0.018427,0.99981,-1.43984e-06,-2.24649e-07,-0.0194671,1
12444000,-0.00253804,-0.00161833,-0.00685991,0.99983,0.000373171,-0.000293539,-0.0184459,0.99981,-1.43984e-06,-2.24649e-07,-0.0194671,1
12476000,-0.00786959,-0.00337436,0.00823413,0.99983,0.000336518,-0.000212452,-0.0184223,0.99981,-1.43984e-06,-2.24649e-07,-0.0194671,1
12508000,0.00839045,-0.00504796,-0.00279128,0.999831,0.000363281,-0.000210135,-0.0183695,0.99981,-1.43984e-06,-2.24649e-07,-0.0194671,1
12540000,0.00453699,0.00101214,-0.00392331,0.999832,0.000409735,-0.000233646,-0.0183203,0.99981,-1.43984e-06,-2.24649e-07,-0.0194671,1
12572000,-0.00976329,0.00206038,-0.00326836,0.999831,0.0004479,-0.000260672,-0.0183565,0.99981,-1.43984e-06,-2.24649e-07,-0.0194671,1
12604000,-0.00344437,0.000908963,-0.00543805,0.999831,0.000462198,-0.000244057,-0.0183731,0.99981,-1.43984e-06,-2.24649e-07,-0.0194671,1
12636000,-0.00942379,-0.00655383,-0.00461816,0.999832,0.000454086,-0.000274938,-0.0183154,0.99981,-1.43984e-06,-2.24649e-07,-0.0194671,1
12668000,-0.00281406,3.30356e-06,0.00343257,0.999833,0.000327992,-0.000331884,-0.0182608,0.99981,-1.43984e-06,-2.24649e-07,-0.0194671,1
12700000,0.0147351,-0.001464,-0.00199289,0.999833,0.000337195,-0.000274671,-0.0182678,0.99981,-1.43984e-06,-2.24649e-07,-0.0194671,1
12736000,0.00343503,0.000367434,-0.00145668,0.999834,0.000377855,-0.000269516,-0.0182319,0.99981,-1.43984e-06,-2.24649e-07,-0.0194671,1
12764000,-0.000183221,0.00582877,-0.00169417,0.999832,0.000323627,-0.000193027,-0.0183076,0.99981,-1.43984e-06,-2.24649e-07,-0.0194671,1
12800000,-0.00166146,0.00785637,-0.00201754,0.999831,0.000336641,-0.000174082,-0.0183517,0.99981,-1.43984e-06,-2.24649e-07,-0.0194671,1
12828000,0.00155957,-0.000756685,-0.00326016,0.999831,0.000295509,-0.000121421,-0.0183778,0.99981,-1.43984e-06,-2.24649e-07,-0.0194671,1
12864000,0.00436683,0.00245132,0.00236635,0.999831,0.000317078,-7.98286e-05,-0.0183583,0.99981,-1.43984e-06,-2.24649e-07,-0.0194671,1
12892000,-0.00160898,0.00270069,-0.000744704,0.999831,0.000380479,-0.000103459,-0.0183574,0.99981,-1.43984e-06,-2.24649e-07,-0.0194671,1
12928000,2.40092e-05,-0.0138286,-0.00116323,0.999832,0.000330566,-0.000172734,-0.018329,0.99981,-1.43984e-06,-2.24649e-07,-0.0194671,1
12956000,-0.0063676,0.00720888,0.00372734,0.999833,0.000322051,-0.000116983,-0.0182718,0.99981,-1.43984e-06,-2.24649e-07,-0.0194671,1
12988000,-0.000855727,-0.00638456,-0.00723973,0.999832,0.000293111,-4.77714e-05,-0.0183187,0.99981,-1.43984e-06,-2.24649e-07,-0.0194671,1
13020000,-0.000792998,0.0111911,0.00255883,0.999832,0.000294273,-6.84728e-05,-0.0183197,0.99981,-1.43984e-06,-2.24649e-07,-0.0194671,1
13052000,-0.00155642,-0.00322584,0.0167149,0.999833,0.000334735,-5.00724e-05,-0.0182963,0.99981,-1.43984e-06,-2.24649e-07,-0.0194671,1
13088000,-0.0034711,-0.00136922,0.00253628,0.999832,0.000262957,-0.000112181,-0.0183316,0.99981,-1.43984e-06,-2.24649e-07,-0.0194671,1
13116000,0.000829257,0.00543671,-0.00490628,0.999831,0.000206919,-0.000149745,-0.0183784,0.99981,-1.43984e-06,-2.24649e-07,-0.0194671,1
13148000,-0.000740642,0.00435414,0.0154203,0.99983,0.000224953,-0.000210263,-0.0184437,0.99981,-1.43984e-06,-2.24649e-07,-0.0194671,1
13184000,0.00116752,0.0033537,0.0111106,0.99983,0.000206889,-0.000340395,-0.0184465,0.99981,-1.43984e-06,-2.24649e-07,-0.0194671,1
13216000,0.00524638,0.00645146,-0.00924663,0.99983,0.000251076,-0.00032464,-0.0184101,0.99981,-1.43984e-06,-2.24649e-07,-0.0194671,1
13244000,0.0103713,0.00117986,0.0147271,0.99983,0.000275344,-0.000316284,-0.0184494,0.99981,-1.43984e-06,-2.24649e-07,-0.0194671,1
13280000,0.00417129,0.00300631,-0.0102973,0.999828,0.000309766,-0.000317035,-0.0185232,0.99981,-1.43984e-06,-2.24649e-07,-0.0194671,1
13312000,-0.00759775,-0.00943374,0.000599074,0.999827,0.000270275,-0.000410163,-0.0185814,0.99981,-1.43984e-06,-2.24649e-07,-0.0194671,1
13340000,0.00538415,-0.00914469,0.0146496,0.999827,0.000275804,-0.000472261,-0.018597,0.99981,-1.43984e-06,-2.24649e-07,-0.0194671,1
13376000,-0.00498468,0.0111734,0.00501906,0.999827,0.000351568,-0.000427507,-0.0186117,0.99981,-1.43984e-06,-2.24649e-07,-0.0194671,1
13404000,-0.00449183,0.00682547,-0.00240173,0.999827,0.000235653,-0.000336152,-0.0185871,0.99981,-1.43984e-06,-2.24649e-07,-0.0194671,1
13436000,-0.00226141,0.0119327,-0.00598446,0.999826,0.0002729,-0.000247732,-0.0186515,0.99981,-1.43984e-06,-2.24649e-07,-0.0194671,1
13468000,-0.00207898,-0.00348436,-0.00608761,0.999824,0.000312602,-0.000298218,-0.0187769,0.99981,-1.43984e-06,-2.24649e-07,-0.0194671,1
13500000,0.0134173,0.0186371,0.00086479,0.999825,0.000263629,-0.000283471,-0.0187247,0.99981,-1.43984e-06,-2.24649e-07,-0.0194671,1
13532000,-0.00192633,-0.00115898,-0.00102429,0.999825,0.000259384,-0.000292994,-0.0187149,0.99981,-1.43984e-06,-2.24649e-07,-0.0194671,1
13564000,0.00478729,-0.0137717,-0.00947986,0.999823,0.000224961,-0.000338462,-0.0187905,0.99981,-1.43984e-06,-2.24649e-07,-0.0194671,1
13596000,-0.00420107,0.0119809,-0.000250813,0.999823,0.000179989,-0.000399852,-0.0187993,0.99981,-1.43984e-06,-2.24649e-07,-0.0194671,1
13632000,-0.00374138,-0.00176445,0.013176,0.999824,0.000146761,-0.000443909,-0.018751,0.99981,-1.43984e-06,-2.24649e-07,-0.0194671,1
13660000,0.00730596,0.00531386,-0.00123223,0.999824,0.000190344,-0.000442177,-0.0187675,0.99981,-1.43984e-06,-2.24649e-07,-0.0194671,1
13696000,-0.00201319,0.00037992,-0.00997681,0.999825,0.000193054,-0.00043539,-0.0186737,0.99981,-1.43984e-06,-2.24649e-07,-0.0194671,1
13724000,-0.0129119,-0.00172641,0.00375552,0.999827,0.000190974,-0.000459678,-0.0186118,0.99981,-1.43984e-06,-2.24649e-07,-0.0194671,1
13756000,-0.00314593,-0.011278,0.00109256,0.999828,0.000143586,-0.000543177,-0.0185437,0.99981,-1.43984e-06,-2.24649e-07,-0.0194671,1
13788000,0.0135275,-0.00552293,-0.00303114,0.999828,0.000163397,-0.000564248,-0.0185465,0.99981,-1.43984e-06,-2.24649e-07,-0.0194671,1
13820000,-0.00555691,-0.00483409,-0.00355065,0.999829,0.000215701,-0.000605338,-0.018505,0.99981,-1.43984e-06,-2.24649e-07,-0.0194671,1
13852000,0.00440291,0.00970094,-0.00436071,0.999828,0.000236921,-0.000600008,-0.0185306,0.99981,-1.43984e-06,-2.24649e-07,-0.0194671,1
13884000,-0.0155188,0.0146849,-0.00145846,0.999829,0.000183746,-0.000532184,-0.0184764,0.99981,-1.43984e-06,-2.24649e-07,-0.0194671,1
13916000,-0.000349382,-0.00203142,0.00282108,0.999828,0.00015358,-0.000535176,-0.0185276,0.99981,-1.43984e-06,-2.24649e-07,-0.0194671,1
13948000,-0.00159842,-0.00131611,-0.00631945,0.999828,0.000173586,-0.000682086,-0.018539,0.99981,-1.43984e-06,-2.24649e-07,-0.0194671,1
13980000,-0.0122178,-0.00054976,-0.0123478,0.999828,8.96869e-05,-0.000619695,-0.0185533,0.99981,-1.43984e-06,-2.24649e-07,-0.0194671,1
14012000,0.00317901,0.0132522,-0.00409109,0.999826,2.247e-05,-0.000694431,-0.0186193,0.99981,-1.43984e-06,-2.24649e-07,-0.0194671,1
14048000,-0.00129635,0.00199892,-0.00127504,0.999826,3.67199e-05,-0.000705557,-0.0186139,0.99981,-1.43984e-06,-2.24649e-07,-0.0194671,1
14076000,-0.00323797,0.00544133,-0.0091564,0.999828,4.26614e-05,-0.000667972,-0.0185451,0.99981,-1.43984e-06,-2.24649e-07,-0.0194671,1
14108000,-0.00284406,0.0119319,-0.00806734,0.999826,0.000129335,-0.000740293,-0.0186546,0.99981,-1.43984e-06,-2.24649e-07,-0.0194671,1
14140000,0.00577657,-0.00580519,-0.00480723,0.999826,0.000118974,-0.000754716,-0.0186314,0.99981,-1.43984e-06,-2.24649e-07,-0.0194671,1
14172000,-0.0033296,-0.000467598,0.00223355,0.999827,8.03849e-05,-0.000736085,-0.0186047,0.99981,-1.43984e-06,-2.24649e-07,-0.0194671,1
14208000,-0.005463,0.0122386,0.00779821,0.999829,7.02089e-05,-0.000719663,-0.0184886,0.99981,-1.43984e-06,-2.24649e-07,-0.0194671,1
14236000,0.00748747,-0.00858965,-0.00335578,0.999828,0.00014701,-0.000751086,-0.0185197,0.99981,-1.43984e-06,-2.24649e-07,-0.0194671,1
14268000,0.011204,0.00504483,-0.00176814,0.999827,0.000165625,-0.000764942,-0.0185743,0.99981,-1.43984e-06,-2.24649e-07,-0.0194671,1
14300000,0.0138908,0.00881976,-0.00712228,0.999828,0.000127114,-0.000913417,-0.0185357,0.99981,-1.43984e-06,-2.24649e-07,-0.0194671,1
14332000,-0.00586191,-0.00526626,-0.00329903,0.999826,0.000105284,-0.000872731,-0.0186562,0.99981,-1.43984e-06,-2.24649e-07,-0.0194671,1
14368000,0.00247209,0.0178138,0.00780803,0.999824,-2.00945e-05,-0.000773924,-0.0187435,0.99981,-1.43984e-06,-2.24649e-07,-0.0194671,1
14396000,-0.0107125,-0.0032367,-0.00829899,0.999824,-5.0539e-05,-0.000743834,-0.0187406,0.99981,-1.43984e-06,-2.24649e-07,-0.0194671,1
14428000,0.00560571,-0.00405754,-0.00509714,0.999824,-2.70368e-05,-0.000785193,-0.0187593,0.99981,-1.43984e-06,-2.24649e-07,-0.0194671,1
14460000,0.00374737,0.00335882,0.00579145,0.999824,-7.8881e-05,-0.000733151,-0.0187624,0.99981,-1.43984e-06,-2.24649e-07,-0.0194671,1
14492000,-0.0101212,0.00156951,0.0149301,0.999824,-0.000107742,-0.000744737,-0.0187411,0.99981,-1.43984e-06,-2.24649e-07,-0.0194671,1
14524000,-0.00922853,-0.0110511,0.0124145,0.999826,-0.000116821,-0.000765939,-0.0186367,0.99981,-1.43984e-06,-2.24649e-07,-0.0194671,1
14556000,0.00326856,0.00669401,0.00753735,0.999826,-5.22686e-05,-0.000786118,-0.0186468,0.99981,-1.43984e-06,-2.24649e-07,-0.0194671,1
14588000,-0.0148119,0.00206319,-0.00325859,0.999826,-0.000152202,-0.000771356,-0.0186424,0.99981,-1.43984e-06,-2.24649e-07,-0.0194671,1
14620000,0.0124532,0.00918933,0.00288402,0.999825,-0.000117038,-0.000750917,-0.0187114,0.99981,-1.43984e-06,-2.24649e-07,-0.0194671,1
14652000,0.00799001,-0.0084068,0.00502136,0.999825,-6.47551e-05,-0.00072465,-0.0186867,0.99981,-1.43984e-06,-2.24649e-07,-0.0194671,1
14684000,-0.00125552,0.00669768,0.00414475,0.999825,-7.67047e-05,-0.000716573,-0.0186891,0.99981,-1.43984e-06,-2.24649e-07,-0.0194671,1
14716000,0.000293566,0.00206611,0.012521,0.999827,-9.3521e-05,-0.000594683,-0.0186039,0.99981,-1.43984e-06,-2.24649e-07,-0.0194671,1
14752000,4.41442e-05,0.011323,-0.00246351,0.999826,-2.01942e-05,-0.000591473,-0.0186176,0.99981,-1.43984e-06,-2.24649e-07,-0.0194671,1
14780000,0.00133383,-0.00505475,0.00708743,0.999827,-4.44276e-05,-0.000553265,-0.0185716,0.99981,-1.43984e-06,-2.24649e-07,-0.0194671,1
14816000,-0.00417707,0.00546261,-0.00267198,0.999829,9.67651e-06,-0.00056171,-0.0185049,0.99981,-1.43984e-06,-2.24649e-07,-0.0194671,1
14844000,0.00272175,0.00376947,-0.00599434,0.999829,-1.4641e-05,-0.000552964,-0.0184734,0.99981,-1.43984e-06,-2.24649e-07,-0.0194671,1
14876000,0.0120085,0.00858804,0.00276298,0.99983,5.13346e-05,-0.000594263,-0.0184324,0.99981,-1.43984e-06,-2.24649e-07,-0.0194671,1
14912000,-0.00219922,-0.000781119,0.00264585,0.999829,-4.22188e-05,-0.000676411,-0.0184749,0.99981,-1.43984e-06,-2.24649e-07,-0.0194671,1
14940000,-0.0101048,-0.00528842,0.00954005,0.999831,-0.000118984,-0.00070768,-0.0183931,0.99981,-1.43984e-06,-2.24649e-07,-0.0194671,1
14972000,-0.00577263,0.00394152,0.00649847,0.999831,-0.000201872,-0.000608392,-0.018394,0.99981,-1.43984e-06,-2.24649e-07,-0.0194671,1
15004000,0.00711041,-0.00251191,0.00726704,0.999832,-0.000193391,-0.000624477,-0.0183243,0.99981,-1.43984e-06,-2.24649e-07,-0.0194671,1
15036000,0.00339826,0.0149086,0.0109104,0.999834,-0.000235391,-0.000618783,-0.0181941,0.99981,-1.43984e-06,-2.24649e-07,-0.0194671,1
15068000,0.00836954,0.00807074,-0.00578062,0.999835,-0.000202616,-0.000545729,-0.0181654,0.99981,-1.43984e-06,-2.24649e-07,-0.0194671,1
15100000,0.0058862,-0.000675886,0.011546,0.999836,-0.000251595,-0.000587839,-0.0180962,0.99981,-1.43984e-06,-2.24649e-07,-0.0194671,1
15132000,0.00383156,0.00575432,0.0159412,0.999836,-0.000189463,-0.000612121,-0.0180801,0.99981,-1.43984e-06,-2.24649e-07,-0.0194671,1
15164000,0.00161242,-0.00547997,0.0137342,0.999837,-0.00016261,-0.000591248,-0.018026,0.99981,-1.43984e-06,-2.24649e-07,-0.0194671,1
15196000,-0.000935958,0.0174049,0.00543588,0.999837,-0.000221897,-0.000623524,-0.0180377,0.99981,-1.43984e-06,-2.24649e-07,-0.0194671,1
15228000,0.00997665,-0.00104447,0.0075188,0.999837,-0.00020064,-0.000667718,-0.0180315,0.99981,-1.43984e-06,-2.24649e-07,-0.0194671,1
15260000,0.0075471,-0.00918367,0.000481916,0.999837,-0.00016902,-0.000749617,-0.0180501,0.99981,-1.43984e-06,-2.24649e-07,-0.0194671,1
15292000,0.00139265,-0.00230707,0.00659309,0.999837,-0.000208959,-0.000798684,-0.0180112,0.99981,-1.43984e-06,-2.24649e-07,-0.0194671,1
15324000,0.00547451,-0.00220154,0.00834481,0.999837,-0.000264139,-0.000818378,-0.0180213,0.99981,-1.43984e-06,-2.24649e-07,-0.0194671,1
15356000,0.00744068,0.00765427,0.0106906,0.999839,-0.000280303,-0.000809093,-0.0179264,0.99981,-1.43984e-06,-2.24649e-07,-0.0194671,1
15388000,-0.0205992,0.00229029,6.79518e-06,0.99984,-0.000324077,-0.000730813,-0.0178819,0.99981,-1.43984e-06,-2.24649e-07,-0.0194671,1
15420000,8.6246e-06,0.00104902,-0.0152423,0.999838,-0.000364889,-0.000733124,-0.0179987,0.99981,-1.43984e-06,-2.24649e-07,-0.0194671,1
15452000,-0.000166862,0.00109764,-0.000295569,0.999836,-0.000451469,-0.000762946,-0.0180795,0.99981,-1.43984e-06,-2.24649e-07,-0.0194671,1
15484000,-0.00371648,0.00138066,0.00956317,0.999836,-0.000468912,-0.000766677,-0.0181007,0.99981,-1.43984e-06,-2.24649e-07,-0.0194671,1
15516000,0.0118008,0.00546029,0.00588957,0.999839,-0.000487107,-0.000777252,-0.0179195,0.99981,-1.43984e-06,-2.24649e-07,-0.0194671,1
15548000,0.00415423,0.00376409,-0.000243487,0.999837,-0.000376071,-0.000727505,-0.0180271,0.99981,-1.43984e-06,-2.24649e-07,-0.0194671,1
15580000,0.00416737,-0.0145131,-0.0053714,0.999836,-0.000385169,-0.000729111,-0.0181015,0.99981,-1.43984e-06,-2.24649e-07,-0.0194671,1
15612000,-0.0136737,0.00771211,0.00946128,0.999836,-0.000472156,-0.000738453,-0.0180887,0.99981,-1.43984e-06,-2.24649e-07,-0.0194671,1
15644000,0.00088793,0.0018334,-0.00111952,0.999835,-0.000460466,-0.000693579,-0.0181531,0.99981,-1.43984e-06,-2.24649e-07,-0.0194671,1
15676000,-0.00881833,-0.00872906,0.00969864,0.999835,-0.00041019,-0.000706729,-0.0181477,0.99981,-1.43984e-06,-2.24649e-07,-0.0194671,1
15708000,0.00701727,0.0102358,-0.00755963,0.999835,-0.000308862,-0.000798475,-0.0181663,0.99981,-1.43984e-06,-2.24649e-07,-0.0194671,1
15740000,0.00112546,0.0111746,0.00676894,0.999836,-0.000294816,-0.000796012,-0.0180994,0.99981,-1.43984e-06,-2.24649e-07,-0.0194671,1
15772000,-0.00145421,-0.000779837,0.00825366,0.999837,-0.000264912,-0.000834849,-0.0180295,0.99981,-1.43984e-06,-2.24649e-07,-0.0194671,1
15804000,-0.000515204,-0.00267586,-0.00263015,0.999835,-0.000270018,-0.000852208,-0.0181514,0.99981,-1.43984e-06,-2.24649e-07,-0.0194671,1
15836000,-0.00561434,0.00213299,0.00554743,0.999835,-0.000263574,-0.000834056,-0.0181291,0.99981,-1.43984e-06,-2.24649e-07,-0.0194671,1
15868000,0.00850033,-0.0077817,0.00139179,0.999836,-0.000287607,-0.000842937,-0.0181122,0.99981,-1.43984e-06,-2.24649e-07,-0.0194671,1
15904000,0.0165134,-0.00719973,-0.00370034,0.999835,-0.000231391,-0.00100987,-0.0181148,0.99981,-1.43984e-06,-2.24649e-07,-0.0194671,1
15932000,-0.00367306,-0.00474612,0.000112862,0.999835,-0.000192938,-0.000947582,-0.0181143,0.99981,-1.43984e-06,-2.24649e-07,-0.0194671,1
15964000,0.00111321,0.0021842,0.0052735,0.999837,-0.000186515,-0.00085479,-0.0180499,0.99981,-1.43984e-06,-2.24649e-07,-0.0194671,1
16000000,0.011788,0.00519665,0.0104153,0.999837,-0.000155902,-0.000818721,-0.0180076,0.99981,-1.43984e-06,-2.24649e-07,-0.0194671,1
16032000,0.00149228,0.0113384,-0.00305148,0.999837,-0.000132579,-0.000758638,-0.018011,0.99981,-1.43984e-06,-2.24649e-07,-0.0194671,1
16060000,-0.00402823,0.0127595,0.00121347,0.999838,-0.000137551,-0.000630635,-0.0179984,0.99981,-1.43984e-06,-2.24649e-07,-0.0194671,1
16092000,0.00964097,-0.00466355,-0.00920534,0.999839,-0.000116201,-0.000642097,-0.017912,0.99981,-1.43984e-06,-2.24649e-07,-0.0194671,1
16124000,0.000360462,0.00137448,-0.00306969,0.999838,-0.000137359,-0.000639971,-0.0179627,0.99981,-1.43984e-06,-2.24649e-07,-0.0194671,1
16156000,-0.0128685,0.0085267,0.000166409,0.999839,-0.000111819,-0.000613703,-0.0179394,0.99981,-1.43984e-06,-2.24649e-07,-0.0194671,1
